recording_time_ns,dt,wind_enabled,pos_x,pos_y,pos_z,pos_roll,pos_pitch,pos_yaw,targetpos_x,targetpos_y,targetpos_z,targetpos_yaw,control_vel_x,control_vel_y,control_vel_z,control_vel_yaw
1776704889692078662,0.100297958,False,-0.0753587249769644,0.0243472668283269,0.863125158975457,0.0026422980471086,0.0214949322527502,0.0422757775530028,0.0,0.0,2.0,0.0,0.019946709474731802,-0.00738923344593136,0.34866450816520106,-0.029922305086723423
1776704889694440200,0.100942831,False,-0.0767723110418224,0.0229293777412512,0.8612581647345273,0.0027212074522232,0.0211789242358789,0.0411027347516054,0.0,0.0,2.0,0.0,0.0340688198729285,-0.012114978271847801,0.5860319922584728,-0.04703057563045054
1776704889696539466,0.108079399,False,-0.0781794772282966,0.0216047081264898,0.8594998330349873,0.0028177299387292,0.022091819693295,0.0422882136435921,0.0,0.0,2.0,0.0,0.04422531001234957,-0.015113771267778062,0.7470770863101284,-0.05733148492983364
1776704889698613599,0.102409535,False,-0.0792739111565821,0.0203441093620241,0.8584471090137802,0.0032139074233802,0.0189036283704211,0.0416313030123587,0.0,0.0,2.0,0.0,0.05147256893660074,-0.01676645454119928,0.8567585078583306,-0.06354830488311426
1776704889700590863,0.089870739,False,-0.080195375492799,0.0196751616400099,0.8577616802951911,0.0014925590855716,0.0196595374215599,0.0425165300103747,0.0,0.0,2.0,0.0,0.05654354158570799,-0.01776176929577715,0.9325827050184253,-0.06905998382720055
1776704889702670805,0.102586946,False,-0.0811925575674545,0.0190297744970137,0.8567013422945766,0.0011772262779874,0.0185501491114834,0.0415411842546896,0.0,0.0,2.0,0.0,0.060469848936983324,-0.01821253458313276,0.9827933424356768,-0.07046513795569824
1776704889704754652,0.097731724,False,-0.0817431466377169,0.0188052267290025,0.8562530107898414,0.0029186838624025,0.0210842683709147,0.0408341620057303,0.0,0.0,2.0,0.0,0.06333564027285266,-0.018457500233107046,0.9999999954566873,-0.07131126154425108
1776704889706881968,0.10499396,False,-0.0820905181951026,0.018810074576522,0.8557216797568261,0.0086048237175863,0.0272689905925839,0.0418995526474335,0.0,0.0,2.0,0.0,0.0653437429980761,-0.018705538939918633,0.9999999992754547,-0.0716546393027366
1776704889708941074,0.098166891,False,-0.0823346895616227,0.0188639241066684,0.8552470390119482,0.0055977844460065,0.0218710136519002,0.0408521719033147,0.0,0.0,2.0,0.0,0.06686990737628036,-0.018792723508192964,0.9999999990906433,-0.07199741048141732
1776704889710987440,0.099734822,False,-0.0825074495876586,0.0190927273211863,0.8545396865980966,0.002668569771747,0.0194777774941525,0.0410419986089941,0.0,0.0,2.0,0.0,0.06794508825577102,-0.01896880203153368,0.9999999993154121,-0.07209216018031836
1776704889713025410,0.102406992,False,-0.0823753165652624,0.0191878229988485,0.8543820593900727,0.0091145216037713,0.0252282487744977,0.0411602166979893,0.0,0.0,2.0,0.0,0.06863330163656273,-0.019109863345047384,0.9999999994033273,-0.07193561144305921
1776704889715102612,0.098870224,False,-0.0811035701704451,0.0181818452147202,0.8569543450986978,0.0300247643500181,0.0395331175725761,0.0394775720222132,0.0,0.0,2.0,0.0,0.06887105772991041,-0.018842455810721245,0.9999999992539763,-0.07116594102369218
1776704889717171582,0.098052998,False,-0.077222729221982,0.0143960505250127,0.8635782582093293,0.049362345542308,0.0558597011015604,0.0395130808087204,0.0,0.0,2.0,0.0,0.06809211843022057,-0.017771068172008502,0.9999999990517635,-0.07071074356304266
1776704889719211691,0.09978466,False,-0.0703831218108231,0.0075170306192979,0.8725526940914923,0.0576284854099626,0.0630197505320424,0.0397964019637799,0.0,0.0,2.0,0.0,0.06585874103768524,-0.015220543429112453,0.9999999984947971,-0.0704226053512532
1776704889721220803,0.102505863,False,-0.0631928093551927,0.0002801912775179,0.8800253058160289,0.052664674328114,0.0642302918250363,0.0406777629772569,0.0,0.0,2.0,0.0,0.06243310220255182,-0.01147985436415828,0.9999999978275842,-0.07053545023505134
1776704889723295151,0.09916941,False,-0.0484784818021405,-0.0152634405109827,0.8934381572507708,0.0559886131872296,0.0587358256989439,0.0397849736309229,0.0,0.0,2.0,0.0,0.05656862550694381,-0.00475947107215975,0.999999996826758,-0.07045110529080707
1776704889725286466,0.104101499,False,-0.0333397764025174,-0.0316358495110317,0.9054177230118524,0.0492655182949225,0.0614501254559693,0.0423708969877767,0.0,0.0,2.0,0.0,0.04855525840095515,0.0043046687825468,0.9999995166577342,-0.0714635952035138
1776704889727251355,0.103916195,False,-0.0135446182376808,-0.0534255509499186,0.9193295961531912,0.0502894281119337,0.054230045929244,0.0400385740685956,0.0,0.0,2.0,0.0,0.038059651629603466,0.016661990413723536,0.9999944114454661,-0.07076290266113903
1776704889729291473,0.117534441,False,0.0080044720558618,-0.0771050107638735,0.9326568344346304,0.0457815776579738,0.0491936840873879,0.0405109314186976,0.0,0.0,2.0,0.0,0.024957752554262105,0.03183814123665004,0.9979055174923549,-0.0691060141252186
1776704889731340917,0.091914733,False,0.0327742776401481,-0.1042019463869964,0.9461943387201622,0.0437462217445252,0.0518706808678183,0.0385872303028685,0.0,0.0,2.0,0.0,0.010441044452774462,0.04905410384932494,0.9999900245312731,-0.06959816389559412
1776704889733389442,0.096506679,False,0.0614449396080232,-0.1359851512264346,0.9601979220611804,0.0470645916524926,0.052495119649101,0.0408047378299058,0.0,0.0,2.0,0.0,-0.006772736707432312,0.06976943610403431,0.9989801712833136,-0.07070355380253664
1776704889735413672,0.096956333,False,0.0866188385908884,-0.1639693064354478,0.9711849483367522,0.0440756672295165,0.05223735495815,0.0409799392994208,0.0,0.0,2.0,0.0,-0.02522429353950817,0.09194306263112109,0.9949724163994964,-0.07156096263928845
1776704889737350115,0.110332805,False,0.1164694111583521,-0.1958234692091141,0.983872598993315,0.0217096206765193,0.0524429968713717,0.0427599343302065,0.0,0.0,2.0,0.0,-0.045731368685126166,0.11644398837479299,0.9826226605866757,-0.07177971223393018
1776704889739291881,0.102408317,False,0.1441690182887316,-0.2227442447307378,0.9944843646603344,-0.0160809743045741,0.055051592119117,0.041897885544494,0.0,0.0,2.0,0.0,-0.0670038389915017,0.1407174314378517,0.9746458458581148,-0.07232330991391847
1776704889740170305,0.100258052,False,-0.2018318821679027,-0.2119817587806289,0.8462221546634231,0.0173221324156663,0.0306684469442988,-0.0187981527779187,0.0,0.0,2.0,0.0,0.053127051108187474,0.0579416583541284,0.3538258837231309,0.01330556792916014
1776704889741237002,0.107089184,False,0.1782453573909637,-0.2503812773600898,1.0062191797679516,-0.0413789191299585,0.0537196946364606,0.0436640533622691,0.0,0.0,2.0,0.0,-0.09008301372716573,0.16545518898651118,0.9636124033297054,-0.07321486758813738
1776704889742471275,0.076729981,False,-0.203016046895308,-0.2115858733220818,0.8484607423542548,0.0126796389555673,0.0264251632671757,-0.0178786765817064,0.0,0.0,2.0,0.0,0.08691985906745979,0.09425029183989958,0.5794698184083221,0.021329433060686836
1776704889743151833,0.094103812,False,0.216646524960973,-0.2725544453126262,1.018516112173617,-0.0478102182050614,0.0551998528813068,0.043661428173642,0.0,0.0,2.0,0.0,-0.11547096759583152,0.1885206496991679,0.9572560400142565,-0.07531316301590625
1776704889744551326,0.072201959,False,-0.2042232456915522,-0.2113531565290397,0.8513139054049188,0.0105025824431354,0.027279433133719,-0.0203837397409938,0.0,0.0,2.0,0.0,0.10993805173148652,0.11928561404044373,0.7324772476375657,0.028109052267677896
1776704889745058797,0.109146184,False,0.2482537543540725,-0.2841450245799844,1.0280148031641438,-0.046552270580571,0.052208859728727,0.0439204506109053,0.0,0.0,2.0,0.0,-0.14196072931207257,0.20847286256763642,0.9441459055742563,-0.07503367620679219
1776704889746616594,0.100841162,False,-0.2050651122271613,-0.2112084240631182,0.8540574658585712,0.0114552007302151,0.0269243756210801,-0.0194866841885965,0.0,0.0,2.0,0.0,0.12969611550520838,0.13984797874390875,0.8486211270932198,0.03060864311284677
1776704889746965919,0.094070698,False,0.2850024148369053,-0.2908505455744919,1.0384676370006225,-0.0451962035269142,0.0546816451427386,0.0437105393674061,0.0,0.0,2.0,0.0,-0.16934218090174677,0.22440780671065436,0.9378303413649867,-0.07647502515187957
1776704889748602211,0.098778998,False,-0.2057620216735093,-0.2107692381979429,0.856756524032484,0.0162223538249255,0.0197920818846469,-0.0197667736424928,0.0,0.0,2.0,0.0,0.14332355005807954,0.15395219428533377,0.9268737953817038,0.03232730964716987
1776704889748905398,0.10568634,False,0.3213851995034381,-0.2912924607031525,1.0484548482220648,-0.0461184015733045,0.0480115940374366,0.0430294018401347,0.0,0.0,2.0,0.0,-0.19857096132036606,0.23605163950194533,0.9263764570919586,-0.07554857635080774
1776704889750554337,0.10123896,False,-0.2068242472950689,-0.2103921546384494,0.8595950195064035,0.0163847399528138,0.0190907107093239,-0.0173289302945537,0.0,0.0,2.0,0.0,0.15342484058501704,0.1631807785700584,0.978540984201479,0.0316951444406623
1776704889750845235,0.068178172,False,0.356800062116411,-0.2864616743982702,1.0579617883787804,-0.0436487585396507,0.0168588771358833,0.0426469054995933,0.0,0.0,2.0,0.0,-0.22222398550721303,0.23991752937905017,0.9169094423758223,-0.07929613949595243
1776704889752617348,0.09911324,False,-0.2080212862963725,-0.2099194630072985,0.8618743100104896,0.0163864475032097,0.0170944007082536,-0.0196789050253804,0.0,0.0,2.0,0.0,0.16003960009473953,0.17003574515970277,0.9999999940123157,0.03276001996313765
1776704889752783728,0.139519384,False,0.3908270383405236,-0.2767732212816848,1.0676376821959137,-0.0387761638304836,-0.0202386490449564,0.042329808049126,0.0,0.0,2.0,0.0,-0.2514990036182075,0.24038118322941,0.8875135270605143,-0.0730474346040595
1776704889754699529,0.061098591,False,0.4170852142827029,-0.2640514009415039,1.0763585541690064,-0.0344735397376817,-0.0374639955087902,0.0430081110464904,0.0,0.0,2.0,0.0,-0.2709840405185616,0.23672902298978327,0.8786248617010542,-0.07873667433236942
1776704889754737198,0.102672641,False,-0.2094409946714008,-0.2093309043149205,0.8638938116381101,0.0178406599693176,0.0223249215869843,-0.0196906541321812,0.0,0.0,2.0,0.0,0.16519120586770317,0.17430829410448428,0.9999999989169089,0.033361764899055034
1776704889756616455,0.1049023,False,0.4378160189332005,-0.2477755657567357,1.08562200885496,-0.0325850083248409,-0.0443142340982029,0.0434137359105613,0.0,0.0,2.0,0.0,-0.30042237666833504,0.23482730879162148,0.875359295034245,-0.07718215209749596
1776704889756802466,0.102266843,False,-0.2113450195156654,-0.2086055646368251,0.8657627433141578,0.0141521018620082,0.0181694449842138,-0.0201144852032029,0.0,0.0,2.0,0.0,0.16916285602968312,0.17713668546108347,0.9999999988117778,0.03402261810212035
1776704889758551038,0.09872198,False,0.4513111140100883,-0.2276837804478414,1.0947160601778911,-0.0319523098507641,-0.0461647733068307,0.0425263480167814,0.0,0.0,2.0,0.0,-0.3249136063003203,0.22830481490666305,0.8724390431085179,-0.07642553892597195
1776704889758824102,0.099421336,False,-0.2131357754454128,-0.2078418918167839,0.8671897408192912,0.0173333262348095,0.0217166416367772,-0.0175588907756529,0.0,0.0,2.0,0.0,0.17293665216542942,0.1784582103019937,0.9999999987933682,0.03296564419134384
1776704889760460695,0.101675496,False,0.4572423255590501,-0.2058945081863151,1.1040745612229332,-0.030865632238886,-0.0377347275418886,0.0435421550012942,0.0,0.0,2.0,0.0,-0.3434837104291917,0.21849096282139288,0.8666191380077525,-0.0762220362026497
1776704889760862851,0.100403308,False,-0.2152604809762617,-0.2069871337142464,0.8676145735010329,0.0144477804816297,0.0137442299688492,-0.0202455141951092,0.0,0.0,2.0,0.0,0.17529181198577645,0.17990193534843016,0.9999999987409319,0.03383208281461788
1776704889762380784,0.099166285,False,0.4567599237374226,-0.181751317926975,1.1126762042717455,-0.0284765862244621,-0.0349778886633862,0.0442554170703009,0.0,0.0,2.0,0.0,-0.35664535508255935,0.20549876405448742,0.8608464165930292,-0.07690663774958005
1776704889762898029,0.099717927,False,-0.2173741238563349,-0.2061418881272552,0.8676074644377377,0.015058424971078,0.0239545050645426,-0.0193574454631462,0.0,0.0,2.0,0.0,0.1779861149478501,0.18021761461842264,0.9999999987530716,0.03397731536149691
1776704889764583216,0.099782132,False,0.4506339710537398,-0.1557880280822232,1.1212901559485209,-0.0252408666685951,-0.0317763324552734,0.0434248745520472,0.0,0.0,2.0,0.0,-0.36480168159497944,0.18907860655300826,0.8540925520507635,-0.07676848603960845
1776704889765001433,0.10038457,False,-0.2192993816471889,-0.2049521505666178,0.8676349636559787,0.0175246216921237,0.0298214750178781,-0.0190375359280274,0.0,0.0,2.0,0.0,0.18030423949172464,0.1801689866351741,0.9999999987365182,0.03378423271138202
1776704889766587022,0.102026205,False,0.4399454263854642,-0.1278941484043812,1.1299238840104482,-0.0283074099002234,-0.0246608404051435,0.0433454912019422,0.0,0.0,2.0,0.0,-0.36780118218678637,0.1702540328320259,0.8460962012431564,-0.07632408554756676
1776704889767084162,0.100034712,False,-0.2207611478370006,-0.2037884104345845,0.8673955332480245,0.0226272365707684,0.0280604965582006,-0.0214449390373793,0.0,0.0,2.0,0.0,0.18184438249305857,0.18031674548201368,0.9999999987575731,0.03519428399479256
1776704889768625037,0.10015775,False,0.425245975781677,-0.0986994213584016,1.1384753134394765,-0.0313996399688278,-0.0251480363489725,0.041710991032674,0.0,0.0,2.0,0.0,-0.36670534540673,0.14888937722934656,0.8386789194730244,-0.07522505320514361
1776704889769164006,0.098324253,False,-0.2217728034966991,-0.2027075897559672,0.8671105453313306,0.022057362502845,0.0223831398129705,-0.020560066205837,0.0,0.0,2.0,0.0,0.1836831200664958,0.1797087254426396,0.9999999988058149,0.035720053328257215
1776704889770617727,0.096062693,False,0.4078448928638383,-0.0693517627545856,1.1465600767266977,-0.0256871027210489,-0.0240192823725256,0.0428261618235451,0.0,0.0,2.0,0.0,-0.3615511760436403,0.1272202189244007,0.8323598773924991,-0.07564876351375463
1776704889771248519,0.103254119,False,-0.2216875715524426,-0.2007250790346647,0.8704113643288547,0.0059173317963517,0.0354035066379669,-0.0177188407715263,0.0,0.0,2.0,0.0,0.18524617374827743,0.17822961192110987,0.9999999984821591,0.03392033030110942
1776704889772604977,0.102198993,False,0.3856751428423067,-0.0365059024315706,1.1553113197074478,-0.0225269396050271,-0.0200043414416456,0.0426323446947372,0.0,0.0,2.0,0.0,-0.35236240646207173,0.10257087996082806,0.8235271563111638,-0.07513221347261058
1776704889773317862,0.100462145,False,-0.2199719147224357,-0.1974599755098531,0.877565899176989,-0.0103054416279465,0.0449659301847926,-0.0155466704566956,0.0,0.0,2.0,0.0,0.18603378380378272,0.17640800574425877,0.999999998094609,0.031421640480628996
1776704889774611187,0.09937756,False,0.3617118356597368,-0.0039359291366435,1.1635615376202215,-0.0191680092799597,-0.0197293364132006,0.043256942155938,0.0,0.0,2.0,0.0,-0.34018367672751415,0.07705922884676687,0.8159059234628487,-0.07553608760843142
1776704889775396282,0.097542072,False,-0.2159314871583512,-0.1919170768462083,0.8880485045483623,-0.018055908598751,0.0527394270911126,-0.0134884326066936,0.0,0.0,2.0,0.0,0.1857378505326678,0.17368478134848367,0.9999999973514745,0.02859594896052409
1776704889776599617,0.099727979,False,0.3351255496570389,0.0291356186107581,1.1722966107463275,-0.0223528588347582,-0.0166570919192776,0.0415529858635849,0.0,0.0,2.0,0.0,-0.3252375301317226,0.049606515103075316,0.8079649845680228,-0.0746934477053073
1776704889777457537,0.100166416,False,-0.2089961933653885,-0.183211092113858,0.9005430578677264,-0.0191795894806564,0.0607259295974416,-0.0141609418929662,0.0,0.0,2.0,0.0,0.18336798148281813,0.16986523636540654,0.9999999960432685,0.027068325692399323
1776704889778565687,0.100299522,False,0.3065406194676188,0.062756328711669,1.1815354688179245,-0.0231198097869464,-0.0129679013357623,0.0438601818722916,0.0,0.0,2.0,0.0,-0.30753023325284656,0.02246031489120047,0.7995798162536909,-0.0754864962211807
1776704889779424309,0.099927565,False,-0.1987803601396901,-0.1714963897118167,0.9145248035228688,-0.019114144222603,0.0613622455610273,-0.0150511141865989,0.0,0.0,2.0,0.0,0.1790753650468528,0.16422481541657002,0.9999988706708741,0.026761285934089694
1776704889780531080,0.099321817,False,0.2764658439507163,0.0973922412537314,1.191495595232563,-0.027179307257355,-0.013673773227526,0.0433860394539384,0.0,0.0,2.0,0.0,-0.28788476393420087,-0.006424439974589067,0.7911579116270887,-0.07591017391304633
1776704889781390268,0.099798382,False,-0.1857903350474513,-0.1568203371568617,0.929696718111514,-0.0210049815951119,0.0577096088717641,-0.0154812335460752,0.0,0.0,2.0,0.0,0.17281814209380458,0.15640791517600192,0.9999835798995136,0.026918172977996875
1776704889782507757,0.101297369,False,0.2459978261386493,0.131275145054888,1.2009794698765943,-0.0223159766206128,-0.0142806624760012,0.0429759310882899,0.0,0.0,2.0,0.0,-0.2664077616408129,-0.03590307569718996,0.7819079903066943,-0.07565693996979662
1776704889783446589,0.100508811,False,-0.169749305313998,-0.1395215954901173,0.9456829149214792,-0.0207603689854213,0.0586430446245062,-0.0159771704314335,0.0,0.0,2.0,0.0,0.16431360693341912,0.1463964337311257,0.9999724329489634,0.02733239833076127
1776704889784482667,0.103862571,False,0.2105896099240558,0.1703939498785006,1.211693805088509,-0.0288902169258312,-0.0132948754145578,0.0418973800769116,0.0,0.0,2.0,0.0,-0.24238437210414926,-0.0672725077985262,0.7715199540953203,-0.07449855746273777
1776704889785498707,0.099479309,False,-0.1513449656843371,-0.1197288646039793,0.9620957884467524,-0.0122249105287308,0.0513088922350325,-0.0167701569248493,0.0,0.0,2.0,0.0,0.15366718151227826,0.1342985323700854,0.9976759156653332,0.028163369162608105
1776704889786449434,0.096608311,False,0.177666669465288,0.2058486942125347,1.2209784639759105,-0.027818241546224,-0.0119037999004112,0.0429002361112828,0.0,0.0,2.0,0.0,-0.2181313786676207,-0.09796300703813608,0.7637771371859081,-0.07520272489415904
1776704889787410453,0.099719162,False,-0.1304492236053474,-0.0975007125589268,0.9787694970986576,-0.0208833402531885,0.055884508921966,-0.0154515597974793,0.0,0.0,2.0,0.0,0.14113179774928444,0.11969942123494824,0.9909330450370607,0.02786531429091122
1776704889788369476,0.102973713,False,0.140978467056712,0.2451636871298115,1.230941109478728,-0.0263006245693942,-0.0092383513555017,0.0425902892291801,0.0,0.0,2.0,0.0,-0.19151205404490768,-0.13056925352445173,0.7536270117343608,-0.07475756340964342
1776704889789319618,0.100565351,False,-0.1074325935570145,-0.0732836595953925,0.995466362765838,-0.0160329048910246,0.0510202567768331,-0.0161009667129116,0.0,0.0,2.0,0.0,0.12625675816427523,0.10329358469254757,0.9809516959900231,0.027984280492899905
1776704889790309295,0.100512234,False,0.104719255748837,0.2838752633476858,1.2406687861911148,-0.026274154800002,-0.0103094873561281,0.0409742534741989,0.0,0.0,2.0,0.0,-0.16388304362250516,-0.1639072141146889,0.7445208986307876,-0.07372662134956544
1776704889791251688,0.09999821,False,-0.0827687545429741,-0.0471255035506523,1.0118792378334729,-0.0111187581571695,0.0491346068852342,-0.0195577193328585,0.0,0.0,2.0,0.0,0.10934862257916247,0.08527687098326463,0.9693547304273994,0.03031390043371711
1776704889792301059,0.098252411,False,0.0691922330987193,0.3218040139795333,1.2498071355895044,-0.0197685920199822,-0.0048947405148682,0.0421805367155544,0.0,0.0,2.0,0.0,-0.13630695990468567,-0.19693601465473115,0.7361624160947298,-0.07403029074841222
1776704889793223599,0.10036811,False,-0.0562543422650787,-0.0193794699114651,1.0285948886404,-0.012186693067935,0.0486746116361407,-0.0211725379982399,0.0,0.0,2.0,0.0,0.09091370538917791,0.0651643917434946,0.9562271558459913,0.03294302661325602
1776704889794275169,0.10051226,False,0.0301368386540714,0.363295621537482,1.2595275238710872,-0.0241148304505724,-0.0054301801442842,0.0426806285531365,0.0,0.0,2.0,0.0,-0.10720192844177903,-0.23135447787506916,0.726895904438078,-0.07434280266589098
1776704889795201131,0.10366108,False,-0.0273627057762112,0.0106588879787706,1.045519348665099,-0.0124131337102149,0.0454956416978791,-0.018056578667755,0.0,0.0,2.0,0.0,0.07074681311758534,0.04263121784886042,0.9407984284703612,0.0324925522971658
1776704889796229805,0.100343786,False,-0.0078298157172183,0.4034925058002667,1.268283899005099,-0.0252223787996422,-0.0052765112870258,0.0415692170036568,0.0,0.0,2.0,0.0,-0.07707576384529878,-0.26641173634856213,0.717938705400456,-0.07387912176030885
1776704889797098657,0.100616423,False,0.0018686622144435,0.0405248571325186,1.0612046373278836,-0.0129306152576541,0.0491643200077483,-0.0160078721494687,0.0,0.0,2.0,0.0,0.04925394498567443,0.019231587439572,0.9267135882424963,0.030880990940380965
1776704889798168763,0.099680159,False,-0.046136949203571,0.4441276881299051,1.2770300038330662,-0.0220312327369884,-0.0013835787153055,0.042399455493176,0.0,0.0,2.0,0.0,-0.04700387287433793,-0.3017094390457624,0.7093608559893413,-0.07413775473722681
1776704889798990038,0.099252426,False,0.032269504546213,0.0713320896437539,1.076561928284243,-0.0103956601752691,0.0445442512926816,-0.0184680679272945,0.0,0.0,2.0,0.0,0.026495810554522343,-0.0050057307380498,0.9129389798431965,0.03139875429908375
1776704889800096839,0.100063967,False,-0.084719226265914,0.4849698618165889,1.285626367053737,-0.0212519758529526,-0.0022717456827493,0.0418161429075968,0.0,0.0,2.0,0.0,-0.016049465275811074,-0.3374641828839831,0.700793115861945,-0.07392483174006607
1776704889800899930,0.099649878,False,0.0635036826436242,0.1031433786962029,1.0917701838544784,-0.0065806625541708,0.0410983677899887,-0.0186126457959318,0.0,0.0,2.0,0.0,0.002643756553075962,-0.03045886247092728,0.8987820839955751,0.031926295630349676
1776704889802055419,0.099946609,False,-0.1233847338517238,0.5260275393261709,1.2940632296399408,-0.0215700776823423,-0.0005973562186865,0.0424932603747507,0.0,0.0,2.0,0.0,0.0147827753504983,-0.37350236475419996,0.692416954853117,-0.07420868946186619
1776704889802854740,0.100400813,False,0.0960051676527758,0.1355065426060403,1.1067468991477538,-0.0086133050368847,0.0495665093176884,-0.0153984371329962,0.0,0.0,2.0,0.0,-0.022525936595076273,-0.056782256777630734,0.8843037553378161,0.030183191314869212
1776704889804029006,0.099994159,False,-0.1623949510636758,0.5672114110538036,1.3025361556335626,-0.019649175943573,-0.0003196365821264,0.0427383276392511,0.0,0.0,2.0,0.0,0.04605035492839744,-0.4098163517907816,0.6841215664857997,-0.07456949944927578
1776704889804822807,0.099979686,False,0.1292301189043128,0.1685985170062547,1.1215065246321865,-0.0098640158985811,0.0534746986063129,-0.0158262039212653,0.0,0.0,2.0,0.0,-0.04848355898256087,-0.08389244879100104,0.8700918762055119,0.029227914876823347
1776704889805963573,0.099967021,False,-0.2014708698441011,0.6087526530867083,1.3106499179415725,-0.0209690450219819,-0.0020653768417673,0.0460183431678466,0.0,0.0,2.0,0.0,0.07617187957770168,-0.44664184242974564,0.6759993214390098,-0.07689607083767099
1776704889806745224,0.099968749,False,0.1638161015790414,0.2024861355297788,1.136449431834319,-0.014048276936369,0.0509095078016399,-0.0137477677654521,0.0,0.0,2.0,0.0,-0.07570077491293364,-0.11160844452813012,0.8558735155372413,0.02734204079251554
1776704889807889934,0.100154175,False,-0.240971864224042,0.6502851389866994,1.318517142872131,-0.012005368360947,-0.0024790647263977,0.0429221896522843,0.0,0.0,2.0,0.0,0.10940781959751963,-0.48318047363837735,0.6680160634265958,-0.07650746804590089
1776704889808666805,0.098591085,False,0.193583066121738,0.2315574978333471,1.1488777698648442,-0.0126692424084993,0.044522097089805,-0.0161949777341981,0.0,0.0,2.0,0.0,-0.10191249960503188,-0.13898194406582767,0.8427860100087635,0.027697933472372087
1776704889809826944,0.100310676,False,-0.2810318515728088,0.6894441193022037,1.325711620405556,0.0304849550411834,-0.0022676474777739,0.0442163387161391,0.0,0.0,2.0,0.0,0.14094415062131685,-0.519707318379013,0.6603289223494563,-0.07690105954110364
1776704889810583392,0.099602834,False,0.2254404863574094,0.2625144269082174,1.161785190760103,-0.007868242436809,0.0470132469691212,-0.0152006058819067,0.0,0.0,2.0,0.0,-0.12873673110972522,-0.1660308294099435,0.829625327522274,0.027380666948923466
1776704889811756055,0.099630439,False,-0.3214209965032071,0.7238770578339322,1.332675617196944,0.0700938582754901,-0.0040903896728383,0.0416089640954194,0.0,0.0,2.0,0.0,0.1748971034089121,-0.5541377710800679,0.6531412214417419,-0.07562162064584066
1776704889812569129,0.104185707,False,0.2620777209756011,0.2982936262737483,1.1768289187705323,-0.0067632808029995,0.0409072102559218,-0.0143479746538842,0.0,0.0,2.0,0.0,-0.15699500162603516,-0.19434409161931504,0.8145270095331458,0.02641073349815939
1776704889813693330,0.099862681,False,-0.3619774230411113,0.7517198295181425,1.3393698871616473,0.0878476659522483,-0.0010851326070969,0.0436830251749396,0.0,0.0,2.0,0.0,0.20668715585390765,-0.5866397977616489,0.6461430272570866,-0.07598845947642158
1776704889814527063,0.100283402,False,0.3004572078456515,0.3360610195888107,1.1925876993704296,-0.0080132605764643,0.0437473907262262,-0.013359362935794,0.0,0.0,2.0,0.0,-0.18653006508453007,-0.22382719274876695,0.8008577449657995,0.025300499441483423
1776704889815619043,0.103392171,False,-0.4047588551706861,0.7709810109036624,1.3462460237027494,0.0870583192979087,-0.0001182009190309,0.0418198050840788,0.0,0.0,2.0,0.0,0.2418136237993263,-0.6140980741487116,0.6383470848860711,-0.07473461343494273
1776704889816465310,0.106098409,False,0.3378021210396876,0.3728394087352894,1.207597972615616,-0.0082540171747156,0.0420784475952734,-0.0135221760210913,0.0,0.0,2.0,0.0,-0.21673903064762826,-0.2543903819799362,0.7848965209143888,0.024453294314955326
1776704889817562179,0.098571774,False,-0.4444220277034219,0.7802362367787549,1.3523991694376571,0.0874766046408305,0.0023887903593545,0.0422538570381948,0.0,0.0,2.0,0.0,0.2753683912630173,-0.6367657444281634,0.6323873160154766,-0.07470377681060035
1776704889818379757,0.099927094,False,0.3769563620392895,0.4116968391159045,1.223416183309971,-0.0058575618818281,0.0483574145047457,-0.0118532882108987,0.0,0.0,2.0,0.0,-0.24820375879882553,-0.2853965982511084,0.7714059880788023,0.023119897483020353
1776704889819531753,0.11617924,False,-0.4755738334093179,0.7818655076282107,1.3573362499718138,0.0823980531445944,0.0016119671468827,0.0397978763976622,0.0,0.0,2.0,0.0,0.30852535828012667,-0.6501771567826014,0.6214010328189528,-0.07121853091692207
1776704889820357503,0.101107744,False,0.4162755417718088,0.4507075843808221,1.2389175833728912,-0.0074211226793786,0.0385936044633192,-0.0135123594602442,0.0,0.0,2.0,0.0,-0.279508215785651,-0.3180793038128606,0.7571331885007816,0.0232313121696525
1776704889821482804,0.087530343,False,-0.518200261977961,0.7770461318474761,1.363582060450585,0.0737685014477338,-0.0002215093115399,0.0418552756863735,0.0,0.0,2.0,0.0,0.3392247859925777,-0.6617276282815279,0.6190628859456784,-0.07344804581219316
1776704889822300479,0.102987958,False,0.4549769525463126,0.4887731994086731,1.253624285691502,-0.0111192474111319,0.0492805074560551,-0.0121131613732473,0.0,0.0,2.0,0.0,-0.31216858926756713,-0.3502583842997167,0.7423025443931824,0.022439530477489818
1776704889823467413,0.103642219,False,-0.5609233766263343,0.7648917824220796,1.3702251543732693,0.0707326740552538,-0.003267513359918,0.0407463610780673,0.0,0.0,2.0,0.0,0.374880150958437,-0.6664896113897657,0.6126018739847989,-0.07239483812232264
1776704889824298525,0.102381297,False,0.4957947160556667,0.5285678679012183,1.2692004991751866,-0.004288456918361,0.0482301107190077,-0.0146548080957677,0.0,0.0,2.0,0.0,-0.34412309596589846,-0.38430928581365364,0.7276958591762184,0.023523361197338038
1776704889825443783,0.099148655,False,-0.6020376409705961,0.747125018333717,1.3766566443169743,0.0658090523251698,-0.0075306827711552,0.0413501900266451,0.0,0.0,2.0,0.0,0.40967594616947495,-0.666543936274313,0.6073411556799442,-0.07258030179055985
1776704889826287510,0.09873234,False,0.5373148659814111,0.5687313681509519,1.2847127936713896,-0.0064678766166579,0.0476025271933434,-0.0110228391597153,0.0,0.0,2.0,0.0,-0.3791149255072116,-0.41668004143904136,0.7141252902837701,0.022143620027318085
1776704889827450701,0.104571147,False,-0.6449764042392077,0.7232774892313673,1.3835832730381228,0.0615795331205883,-0.003021959997771,0.0445942071303522,0.0,0.0,2.0,0.0,0.4435274003310043,-0.6614644183186773,0.6003014315592882,-0.0741858533138124
1776704889828261399,0.104796613,False,0.577918061423277,0.6074775333705751,1.3000962431765903,-0.0046636619796757,0.0484838968112315,-0.0099979734295448,0.0,0.0,2.0,0.0,-0.4135658620653727,-0.4499746136713354,0.6983446374701117,0.02024993472632559
1776704889829428873,0.102171222,False,-0.6867983210155146,0.6957834490903223,1.3900386202243349,0.0515533336551505,-0.010958254032924,0.0392936478166062,0.0,0.0,2.0,0.0,0.4833344030327201,-0.6480629114961357,0.5941656766824979,-0.07224977955634386
1776704889830222184,0.103141828,False,0.6206621943787016,0.6480853274152257,1.3163875278896442,-0.0053177833069896,0.0445056832711525,-0.0098965832084723,0.0,0.0,2.0,0.0,-0.4483500050487827,-0.4840996054653014,0.6832163163268128,0.019024860298111353
1776704889831405936,0.104347342,False,-0.7304109752627852,0.6635092959858173,1.3958649742319038,0.0508223966556298,-0.0042695413074758,0.0436354714480473,0.0,0.0,2.0,0.0,0.5175104302520309,-0.6342979085151565,0.5876399507888385,-0.07329648604093658
1776704889832187510,0.104318569,False,0.6618605811030651,0.6850494041759227,1.3314582993283333,0.0304677683897664,0.0344964104929287,-0.0109212159174712,0.0,0.0,2.0,0.0,-0.48268372858465336,-0.5181797645095142,0.6679467935617912,0.018899769436549307
1776704889833388256,0.101020917,False,-0.7743038133710306,0.6282017017449291,1.401419975057732,0.0496039875565148,-0.0029225087023824,0.0431237303358574,0.0,0.0,2.0,0.0,0.5554999400776507,-0.6147316024687697,0.5823401237530539,-0.07421058174089602
1776704889834157301,0.10055239,False,0.7025530670346536,0.7194635060563677,1.3469970362183423,0.0773603302790355,-0.0016298070749191,-0.0095152263561416,0.0,0.0,2.0,0.0,-0.5183043853031111,-0.5500958263964837,0.6539595874607654,0.018104141250294574
1776704889835385094,0.100726068,False,-0.8169442691965847,0.5914540656030661,1.4066168466595312,0.0427502378095206,-0.0046780183103471,0.0427994358182677,0.0,0.0,2.0,0.0,0.5935104110898313,-0.5919823720754027,0.5772140725231382,-0.07457650045266234
1776704889836132885,0.10037237,False,0.7382451159687531,0.7469542790634134,1.3629708125926834,0.0931763196884652,-0.0479582164473279,-0.0107636392967113,0.0,0.0,2.0,0.0,-0.5512446425976696,-0.5808903423609837,0.6396420309928451,0.018344948372647937
1776704889837374053,0.103958794,False,-0.8613668016134812,0.5510163596273718,1.412043684457703,0.0482104647511918,0.0061615089217033,0.0452329188755411,0.0,0.0,2.0,0.0,0.6303969558526281,-0.5672342924321276,0.5712936068188997,-0.0759509367732788
1776704889838110726,0.109487602,False,0.7653415632810017,0.7651055558636405,1.3776954354367354,0.0920810211414209,-0.0710194796017413,-0.0060384766547315,0.0,0.0,2.0,0.0,-0.5841002327606915,-0.6033605041833138,0.622614286500934,0.015325481760344178
1776704889839349355,0.1036933,False,-0.902047489150474,0.5103614395285716,1.4168418795467153,0.0422785669907788,0.0375239015895193,0.0431151178575998,0.0,0.0,2.0,0.0,0.6693998822713547,-0.5374401611367879,0.5658577857493575,-0.07560512487784626
1776704889840093663,0.067232252,False,0.783192985211915,0.7747363027897353,1.3925027435026485,0.0924027820647229,-0.075477422163908,-0.0066762947038243,0.0,0.0,2.0,0.0,-0.599682583152909,-0.6147094309172948,0.609078421836129,0.01465343238729495
1776704889841332781,0.100947567,False,-0.939751875401806,0.4664130494702946,1.4209845745290215,0.0400321465455917,0.0834832531291285,0.0405373474685918,0.0,0.0,2.0,0.0,0.7075224070509295,-0.5052064563693814,0.561537175056584,-0.07395355388698553
1776704889842050860,0.099883096,False,0.7917260672385507,0.7765704521676675,1.407567803931357,0.0882559039939489,-0.0660224070375517,-0.0029962223969244,0.0,0.0,2.0,0.0,-0.6260324447746897,-0.6307000106937249,0.5956662350446296,0.011141614454269092
1776704889843321491,0.073203124,False,-0.969477434478252,0.4226680174235884,1.4241881952397883,0.037922926937975,0.1038713974062242,0.0403418426939551,0.0,0.0,2.0,0.0,0.7336293953309043,-0.4726008011988037,0.558537989598267,-0.07597276822246
1776704889844026404,0.100101072,False,0.7913740627561872,0.7711773199650763,1.4231009886252646,0.0830896074381324,-0.064421850310159,-0.005042862317577,0.0,0.0,2.0,0.0,-0.6414281230082371,-0.64326028755599,0.5817069346475663,0.010102035875861297
1776704889845302421,0.100684859,False,-0.9903869709339086,0.3776687063504238,1.4270251446037705,0.0405698623545693,0.1098365087943433,0.0402283074043421,0.0,0.0,2.0,0.0,0.7659354034913444,-0.43851085302863035,0.5547870100699855,-0.0738159563536386
1776704889846008709,0.100208858,False,0.7830893472893232,0.7597944140239556,1.438707074090074,0.0762897396143997,-0.0594887470705713,-0.0045861927224567,0.0,0.0,2.0,0.0,-0.6512280765739572,-0.6478299586208776,0.567419469804031,0.009298160745846934
1776704889847294326,0.100293337,False,-1.002237571701964,0.3316601509995581,1.4297563338630082,0.0380669317796109,0.1092383378326017,0.0405757289618495,0.0,0.0,2.0,0.0,0.7919041949089639,-0.40322736224794437,0.5514408042177821,-0.07276760256335274
1776704889847985054,0.099823662,False,0.7677204644739364,0.7432591558471934,1.4547749884532442,0.0693878852776422,-0.0544256529104356,-0.0069522415504021,0.0,0.0,2.0,0.0,-0.6523743319119746,-0.6484524531296941,0.5528998104120175,0.010311754846956534
1776704889849240275,0.099958705,False,-1.0053879426163024,0.2844608637181861,1.432188727814879,0.0347014436505552,0.1040529924561522,0.0418309852540964,0.0,0.0,2.0,0.0,0.8110554282018558,-0.36723798684556774,0.5484811634195955,-0.07299871107794288
1776704889849906046,0.100207612,False,0.7462861115649445,0.7222971805966847,1.471341501214667,0.061010596667487,-0.0514727213135378,-0.0084260721200791,0.0,0.0,2.0,0.0,-0.6477076068587972,-0.6432095015380838,0.5378942320128891,0.01200097944168782
1776704889851166661,0.10027723,False,-1.0002999961527532,0.2363085484384126,1.4344318645640168,0.0386341113501953,0.104522472363893,0.0405922786418251,0.0,0.0,2.0,0.0,0.8243915205666512,-0.3277837223068522,0.545711508951887,-0.07239680411309678
1776704889851807260,0.099894518,False,0.7196843313944551,0.6974786424954833,1.4882767260783547,0.0670807084617365,-0.0502898676394285,-0.0071443749457952,0.0,0.0,2.0,0.0,-0.6390650549732608,-0.6315478489742885,0.5226000960500581,0.01231028311571578
1776704889853074303,0.103327989,False,-0.9873379826951032,0.1853251633381913,1.4368980274683922,0.0326029910176053,0.0976198387578935,0.0408640487194965,0.0,0.0,2.0,0.0,0.8301024543029132,-0.28739006491824676,0.5424036002975542,-0.07180362357642951
1776704889853708994,0.103095577,False,0.6885094240289915,0.6692852953602704,1.5057500363445016,0.0597309036521997,-0.0488773955254925,-0.0098902061787375,0.0,0.0,2.0,0.0,-0.6222468010731058,-0.6178490915380469,0.5061450590129786,0.014105836974607515
1776704889854989014,0.100746611,False,-0.9683443700414526,0.1358322689873627,1.4388006377475304,0.0343672334338718,0.0929899966658621,0.0413410588407536,0.0,0.0,2.0,0.0,0.8299300717038949,-0.24667960481235454,0.5401330060931806,-0.07204487577723936
1776704889855614921,0.096965071,False,0.6532830838400956,0.6382264513384303,1.523605117820669,0.0544888987792339,-0.0414456965385708,-0.0075648907501146,0.0,0.0,2.0,0.0,-0.6047444893477706,-0.598198945011415,0.4908282111490797,0.013996741921019884
1776704889856925474,0.099423506,False,-0.943719457815237,0.0858019323567275,1.441305492239361,0.033978682310111,0.0819558148916558,0.040758104031381,0.0,0.0,2.0,0.0,0.824304278905541,-0.20440135275459778,0.5381157010865575,-0.07199726963848198
1776704889857580251,0.100100665,False,0.614381267599885,0.6049246707176358,1.5418695536585156,0.052352912253028,-0.038430399769461,-0.0072453972322478,0.0,0.0,2.0,0.0,-0.5812983299530928,-0.5762132470509905,0.4742279292634439,0.013527199621266287
1776704889858908029,0.100592448,False,-0.9143770744071822,0.035783645055293,1.443507334955602,0.0341259678004363,0.0787337550511293,0.0408538040808227,0.0,0.0,2.0,0.0,0.8129904604479258,-0.16183535914556932,0.5358290787876645,-0.07186726396224098
1776704889859532188,0.100853759,False,0.5723904483413491,0.5698136794466279,1.560063594142959,0.0496490375476292,-0.0357032136058298,-0.0081802871560351,0.0,0.0,2.0,0.0,-0.5532884757518404,-0.552171741030868,0.4572229679100199,0.013791495162386804
1776704889860879438,0.099748978,False,-0.8812713578197502,-0.0145668890461021,1.445912484234827,0.036345421987775,0.0731750922791733,0.0418820449679315,0.0,0.0,2.0,0.0,0.7969956854810283,-0.11954694905985307,0.533715367430017,-0.07253923130070779
1776704889861499560,0.098970513,False,0.5279632224290103,0.5330896988503413,1.5786527599722486,0.0553222919472776,-0.028429362188217,-0.0072507693501532,0.0,0.0,2.0,0.0,-0.5233562133801213,-0.5251013853567169,0.4403644942407165,0.013454138701931169
1776704889862826819,0.096792743,False,-0.8463446212180523,-0.0629924954875157,1.447849494353033,0.0362475451751178,0.0693033300614122,0.0415330600889408,0.0,0.0,2.0,0.0,0.7777306870439028,-0.0764968046174577,0.5322187944298195,-0.07311774958291445
1776704889863436853,0.104428584,False,0.4794518701885945,0.4932905551211877,1.5983252442454947,0.0495441560008931,-0.0258797521636376,-0.005947703710049,0.0,0.0,2.0,0.0,-0.4893588428092602,-0.49468978123130875,0.42182669387609995,0.012261199222139167
1776704889864759760,0.103211004,False,-0.805765732256835,-0.1158047547203291,1.450030762401719,0.0381722958861127,0.070253121274397,0.0410000473823059,0.0,0.0,2.0,0.0,0.753350476178208,-0.03145152755773778,0.529261280377964,-0.07239434066461863
1776704889865363445,0.099535729,False,0.4311658927933249,0.453654477758059,1.6174718358737423,0.0446521656940829,-0.0276303156239667,-0.0075307175296764,0.0,0.0,2.0,0.0,-0.452634781902567,-0.46495770524012603,0.4043403375107551,0.012560810220703057
1776704889866676207,0.100297958,False,-0.7640617195870686,-0.16704304485936,1.451944457344777,0.0357018841904672,0.0667888334084579,0.0422426726929501,0.0,0.0,2.0,0.0,0.7264917138816962,0.01229191218316435,0.5272783104576673,-0.07303579925563154
1776704889867300723,0.100019445,False,0.3814149151396032,0.4127749394680862,1.6364314738357866,0.0464889823122683,-0.0250621579472308,-0.0078414360158135,0.0,0.0,2.0,0.0,-0.41446430048383387,-0.4329896316497703,0.3865694911593439,0.013022676378474651
1776704889868602095,0.100300927,False,-0.7203587861616292,-0.2183277757873055,1.4539744490054336,0.0361341048842494,0.0676299782118025,0.040081788509309,0.0,0.0,2.0,0.0,0.6968268102044275,0.058801371958744186,0.5253165193084873,-0.07212166333268803
1776704889869211571,0.099666689,False,0.3305321841541886,0.371217894050421,1.6553990571713664,0.0472248243253524,-0.0287775479212107,-0.0071929708195286,0.0,0.0,2.0,0.0,-0.37506077959024364,-0.39944934942369437,0.36875141625689345,0.012922368826140047
1776704889870526503,0.099826636,False,-0.6747781064950177,-0.2698421485453695,1.455816500958224,0.0380317801222938,0.0625396578913264,0.0411217454327031,0.0,0.0,2.0,0.0,0.6649957474275905,0.10329846742828201,0.523509179719921,-0.07215792007843426
1776704889871152462,0.100382936,False,0.2783635235886402,0.329050739908803,1.6748400273269877,0.0417306860893223,-0.026516914692794,-0.007787468699921,0.0,0.0,2.0,0.0,-0.3335399070401049,-0.36525042510984995,0.350591538669637,0.013187481471833216
1776704889872506916,0.099566378,False,-0.6274224050350057,-0.3216394701189917,1.4575197474228103,0.0369161118921285,0.0658638781253427,0.0413078522116585,0.0,0.0,2.0,0.0,0.6310359580014228,0.14869261093233255,0.5218065517017142,-0.07238145150135493
1776704889873111486,0.099657131,False,0.2250473541290543,0.2863386971444979,1.694011133852453,0.0435992442595728,-0.0266635846030794,-0.007613578821596,0.0,0.0,2.0,0.0,-0.2910924942854894,-0.3300373957770514,0.3324969734153196,0.013284270121587331
1776704889874435096,0.100994677,False,-0.57901385932095,-0.3735192201557814,1.459594140972731,0.0375944341286042,0.0599047134698985,0.0413967833699844,0.0,0.0,2.0,0.0,0.5950504572792749,0.19453739942539738,0.5197425137003097,-0.07243116881603741
1776704889875259927,0.100388076,False,0.1705158328268799,0.2433688937663345,1.7131388407214148,0.0410930285383492,-0.0274680059345492,-0.0075442012188251,1.0,1.0,3.0,-1.5,0.22132861628403222,0.2049721663413521,0.3947402315101742,-0.34999999513211627
1776704889876379120,0.102556761,False,-0.5295686661570655,-0.4252622547357741,1.46216962479044,0.0425559147147956,0.059154272691949,0.0420116557244761,0.0,0.0,2.0,0.0,0.5574832126796159,0.2403131400277654,0.517237391194464,-0.07268595786691409
1776704889877382574,0.099713572,False,0.1158497750201683,0.2008735442860084,1.7335001689013374,0.0283819525613855,-0.0083549972461434,-0.0203994827455398,1.0,1.0,3.0,-1.5,0.3819810264253475,0.361168837432496,0.6568809968673481,-0.3499999931054539
1776704889878319332,0.096089887,False,-0.4791213299583334,-0.4771254462357872,1.4648186847663345,0.0387610062290921,0.0619454627142392,0.0416148561651197,0.0,0.0,2.0,0.0,0.5195087385928245,0.28623526579972036,0.5159433733245602,-0.07334831264798436
1776704889879698756,0.10009655,False,0.0640561384339144,0.1618501435985494,1.7550470563392493,-0.0307771853513772,0.0577603897396461,-0.0450347963899165,1.0,1.0,3.0,-1.5,0.4961822592519579,0.48993081581943343,0.828365320529347,-0.3499999927888965
1776704889880264709,0.100630672,False,-0.4281053647260102,-0.52907277270154,1.4676141046978604,0.0388268933552485,0.0604107214043183,0.0418513138125416,0.0,0.0,2.0,0.0,0.47978138603887754,0.33247057288757037,0.5134097043214101,-0.07336578608668051
1776704889881833756,0.099749405,False,0.0182726327955724,0.1280162864647906,1.7756624164408954,-0.0626861603205301,0.1004148786435585,-0.0720968226214597,1.0,1.0,3.0,-1.5,0.5769797227659633,0.5976953037120121,0.9384278476494804,-0.34999999233113027
1776704889882180930,0.098547245,False,-0.3786885978013201,-0.5791101192100021,1.4712058525362168,0.0424112709234799,0.0645272557972933,0.0430148507548395,0.0,0.0,2.0,0.0,0.4404058171387598,0.3777598078791609,0.5110046861649973,-0.07436303221222726
1776704889884055073,0.100428798,False,-0.0185361169987923,0.1023473127138561,1.7956766962758728,-0.0699179418743263,0.1131336675940989,-0.1013250156737988,1.0,1.0,3.0,-1.5,0.6316363587439255,0.6894102693325904,0.9985160077489627,-0.3499999992905307
1776704889884086272,0.101400827,False,-0.3248127440143162,-0.6330998036563575,1.475428043706452,0.0401311179161875,0.058683886577727,0.042094568130891,0.0,0.0,2.0,0.0,0.39850130190092475,0.42484409444958987,0.5075494048900864,-0.074126905041657
1776704889886008650,0.11008493,False,-0.2998377151702304,-0.6579869566363656,1.4776859267393854,0.0383287449714119,0.0547511570961772,0.0407684170229712,0.0,0.0,2.0,0.0,0.36075764414730993,0.4649318062269829,0.5024044966841262,-0.07213593849531404
1776704889886188312,0.099586873,False,-0.0446777380511076,0.0856766491044845,1.8151528601846585,-0.0678951610089282,0.1151947716456861,-0.1304662515287737,1.0,1.0,3.0,-1.5,0.6661623751342107,0.7662467974979131,0.99999998340606,-0.3499999878592406
1776704889887916272,0.091336378,False,-0.2204028665466574,-0.7369952779165242,1.4853100908120822,0.0368737873961156,0.0584617865773342,0.0408711538141585,0.0,0.0,2.0,0.0,0.31876461827630803,0.5120019712608245,0.5003403941209063,-0.07300243133596739
1776704889888324348,0.100189942,False,-0.0604100263564741,0.077887349101129,1.833970778841012,-0.0673800746073704,0.113236072232987,-0.1593653374977497,1.0,1.0,3.0,-1.5,0.684458498838876,0.8297348098857708,0.9999999843392359,-0.3499999893793927
1776704889889868411,0.098652905,False,-0.1679909056148816,-0.7891410379743556,1.4904764608081835,0.040724375888713,0.0607592577675076,0.0380238350535897,0.0,0.0,2.0,0.0,0.27330083141611655,0.5612957720122673,0.49628003217986644,-0.070888684896738
1776704889890469316,0.099932913,False,-0.0662091002802444,0.0782958136201414,1.8526969878785904,-0.0573240558585355,0.1143410458771858,-0.1906794710217252,1.0,1.0,3.0,-1.5,0.6869905178629903,0.8827792880372165,0.9999999571441073,-0.3499999824225788
1776704889891850661,0.099064267,False,-0.115694728569279,-0.8414974768556859,1.495231881492204,0.039952908807845,0.0603980261632228,0.0396378259649882,0.0,0.0,2.0,0.0,0.2303698465357958,0.608891453863866,0.4919619750146776,-0.07041798290455578
1776704889892646842,0.09998787,False,-0.0627845804485717,0.0858767026576448,1.870828854382837,-0.0482764029931204,0.1163460851135938,-0.2222250891021241,1.0,1.0,3.0,-1.5,0.6777297017130816,0.9247478179639504,0.9999999024657426,-0.34999998500285656
1776704889893839131,0.100590946,False,-0.0627012259199253,-0.8936477921579327,1.4998948198310054,0.0344582842407113,0.0576743570057144,0.0415066863740391,0.0,0.0,2.0,0.0,0.18757207606045612,0.6562210251535818,0.4873068586644507,-0.07124688172011846
1776704889894837995,0.100442811,False,-0.0502566816878753,0.0992004159838046,1.888456995057748,-0.0404198681035197,0.1206869521935302,-0.2513296231192464,1.0,1.0,3.0,-1.5,0.6609594473715544,0.9546157473165972,0.9999998149573779,-0.3499999872795417
1776704889895822099,0.100231814,False,-0.0092580581283819,-0.9457770661041554,1.5043672181283472,0.0340259692915298,0.0548536607452828,0.0409830627095254,0.0,0.0,2.0,0.0,0.14326680048651205,0.7037399529474065,0.48283646485502907,-0.07157654391306371
1776704889896967126,0.100475445,False,-0.0299475401144593,0.1169457195871503,1.905734309317204,-0.0312839116848742,0.1011126397582231,-0.2814074383441115,1.0,1.0,3.0,-1.5,0.6351715794483027,0.9756165337645433,0.9999993561781947,-0.3499999905076192
1776704889897747438,0.103253506,False,0.0465737260547864,-0.9995645583127656,1.5087025774884222,0.0337687336872478,0.0547869806398952,0.040932447097374,0.0,0.0,2.0,0.0,0.09829435008271407,0.7513253304761227,0.4778671783768049,-0.07139133989073532
1776704889899097158,0.099271137,False,-0.0019230365446246,0.1385348518205543,1.9222205431727404,-0.0295552602437493,0.1023984325851718,-0.3108053685434552,1.0,1.0,3.0,-1.5,0.6032933426634133,0.9875260282990711,0.9999962598836868,-0.349999990652993
1776704889899687670,0.100300252,False,0.100338229296346,-1.0513270931470649,1.5128102774298748,0.0366472443033344,0.050779179968645,0.0414356880425431,0.0,0.0,2.0,0.0,0.054211366654138546,0.7986228284055821,0.47381191504055076,-0.07191517759410149
1776704889901229632,0.099789163,False,0.0325361106024274,0.1630427328226877,1.9379612727429487,-0.0218244503824281,0.100181280431714,-0.3414980663496289,1.0,1.0,3.0,-1.5,0.564430092621465,0.9919383003021195,0.9999298662144708,-0.34999999014314115
1776704889901606007,0.099558096,False,0.1538369107629393,-1.1030927006242908,1.5165521264804114,0.0375250170918026,0.0525663811714613,0.0400707061298909,0.0,0.0,2.0,0.0,0.00874837002986589,0.8457142153612992,0.47003905389161604,-0.07147437371426675
1776704889903360235,0.099500674,False,0.0722231834409704,0.1895452364966769,1.9521694513269563,-0.012948322788678,0.0842627039674281,-0.3722476368449238,1.0,1.0,3.0,-1.5,0.5210804072853404,0.9889290841639757,0.9990904995730433,-0.34999998909606284
1776704889903536972,0.099918528,False,0.194243464256135,-1.1425370231661298,1.5194372213436498,0.0451771456647106,0.0559310322946752,0.0421280480238534,0.0,0.0,2.0,0.0,-0.030762014225229766,0.8895127824387923,0.46650261172124435,-0.07239640345937962
1776704889905470461,0.09773562,False,0.2582367487637879,-1.2058978409647103,1.5239525430168204,0.0375258456300411,0.0620687584001032,0.0422418163014161,0.0,0.0,2.0,0.0,-0.07470128391723523,0.9367272148404778,0.46313422081558236,-0.0733891070207348
1776704889905527081,0.100440629,False,0.1153964249639981,0.2163670436763813,1.965488637562676,-0.0041608223099282,0.0863709194866284,-0.4016301394309873,1.0,1.0,3.0,-1.5,0.47569613386076665,0.9785929956154545,0.9954836513072375,-0.3499999893996082
1776704889907460692,0.123500053,False,0.2986888646004952,-1.2463333490529878,1.5269789703570973,0.0361874587426514,0.0644982782138501,0.0437559805789899,0.0,0.0,2.0,0.0,-0.11556867450527807,0.9757463190968164,0.4537537281624334,-0.07218357581078298
1776704889907737749,0.102016255,False,0.1542798485374104,0.2391654293139807,1.976440125501463,-0.004265503425043,0.0870310507499899,-0.4258190999627242,1.0,1.0,3.0,-1.5,0.43401970792410577,0.9618204454347419,0.9891027957527183,-0.349999989569944
1776704889909494068,0.082190797,False,0.3519500098469605,-1.299433198274038,1.5306839695272605,0.0312872586671188,0.0642499168772673,0.0431424963340866,0.0,0.0,2.0,0.0,-0.15579043657273398,1.0076565924432914,0.4534276623939437,-0.07576307613075677
1776704889909871413,0.146025393,False,0.2084297738561714,0.2690304161555334,1.9893810673603112,0.0007640159731303,0.0792447796406109,-0.4576808495667874,1.0,1.0,3.0,-1.5,0.3735780159362418,0.9219588193844374,0.9544368053181779,-0.3499999761530256
1776704889911506421,0.102693009,False,0.4078373186455034,-1.3530443423871672,1.5353370916665776,0.0034895329976102,0.0631401291936681,0.044186379427295,0.0,0.0,2.0,0.0,-0.2006497440851053,1.0098487724776861,0.44992262472180866,-0.07617182691454075
1776704889912008498,0.05306022,False,0.2641384308713675,0.2973342353062391,2.001520510460752,0.0085383832833832,0.078244286625573,-0.4887487102403392,1.0,1.0,3.0,-1.5,0.3179435264862776,0.8799839763306918,0.9356207712249635,-0.3499999833451835
1776704889913530623,0.101814169,False,0.4644580017482753,-1.4019700404741229,1.540300634369537,-0.0453662446596549,0.0592722767943681,0.0468186162579597,0.0,0.0,2.0,0.0,-0.24467627265944344,1.0125607728390962,0.4461778921728158,-0.07824276292767827
1776704889914159911,0.114101333,False,0.3254762835271675,0.3258249674281617,2.0141174184768302,0.0118858222070781,0.0808017238108508,-0.5197228054134256,1.0,1.0,3.0,-1.5,0.26686970740683613,0.8570503375912134,0.9316902749327267,-0.3499999853762728
1776704889915559222,0.099260264,False,0.5195395102691965,-1.4419767374740031,1.5452681260049317,-0.0724675385583363,0.0596770900191852,0.0451100842905092,0.0,0.0,2.0,0.0,-0.2931873994928651,1.0142530094155013,0.4425619281985446,-0.0788720757096825
1776704889916293859,0.096474916,False,0.3869688178102083,0.3518282474471539,2.025241199983106,0.0127525733553071,0.0728079225307356,-0.5483237690520276,1.0,1.0,3.0,-1.5,0.21793822929780415,0.831415342933918,0.9327255755650163,-0.34999999154216727
1776704889917592704,0.104979478,False,0.5772490628376569,-1.4740015392496926,1.5499783538929894,-0.0697617117963047,0.063599281318942,0.0473656163352783,0.0,0.0,2.0,0.0,-0.33873712587700305,1.0171793020308115,0.43760110733750424,-0.07990147729513862
1776704889918402849,0.10585711,False,0.4541315782644101,0.3774956420405962,2.0367959608195307,0.0154635982072126,0.0781818043735859,-0.5811201122728391,1.0,1.0,3.0,-1.5,0.1626306216032612,0.7973946240986358,0.926510536553882,-0.3499999885832733
1776704889919638321,0.112485884,False,0.6327651434247081,-1.4948571923922052,1.5547501337240923,-0.0745539370938191,0.0629042284599072,0.0511884668598389,0.0,0.0,2.0,0.0,-0.3823967754020954,1.0209029647112633,0.43111327431167734,-0.08216015052082873
1776704889920529456,0.101302428,False,0.5236492439144997,0.4014210242676096,2.048594631526207,0.0179004465433841,0.0744256643055496,-0.6111039130333212,1.0,1.0,3.0,-1.5,0.1091478923201526,0.7584697187407532,0.9204986855720081,-0.3499999879834968
1776704889921672001,0.090816732,False,0.6908128775529332,-1.5064681527397317,1.5595013849722794,-0.0768510672333717,0.0590395888931293,0.0513778376140678,0.0,0.0,2.0,0.0,-0.42948190388693175,1.023406579271209,0.4289881852477797,-0.08661653790733294
1776704889922660879,0.100121158,False,0.5926874194646703,0.4227311592938553,2.060186001502866,0.0180286918573425,0.074867426151796,-0.6382721396134613,1.0,1.0,3.0,-1.5,0.05767256913920634,0.715271161775363,0.913298311396333,-0.34999998576907076
1776704889923753440,0.117548363,False,0.7534435929510246,-1.5079065573807824,1.564112960038236,-0.0696954128818033,0.0567189399734261,0.0495880150855954,0.0,0.0,2.0,0.0,-0.48065449187482,1.0250849931732202,0.4212206095074715,-0.0847435683068973
1776704889924861490,0.101541294,False,0.6662615682712627,0.4427576730965907,2.072329424506731,0.0234248271351218,0.0735980115678796,-0.6727567041542601,1.0,1.0,3.0,-1.5,0.0007746086886776674,0.6677688997897089,0.9041918678654043,-0.3499999816135355
1776704889925843106,0.084487748,False,0.8047557246739366,-1.5015173561235533,1.5681210434068862,-0.0631379107072803,0.0562568325085653,0.0478424454317348,0.0,0.0,2.0,0.0,-0.5286443449307084,1.0264564912481193,0.41985497334182503,-0.0867107393063627
1776704889927141656,0.103480919,False,0.7416978176207004,0.4606372916504492,2.08428150977231,0.0232052763677482,0.071614508161568,-0.7018928250364898,1.0,1.0,3.0,-1.5,-0.05225739915823798,0.6159215888441737,0.8935942454764202,-0.3499999981310077
1776704889927886183,0.123080494,False,0.8629053804939338,-1.4867816272916146,1.5726788841118486,-0.0603889080943943,0.058593313715693,0.0484825256951171,0.0,0.0,2.0,0.0,-0.5754544420152863,1.029097777162478,0.41106696862904046,-0.08320733412335193
1776704889929373619,0.102503773,False,0.8157324865105386,0.4756823059823283,2.095764114518577,0.0239467863313059,0.066836633304427,-0.7336521670341092,1.0,1.0,3.0,-1.5,-0.10573301643991025,0.5615783763075435,0.8832518880282757,-0.34999999890086975
1776704889929940491,0.083824294,False,0.9190501424101576,-1.4662018708982858,1.5762889824888155,-0.0478818825700679,0.0571277191046062,0.0463149081109801,0.0,0.0,2.0,0.0,-0.6248132446275004,1.0300323709514922,0.4103828723906815,-0.08476804840069689
1776704889931618944,0.102312559,False,0.8910956695487825,0.4885500691847959,2.107588002562286,0.0237608824183633,0.0708354833999191,-0.7648075333748728,1.0,1.0,3.0,-1.5,-0.15753093921983133,0.5047876404638364,0.872699067425415,-0.34999999946094174
1776704889931974351,0.103206494,False,0.9774924552897618,-1.4391319246450796,1.5789567742712272,-0.0326617494585096,0.0507470802662115,0.0459873999165291,0.0,0.0,2.0,0.0,-0.6764053627691089,1.032186423148891,0.4072231678431559,-0.0828379014268242
1776704889933867652,0.102086994,False,0.9708663592267296,0.4996176409418973,2.120261766194006,0.0274364733570047,0.0731153546790153,-0.7941917915125974,1.0,1.0,3.0,-1.5,-0.20761134072971002,0.4453800693801008,0.8617698408829628,-0.3499999980936219
1776704889934008500,0.072988909,False,1.033070996934126,-1.4091788002183927,1.580683689731473,-0.0253779778359745,0.0533334226075193,0.0484669601750611,0.0,0.0,2.0,0.0,-0.7142625068780981,1.0358209271819663,0.4054863490147831,-0.08728696577338943
1776704889936077194,0.099998238,False,1.0883372706551624,-1.3763256919053224,1.5821265226946448,-0.0340050700380116,0.0543358512250088,0.0496536037994755,0.0,0.0,2.0,0.0,-0.7655545165991186,1.0392778170443533,0.40343431842038563,-0.08721681453441876
1776704889936157966,0.072369757,False,1.0484466526054994,0.507923041991842,2.1327023205255635,0.0286140878682538,0.071275288251262,-0.8232265327163719,1.0,1.0,3.0,-1.5,-0.25085981641898214,0.3868268972956467,0.8524701149489315,-0.34999999902854156
1776704889938105662,0.099638772,False,1.1433173877578138,-1.3410030092362402,1.5833021861481766,-0.0334143691045736,0.0611617147307294,0.0467334559678082,0.0,0.0,2.0,0.0,-0.8194495431403864,1.0394166146498574,0.40169492275233964,-0.08543800335081025
1776704889938383813,0.101022335,False,1.1255435235838849,0.5159637973808641,2.145317810300178,-0.0035404841091626,0.0416711902184811,-0.8488555148930148,1.0,1.0,3.0,-1.5,-0.2979591425201756,0.32407877830628673,0.8408296015673349,-0.3499999992346275
1776704889940121717,0.102240181,False,1.198448328854917,-1.3037335409656876,1.5853326022642873,-0.027588339266462,0.0677191388700733,0.0487819272191387,0.0,0.0,2.0,0.0,-0.8670437331238721,1.0435206649034787,0.3995037789302914,-0.08515872009418805
1776704889940595734,0.100460539,False,1.1999735498533373,0.5257430837658916,2.1576314562238883,-0.0515034419884999,0.0059553761528305,-0.8760839218855013,1.0,1.0,3.0,-1.5,-0.3420814583592448,0.25949820842726107,0.8292693262306111,-0.34999999962606626
1776704889942172987,0.098825965,False,1.2537907718283918,-1.2645732011327122,1.5875202585059591,-0.0264768865986058,0.0664429766510948,0.0487109828358765,0.0,0.0,2.0,0.0,-0.9162316409496741,1.045853428045357,0.3978781521187,-0.08550509185688639
1776704889942836155,0.098415225,False,1.2698587798898868,0.5395443176526913,2.1702018787617567,-0.069338777063933,-0.0151969256386189,-0.9044782471028332,1.0,1.0,3.0,-1.5,-0.38135899646336413,0.1934744210700686,0.8182207757378978,-0.34999999971563434
1776704889944215771,0.099625419,False,1.309393407420938,-1.2241635151209018,1.5902102517226846,-0.0251671788322799,0.0605972851086459,0.0463812751063727,0.0,0.0,2.0,0.0,-0.952559867629411,1.045289214068837,0.3958542124762539,-0.08413330980287503
1776704889944991184,0.101413599,False,1.333445564075461,0.5593954788509589,2.18302212500254,-0.0775921340434191,-0.0231765592567147,-0.933700078965403,1.0,1.0,3.0,-1.5,-0.4139408979181402,0.12553293444834213,0.8058389062480311,-0.3499999875598554
1776704889946253575,0.103880817,False,1.3677288669342684,-1.1808900745373123,1.5928589678715632,-0.0250367099216615,0.0693028255557556,0.047132751214009,0.0,0.0,2.0,0.0,-0.9517742114363136,1.046003538768164,0.3929813482746785,-0.08309917018449164
1776704889947130276,0.098703868,False,1.3902301786833042,0.5859675951257223,2.19643769186954,-0.0726798955552125,-0.0187994080047817,-0.9621945399078332,1.0,1.0,3.0,-1.5,-0.43802315593019386,0.05788871219134309,0.7942004465869288,-0.3499999864925364
1776704889948309298,0.100161683,False,1.4244090559900615,-1.138103172891749,1.595394932144539,-0.0296506157130608,0.0657829439125197,0.050172882976415,0.0,0.0,2.0,0.0,-0.9488340994468016,1.0440277151185797,0.39085129846352185,-0.08492040354935716
1776704889949282416,0.10187565,False,1.4407407266588712,0.6189608561494455,2.2104405407428978,-0.0741202732675052,-0.0131090786811559,-0.9916999586279612,1.0,1.0,3.0,-1.5,-0.4528286560313484,-0.010539426632685514,0.7810237289025587,-0.349999994038452
1776704889950364096,0.099922857,False,1.4814795076871352,-1.0941281477492004,1.5979310191086729,-0.0262755446841898,0.0649633487776727,0.0481758106469418,0.0,0.0,2.0,0.0,-0.9516432430021718,1.027071847268564,0.3886674691686015,-0.08497102816790798
1776704889951397083,0.099455866,False,1.485952597054727,0.6576820854176301,2.225411424810925,-0.0667213766990861,-0.0056343504553219,-1.018950705525756,1.0,1.0,3.0,-1.5,-0.45831808720587813,-0.0768321578004145,0.768291048656632,-0.34999998572523844
1776704889952499695,0.100293215,False,1.5389096102359068,-1.0489642952433988,1.6010860678403969,-0.0303742554049516,0.0659004943004311,0.0499853477726345,0.0,0.0,2.0,0.0,-0.9509090866052573,1.006285821694054,0.3861827221715682,-0.08599555392903348
1776704889953518072,0.099725689,False,1.526443738056542,0.701146722689994,2.240906711501629,-0.06170216189184,0.0008369318410831,-1.0491905516669,1.0,1.0,3.0,-1.5,-0.454243252860025,-0.14322829173369328,0.7548396695485284,-0.3499999907152248
1776704889954564304,0.09934908,False,1.5963471369436653,-1.00256177184901,1.6045379358257477,-0.0253561383651603,0.0634372064054527,0.0503165161891785,0.0,0.0,2.0,0.0,-0.9519720700316899,0.9788737993884975,0.3835865492890701,-0.08704899296839491
1776704889955645038,0.103931255,False,1.5647448691464787,0.7507716419579604,2.2574009375034225,-0.0588768082449629,0.0023866108513255,-1.0840259174971971,1.0,1.0,3.0,-1.5,-0.4394905818761142,-0.21073354941038583,0.7393264912181754,-0.34999996268536
