,recording_time_ns,dt,wind_enabled,pos_x,pos_y,pos_z,pos_roll,pos_pitch,pos_yaw,targetpos_x,targetpos_y,targetpos_z,targetpos_yaw,control_vel_x,control_vel_y,control_vel_z,control_vel_yaw,experiment_id
0,1776696008082781705,1776696008056,False,-0.2018318821679027,-0.2119817587806289,0.8462221546634231,0.0173221324156663,0.0306684469442988,-0.0187981527779187,0.0,0.0,2.0,0.0,1.0,1.0,1.0,0.0939907638895931,0
1,1776696008159511686,1776696008158,False,-0.203016046895308,-0.2115858733220818,0.8484607423542548,0.0126796389555673,0.0264251632671757,-0.0178786765817064,0.0,0.0,2.0,0.0,1.0,1.0,1.0,0.0893933829085313,0
2,1776696008231713645,1776696008231,False,-0.2042232456915522,-0.2113531565290397,0.8513139054049188,0.0105025824431354,0.027279433133719,-0.0203837397409938,0.0,0.0,2.0,0.0,1.0,1.0,1.0,0.1019186987049702,0
3,1776696008332554807,1776696008332,False,-0.2050651122271613,-0.2112084240631182,0.8540574658585712,0.0114552007302151,0.0269243756210801,-0.0194866841885965,0.0,0.0,2.0,0.0,1.0,1.0,1.0,0.0974334209429828,0
4,1776696008431333805,1776696008431,False,-0.2057620216735093,-0.2107692381979429,0.856756524032484,0.0162223538249255,0.0197920818846469,-0.0197667736424928,0.0,0.0,2.0,0.0,1.0,1.0,1.0,0.0988338682124645,0
5,1776696008532572765,1776696008532,False,-0.2068242472950689,-0.2103921546384494,0.8595950195064035,0.0163847399528138,0.0190907107093239,-0.0173289302945537,0.0,0.0,2.0,0.0,1.0,1.0,1.0,0.0866446514727692,0
6,1776696008631686005,1776696008631,False,-0.2080212862963725,-0.2099194630072985,0.8618743100104896,0.0163864475032097,0.0170944007082536,-0.0196789050253804,0.0,0.0,2.0,0.0,1.0,1.0,1.0,0.0983945251269013,0
7,1776696008734358646,1776696008734,False,-0.2094409946714008,-0.2093309043149205,0.8638938116381101,0.0178406599693176,0.0223249215869843,-0.0196906541321812,0.0,0.0,2.0,0.0,1.0,1.0,1.0,0.0984532706609053,0
8,1776696008836625489,1776696008836,False,-0.2113450195156654,-0.2086055646368251,0.8657627433141578,0.0141521018620082,0.0181694449842138,-0.0201144852032029,0.0,0.0,2.0,0.0,1.0,1.0,1.0,0.1005724260160145,0
9,1776696008936046825,1776696008936,False,-0.2131357754454128,-0.2078418918167839,0.8671897408192912,0.0173333262348095,0.0217166416367772,-0.0175588907756529,0.0,0.0,2.0,0.0,1.0,1.0,1.0,0.0877944538782649,0
10,1776696009036450133,1776696009036,False,-0.2152604809762617,-0.2069871337142464,0.8676145735010329,0.0144477804816297,0.0137442299688492,-0.0202455141951092,0.0,0.0,2.0,0.0,1.0,1.0,1.0,0.1012275709755461,0
11,1776696009136168060,1776696009135,False,-0.2173741238563349,-0.2061418881272552,0.8676074644377377,0.015058424971078,0.0239545050645426,-0.0193574454631462,0.0,0.0,2.0,0.0,1.0,1.0,1.0,0.096787227315731,0
12,1776696009236552630,1776696009236,False,-0.2192993816471889,-0.2049521505666178,0.8676349636559787,0.0175246216921237,0.0298214750178781,-0.0190375359280274,0.0,0.0,2.0,0.0,1.0,1.0,1.0,0.0951876796401363,0
13,1776696009336587342,1776696009336,False,-0.2207611478370006,-0.2037884104345845,0.8673955332480245,0.0226272365707684,0.0280604965582006,-0.0214449390373793,0.0,0.0,2.0,0.0,1.0,1.0,1.0,0.107224695186896,0
14,1776696009434911595,1776696009434,False,-0.2217728034966991,-0.2027075897559672,0.8671105453313306,0.022057362502845,0.0223831398129705,-0.020560066205837,0.0,0.0,2.0,0.0,1.0,1.0,1.0,0.1028003310291847,0
15,1776696009538165714,1776696009537,False,-0.2216875715524426,-0.2007250790346647,0.8704113643288547,0.0059173317963517,0.0354035066379669,-0.0177188407715263,0.0,0.0,2.0,0.0,1.0,1.0,1.0,0.0885942038576326,0
16,1776696009638627859,1776696009638,False,-0.2199719147224357,-0.1974599755098531,0.877565899176989,-0.0103054416279465,0.0449659301847926,-0.0155466704566956,0.0,0.0,2.0,0.0,1.0,1.0,1.0,0.0777333522834777,0
17,1776696009736169931,1776696009736,False,-0.2159314871583512,-0.1919170768462083,0.8880485045483623,-0.018055908598751,0.0527394270911126,-0.0134884326066936,0.0,0.0,2.0,0.0,1.0,1.0,1.0,0.0674421630334687,0
18,1776696009836336347,1776696009836,False,-0.2089961933653885,-0.183211092113858,0.9005430578677264,-0.0191795894806564,0.0607259295974416,-0.0141609418929662,0.0,0.0,2.0,0.0,1.0,1.0,1.0,0.0708047094648312,0
19,1776696009936263912,1776696009936,False,-0.1987803601396901,-0.1714963897118167,0.9145248035228688,-0.019114144222603,0.0613622455610273,-0.0150511141865989,0.0,0.0,2.0,0.0,1.0,1.0,1.0,0.0752555709329949,0
20,1776696010036062294,1776696010035,False,-0.1857903350474513,-0.1568203371568617,0.929696718111514,-0.0210049815951119,0.0577096088717641,-0.0154812335460752,0.0,0.0,2.0,0.0,1.0,1.0,1.0,0.0774061677303761,0
21,1776696010136571105,1776696010136,False,-0.169749305313998,-0.1395215954901173,0.9456829149214792,-0.0207603689854213,0.0586430446245062,-0.0159771704314335,0.0,0.0,2.0,0.0,1.0,1.0,1.0,0.0798858521571665,0
22,1776696010236050414,1776696010235,False,-0.1513449656843371,-0.1197288646039793,0.9620957884467524,-0.0122249105287308,0.0513088922350325,-0.0167701569248493,0.0,0.0,2.0,0.0,1.0,1.0,1.0,0.0838507846242464,0
23,1776696010335769576,1776696010335,False,-0.1304492236053474,-0.0975007125589268,0.9787694970986576,-0.0208833402531885,0.055884508921966,-0.0154515597974793,0.0,0.0,2.0,0.0,1.0,1.0,1.0,0.0772577989873979,0
24,1776696010436334927,1776696010436,False,-0.1074325935570145,-0.0732836595953925,0.995466362765838,-0.0160329048910246,0.0510202567768331,-0.0161009667129116,0.0,0.0,2.0,0.0,1.0,1.0,1.0,0.0805048335645586,0
25,1776696010536333137,1776696010536,False,-0.0827687545429741,-0.0471255035506523,1.0118792378334729,-0.0111187581571695,0.0491346068852342,-0.0195577193328585,0.0,0.0,2.0,0.0,1.0,1.0,1.0,0.0977885966642921,0
26,1776696010636701247,1776696010636,False,-0.0562543422650787,-0.0193794699114651,1.0285948886404,-0.012186693067935,0.0486746116361407,-0.0211725379982399,0.0,0.0,2.0,0.0,1.0,1.0,1.0,0.1058626899911985,0
27,1776696010740362327,1776696010740,False,-0.0273627057762112,0.0106588879787706,1.045519348665099,-0.0124131337102149,0.0454956416978791,-0.018056578667755,0.0,0.0,2.0,0.0,1.0,1.0,1.0,0.0902828933387756,0
28,1776696010840978750,1776696010840,False,0.0018686622144435,0.0405248571325186,1.0612046373278836,-0.0129306152576541,0.0491643200077483,-0.0160078721494687,0.0,0.0,2.0,0.0,1.0,1.0,1.0,0.0800393607473437,0
29,1776696010940231176,1776696010940,False,0.032269504546213,0.0713320896437539,1.076561928284243,-0.0103956601752691,0.0445442512926816,-0.0184680679272945,0.0,0.0,2.0,0.0,1.0,1.0,1.0,0.0923403396364719,0
30,1776696011039881054,1776696011039,False,0.0635036826436242,0.1031433786962029,1.0917701838544784,-0.0065806625541708,0.0410983677899887,-0.0186126457959318,0.0,0.0,2.0,0.0,1.0,1.0,1.0,0.0930632289796595,0
31,1776696011140281867,1776696011140,False,0.0960051676527758,0.1355065426060403,1.1067468991477538,-0.0086133050368847,0.0495665093176884,-0.0153984371329962,0.0,0.0,2.0,0.0,1.0,1.0,1.0,0.0769921856649813,0
32,1776696011240261553,1776696011239,False,0.1292301189043128,0.1685985170062547,1.1215065246321865,-0.0098640158985811,0.0534746986063129,-0.0158262039212653,0.0,0.0,2.0,0.0,1.0,1.0,1.0,0.0791310196063266,0
33,1776696011340230302,1776696011340,False,0.1638161015790414,0.2024861355297788,1.136449431834319,-0.014048276936369,0.0509095078016399,-0.0137477677654521,0.0,0.0,2.0,0.0,1.0,1.0,1.0,0.0687388388272602,0
34,1776696011438821387,1776696011438,False,0.193583066121738,0.2315574978333471,1.1488777698648442,-0.0126692424084993,0.044522097089805,-0.0161949777341981,0.0,0.0,2.0,0.0,1.0,1.0,1.0,0.0809748886709904,0
35,1776696011538424221,1776696011538,False,0.2254404863574094,0.2625144269082174,1.161785190760103,-0.007868242436809,0.0470132469691212,-0.0152006058819067,0.0,0.0,2.0,0.0,1.0,1.0,1.0,0.0760030294095326,0
36,1776696011642609928,1776696011642,False,0.2620777209756011,0.2982936262737483,1.1768289187705323,-0.0067632808029995,0.0409072102559218,-0.0143479746538842,0.0,0.0,2.0,0.0,1.0,1.0,1.0,0.0717398732694207,0
37,1776696011742893330,1776696011742,False,0.3004572078456515,0.3360610195888107,1.1925876993704296,-0.0080132605764643,0.0437473907262262,-0.013359362935794,0.0,0.0,2.0,0.0,1.0,1.0,1.0,0.066796814678971,0
38,1776696011848991739,1776696011848,False,0.3378021210396876,0.3728394087352894,1.207597972615616,-0.0082540171747156,0.0420784475952734,-0.0135221760210913,0.0,0.0,2.0,0.0,1.0,1.0,1.0,0.0676108801054575,0
39,1776696011948918833,1776696011948,False,0.3769563620392895,0.4116968391159045,1.223416183309971,-0.0058575618818281,0.0483574145047457,-0.0118532882108987,0.0,0.0,2.0,0.0,1.0,1.0,1.0,0.0592664410544929,0
40,1776696012050026577,1776696012049,False,0.4162755417718088,0.4507075843808221,1.2389175833728912,-0.0074211226793786,0.0385936044633192,-0.0135123594602442,0.0,0.0,2.0,0.0,1.0,1.0,1.0,0.067561797301221,0
41,1776696012153014535,1776696012153,False,0.4549769525463126,0.4887731994086731,1.253624285691502,-0.0111192474111319,0.0492805074560551,-0.0121131613732473,0.0,0.0,2.0,0.0,1.0,1.0,1.0,0.0605658068662373,0
42,1776696012255395832,1776696012254,False,0.4957947160556667,0.5285678679012183,1.2692004991751866,-0.004288456918361,0.0482301107190077,-0.0146548080957677,0.0,0.0,2.0,0.0,1.0,1.0,1.0,0.073274040478839,0
43,1776696012354128172,1776696012353,False,0.5373148659814111,0.5687313681509519,1.2847127936713896,-0.0064678766166579,0.0476025271933434,-0.0110228391597153,0.0,0.0,2.0,0.0,1.0,1.0,1.0,0.0551141957985756,0
44,1776696012458924785,1776696012458,False,0.577918061423277,0.6074775333705751,1.3000962431765903,-0.0046636619796757,0.0484838968112315,-0.0099979734295448,0.0,0.0,2.0,0.0,1.0,-1.0,1.0,0.0499898671477239,0
45,1776696012562066613,1776696012561,False,0.6206621943787016,0.6480853274152257,1.3163875278896442,-0.0053177833069896,0.0445056832711525,-0.0098965832084723,0.0,0.0,2.0,0.0,-1.0,-1.0,1.0,0.0494829160423626,0
46,1776696012666385182,1776696012666,False,0.6618605811030651,0.6850494041759227,1.3314582993283333,0.0304677683897664,0.0344964104929287,-0.0109212159174712,0.0,0.0,2.0,0.0,-1.0,-1.0,1.0,0.0546060795873559,0
47,1776696012766937572,1776696012766,False,0.7025530670346536,0.7194635060563677,1.3469970362183423,0.0773603302790355,-0.0016298070749191,-0.0095152263561416,0.0,0.0,2.0,0.0,-1.0,-1.0,1.0,0.0475761317807088,0
48,1776696012867309942,1776696012867,False,0.7382451159687531,0.7469542790634134,1.3629708125926834,0.0931763196884652,-0.0479582164473279,-0.0107636392967113,0.0,0.0,2.0,0.0,-1.0,-1.0,1.0,0.0538181964835571,0
49,1776696012976797544,1776696012976,False,0.7653415632810017,0.7651055558636405,1.3776954354367354,0.0920810211414209,-0.0710194796017413,-0.0060384766547315,0.0,0.0,2.0,0.0,-1.0,-1.0,1.0,0.0301923832736572,0
50,1776696013044029796,1776696013043,False,0.783192985211915,0.7747363027897353,1.3925027435026485,0.0924027820647229,-0.075477422163908,-0.0066762947038243,0.0,0.0,2.0,0.0,-1.0,-1.0,1.0,0.0333814735191206,0
51,1776696013143912892,1776696013143,False,0.7917260672385507,0.7765704521676675,1.407567803931357,0.0882559039939489,-0.0660224070375517,-0.0029962223969244,0.0,0.0,2.0,0.0,-1.0,-1.0,1.0,0.0149811119846221,0
52,1776696013244013964,1776696013243,False,0.7913740627561872,0.7711773199650763,1.4231009886252646,0.0830896074381324,-0.064421850310159,-0.005042862317577,0.0,0.0,2.0,0.0,-1.0,-1.0,1.0,0.0252143115878844,0
53,1776696013344222822,1776696013343,False,0.7830893472893232,0.7597944140239556,1.438707074090074,0.0762897396143997,-0.0594887470705713,-0.0045861927224567,0.0,0.0,2.0,0.0,-1.0,-1.0,1.0,0.0229309636122843,0
54,1776696013444046484,1776696013444,False,0.7677204644739364,0.7432591558471934,1.4547749884532442,0.0693878852776422,-0.0544256529104356,-0.0069522415504021,0.0,0.0,2.0,0.0,-1.0,-1.0,1.0,0.0347612077520098,0
55,1776696013544254096,1776696013544,False,0.7462861115649445,0.7222971805966847,1.471341501214667,0.061010596667487,-0.0514727213135378,-0.0084260721200791,0.0,0.0,2.0,0.0,-1.0,-1.0,1.0,0.0421303606003964,0
56,1776696013644148614,1776696013643,False,0.7196843313944551,0.6974786424954833,1.4882767260783547,0.0670807084617365,-0.0502898676394285,-0.0071443749457952,0.0,0.0,2.0,0.0,-1.0,-1.0,1.0,0.0357218747289755,0
57,1776696013747244191,1776696013746,False,0.6885094240289915,0.6692852953602704,1.5057500363445016,0.0597309036521997,-0.0488773955254925,-0.0098902061787375,0.0,0.0,2.0,0.0,-1.0,-1.0,1.0,0.0494510308936879,0
58,1776696013844209262,1776696013843,False,0.6532830838400956,0.6382264513384303,1.523605117820669,0.0544888987792339,-0.0414456965385708,-0.0075648907501146,0.0,0.0,2.0,0.0,-1.0,-1.0,1.0,0.0378244537505745,0
59,1776696013944309927,1776696013943,False,0.614381267599885,0.6049246707176358,1.5418695536585156,0.052352912253028,-0.038430399769461,-0.0072453972322478,0.0,0.0,2.0,0.0,-1.0,-1.0,1.0,0.0362269861612385,0
60,1776696014045163686,1776696014044,False,0.5723904483413491,0.5698136794466279,1.560063594142959,0.0496490375476292,-0.0357032136058298,-0.0081802871560351,0.0,0.0,2.0,0.0,-1.0,-1.0,1.0,0.0409014357801762,0
61,1776696014144134199,1776696014143,False,0.5279632224290103,0.5330896988503413,1.5786527599722486,0.0553222919472776,-0.028429362188217,-0.0072507693501532,0.0,0.0,2.0,0.0,-1.0,-1.0,1.0,0.0362538467507667,0
62,1776696014248562783,1776696014248,False,0.4794518701885945,0.4932905551211877,1.5983252442454947,0.0495441560008931,-0.0258797521636376,-0.005947703710049,0.0,0.0,2.0,0.0,-1.0,-1.0,1.0,0.0297385185502463,0
63,1776696014348098512,1776696014347,False,0.4311658927933249,0.453654477758059,1.6174718358737423,0.0446521656940829,-0.0276303156239667,-0.0075307175296764,0.0,0.0,2.0,0.0,-1.0,-1.0,0.9563204103156442,0.037653587648383,0
64,1776696014448117957,1776696014447,False,0.3814149151396032,0.4127749394680862,1.6364314738357866,0.0464889823122683,-0.0250621579472308,-0.0078414360158135,0.0,0.0,2.0,0.0,-1.0,-1.0,0.9089213154105336,0.0392071800790683,0
65,1776696014547784646,1776696014547,False,0.3305321841541886,0.371217894050421,1.6553990571713664,0.0472248243253524,-0.0287775479212107,-0.0071929708195286,0.0,0.0,2.0,0.0,-1.0,-1.0,0.8615023570715841,0.0359648540976431,0
66,1776696014648167582,1776696014648,False,0.2783635235886402,0.329050739908803,1.6748400273269877,0.0417306860893223,-0.026516914692794,-0.007787468699921,0.0,0.0,2.0,0.0,-1.0,-1.0,0.8128999316825308,0.0389373434996054,0
67,1776696014747824713,1776696014747,False,0.2250473541290543,0.2863386971444979,1.694011133852453,0.0435992442595728,-0.0266635846030794,-0.007613578821596,0.0,0.0,2.0,0.0,-1.0,-1.0,0.7649721653688674,0.0380678941079803,0
68,1776696014848212789,1776696014847,False,0.1705158328268799,0.2433688937663345,1.7131388407214148,0.0410930285383492,-0.0274680059345492,-0.0075442012188251,1.0,1.0,3.0,-1.5,1.0,1.0,1.0,-1.74533,0
69,1776696014947926361,1776696014947,False,0.1158497750201683,0.2008735442860084,1.7335001689013374,0.0283819525613855,-0.0083549972461434,-0.0203994827455398,1.0,1.0,3.0,-1.5,1.0,1.0,1.0,-1.74533,0
70,1776696015048022911,1776696015047,False,0.0640561384339144,0.1618501435985494,1.7550470563392493,-0.0307771853513772,0.0577603897396461,-0.0450347963899165,1.0,1.0,3.0,-1.5,1.0,1.0,1.0,-1.74533,0
71,1776696015147772316,1776696015147,False,0.0182726327955724,0.1280162864647906,1.7756624164408954,-0.0626861603205301,0.1004148786435585,-0.0720968226214597,1.0,1.0,3.0,-1.5,1.0,1.0,1.0,-1.74533,0
72,1776696015248201114,1776696015248,False,-0.0185361169987923,0.1023473127138561,1.7956766962758728,-0.0699179418743263,0.1131336675940989,-0.1013250156737988,1.0,1.0,3.0,-1.5,1.0,1.0,1.0,-1.74533,0
73,1776696015347787987,1776696015347,False,-0.0446777380511076,0.0856766491044845,1.8151528601846585,-0.0678951610089282,0.1151947716456861,-0.1304662515287737,1.0,1.0,3.0,-1.5,1.0,1.0,1.0,-1.74533,0
74,1776696015447977929,1776696015447,False,-0.0604100263564741,0.077887349101129,1.833970778841012,-0.0673800746073704,0.113236072232987,-0.1593653374977497,1.0,1.0,3.0,-1.5,1.0,1.0,1.0,-1.74533,0
75,1776696015547910842,1776696015547,False,-0.0662091002802444,0.0782958136201414,1.8526969878785904,-0.0573240558585355,0.1143410458771858,-0.1906794710217252,1.0,1.0,3.0,-1.5,1.0,1.0,1.0,-1.74533,0
76,1776696015647898712,1776696015647,False,-0.0627845804485717,0.0858767026576448,1.870828854382837,-0.0482764029931204,0.1163460851135938,-0.2222250891021241,1.0,1.0,3.0,-1.5,1.0,1.0,1.0,-1.74533,0
77,1776696015748341523,1776696015748,False,-0.0502566816878753,0.0992004159838046,1.8884569950577477,-0.0404198681035197,0.1206869521935302,-0.2513296231192464,1.0,1.0,3.0,-1.5,1.0,1.0,1.0,-1.74533,0
78,1776696015848816968,1776696015848,False,-0.0299475401144593,0.1169457195871503,1.905734309317204,-0.0312839116848742,0.1011126397582231,-0.2814074383441115,1.0,1.0,3.0,-1.5,1.0,1.0,1.0,-1.74533,0
79,1776696015948088105,1776696015947,False,-0.0019230365446246,0.1385348518205543,1.9222205431727404,-0.0295552602437493,0.1023984325851718,-0.3108053685434552,1.0,1.0,3.0,-1.5,1.0,1.0,1.0,-1.74533,0
80,1776696016047877268,1776696016047,False,0.0325361106024274,0.1630427328226877,1.9379612727429487,-0.0218244503824281,0.100181280431714,-0.3414980663496289,1.0,1.0,3.0,-1.5,1.0,1.0,1.0,-1.74533,0
81,1776696016147377942,1776696016147,False,0.0722231834409704,0.1895452364966769,1.9521694513269563,-0.012948322788678,0.0842627039674281,-0.3722476368449238,1.0,1.0,3.0,-1.5,1.0,1.0,1.0,-1.74533,0
82,1776696016247818571,1776696016247,False,0.1153964249639981,0.2163670436763813,1.965488637562676,-0.0041608223099282,0.0863709194866284,-0.4016301394309873,1.0,1.0,3.0,-1.5,1.0,1.0,1.0,-1.74533,0
83,1776696016349834826,1776696016349,False,0.1542798485374104,0.2391654293139807,1.976440125501463,-0.004265503425043,0.0870310507499899,-0.4258190999627242,1.0,1.0,3.0,-1.5,1.0,1.0,1.0,-1.74533,0
84,1776696016495860219,1776696016495,False,0.2084297738561714,0.2690304161555334,1.9893810673603112,0.0007640159731303,0.0792447796406109,-0.4576808495667874,1.0,1.0,3.0,-1.5,1.0,1.0,1.0,-1.74533,0
85,1776696016548920439,1776696016548,False,0.2641384308713675,0.2973342353062391,2.001520510460752,0.0085383832833832,0.078244286625573,-0.4887487102403392,1.0,1.0,3.0,-1.5,1.0,1.0,1.0,-1.74533,0
86,1776696016663021772,1776696016662,False,0.3254762835271675,0.3258249674281617,2.0141174184768302,0.0118858222070781,0.0808017238108508,-0.5197228054134256,1.0,1.0,3.0,-1.5,1.0,1.0,1.0,-1.74533,0
87,1776696016759496688,1776696016759,False,0.3869688178102083,0.3518282474471539,2.025241199983106,0.0127525733553071,0.0728079225307356,-0.5483237690520276,1.0,1.0,3.0,-1.5,1.0,1.0,1.0,-1.74533,0
88,1776696016865353798,1776696016865,False,0.4541315782644101,0.3774956420405962,2.0367959608195307,0.0154635982072126,0.0781818043735859,-0.5811201122728391,1.0,1.0,3.0,-1.5,1.0,1.0,1.0,-1.74533,0
89,1776696016966656226,1776696016966,False,0.5236492439144997,0.4014210242676096,2.048594631526207,0.0179004465433841,0.0744256643055496,-0.6111039130333212,1.0,1.0,3.0,-1.5,1.0,1.0,1.0,-1.74533,0
90,1776696017066777384,1776696017066,False,0.5926874194646703,0.4227311592938553,2.060186001502866,0.0180286918573425,0.074867426151796,-0.6382721396134613,1.0,1.0,3.0,-1.5,1.0,1.0,1.0,-1.74533,0
91,1776696017168318678,1776696017168,False,0.6662615682712627,0.4427576730965907,2.072329424506731,0.0234248271351218,0.0735980115678796,-0.6727567041542601,1.0,1.0,3.0,-1.5,1.0,1.0,1.0,-1.74533,0
92,1776696017271799597,1776696017271,False,0.7416978176207004,0.4606372916504492,2.08428150977231,0.0232052763677482,0.071614508161568,-0.7018928250364898,1.0,1.0,3.0,-1.5,1.0,1.0,1.0,-1.74533,0
93,1776696017374303370,1776696017374,False,0.8157324865105386,0.4756823059823283,2.095764114518577,0.0239467863313059,0.066836633304427,-0.7336521670341092,1.0,1.0,3.0,-1.5,1.0,1.0,1.0,-1.74533,0
94,1776696017476615929,1776696017476,False,0.8910956695487825,0.4885500691847959,2.107588002562286,0.0237608824183633,0.0708354833999191,-0.7648075333748728,1.0,1.0,3.0,-1.5,1.0,1.0,1.0,-1.74533,0
95,1776696017578702923,1776696017578,False,0.9708663592267296,0.4996176409418973,2.120261766194006,0.0274364733570047,0.0731153546790153,-0.7941917915125974,1.0,1.0,3.0,-1.5,-1.0,1.0,1.0,-1.74533,0
96,1776696017651072680,1776696017651,False,1.0484466526054994,0.507923041991842,2.1327023205255635,0.0286140878682538,0.071275288251262,-0.8232265327163719,1.0,1.0,3.0,-1.5,-1.0,1.0,1.0,-1.74533,0
97,1776696017752095015,1776696017751,False,1.1255435235838849,0.5159637973808641,2.145317810300178,-0.0035404841091626,0.0416711902184811,-0.8488555148930148,1.0,1.0,3.0,-1.5,-1.0,1.0,1.0,-1.74533,0
98,1776696017852555554,1776696017852,False,1.1999735498533373,0.5257430837658916,2.1576314562238883,-0.0515034419884999,0.0059553761528305,-0.8760839218855013,1.0,1.0,3.0,-1.5,-1.0,1.0,1.0,-1.74533,0
99,1776696017950970779,1776696017950,False,1.2698587798898868,0.5395443176526913,2.1702018787617567,-0.069338777063933,-0.0151969256386189,-0.9044782471028332,1.0,1.0,3.0,-1.5,-1.0,1.0,1.0,-1.74533,0
100,1776696018052384378,1776696018052,False,1.333445564075461,0.5593954788509589,2.18302212500254,-0.0775921340434191,-0.0231765592567147,-0.933700078965403,1.0,1.0,3.0,-1.5,-1.0,1.0,1.0,-1.74533,0
101,1776696018151088246,1776696018151,False,1.3902301786833042,0.5859675951257223,2.19643769186954,-0.0726798955552125,-0.0187994080047817,-0.9621945399078332,1.0,1.0,3.0,-1.5,-1.0,1.0,1.0,-1.74533,0
102,1776696018252963896,1776696018252,False,1.4407407266588712,0.6189608561494455,2.2104405407428978,-0.0741202732675052,-0.0131090786811559,-0.9916999586279612,1.0,1.0,3.0,-1.5,-1.0,1.0,1.0,-1.74533,0
103,1776696018352419762,1776696018352,False,1.485952597054727,0.6576820854176301,2.225411424810925,-0.0667213766990861,-0.0056343504553219,-1.018950705525756,1.0,1.0,3.0,-1.5,-1.0,1.0,1.0,-1.74533,0
104,1776696018452145451,1776696018451,False,1.526443738056542,0.701146722689994,2.240906711501629,-0.06170216189184,0.0008369318410831,-1.0491905516669,1.0,1.0,3.0,-1.5,-1.0,1.0,1.0,-1.74533,0
105,1776696018556076706,1776696018555,False,1.5647448691464787,0.7507716419579604,2.2574009375034225,-0.0588768082449629,0.0023866108513255,-1.0840259174971971,1.0,1.0,3.0,-1.5,-1.0,1.0,1.0,-1.74533,0
106,1776696018653683695,1776696018653,False,1.5970216918325404,0.7994748861351447,2.27367190082653,-0.0560534754333144,0.0139409637458903,-1.103097822307533,1.0,1.0,3.0,-1.5,-1.0,1.0,1.0,-1.74533,0
107,1776696018756244664,1776696018755,False,1.630355009799263,0.854985116901865,2.292091184228519,-0.0517319725198731,0.017844187815011,-1.136074641491173,1.0,1.0,3.0,-1.5,-1.0,1.0,1.0,-1.74533,0
108,1776696018859876984,1776696018858,False,1.6608395681934167,0.9101173909098444,2.310923179617137,-0.0512779474039205,0.0247088580911297,-1.1645660386726824,1.0,1.0,3.0,-1.5,-1.0,1.0,1.0,-1.677169806636587,0
109,1776696018955817416,1776696018955,False,1.6905582276414273,0.9668932992619068,2.330813693687745,-0.0442248298133405,0.0252027393906597,-1.1940359639350826,1.0,1.0,3.0,-1.5,-1.0,1.0,1.0,-1.529820180324588,0
110,1776696019056318473,1776696019055,False,1.7197693551484137,1.025046987616716,2.351907740849246,-0.0488414895868372,0.030015599840381,-1.224312455161082,1.0,1.0,3.0,-1.5,-1.0,1.0,1.0,-1.37843772419459,0
111,1776696019156075157,1776696019156,False,1.748924072654486,1.0837974079539885,2.373376315301344,-0.0507335584280024,0.0342414638713119,-1.253888083725719,1.0,1.0,3.0,-1.5,-1.0,1.0,1.0,-1.2305595813714063,0
112,1776696019257108130,1776696019256,False,1.7783536814418015,1.1434075975679985,2.394949157547024,-0.0505276421744989,0.0331788862545352,-1.2800613638647211,1.0,1.0,3.0,-1.5,-1.0,1.0,1.0,-1.0996931806763932,0
113,1776696019356732384,1776696019356,False,1.8078066603259733,1.203412358613894,2.4159020527231365,-0.0519699487482631,0.048272323575305,-1.313047708384313,1.0,1.0,3.0,-1.5,-1.0,1.0,1.0,-0.9347614580784348,0
114,1776696019456538687,1776696019456,False,1.836009169612132,1.2596568552920369,2.4340305086808183,-0.0476586312650718,0.0809344394714353,-1.4882477726280148,1.0,1.0,3.0,-1.5,-1.0,1.0,1.0,-0.0587611368599261,0
115,1776696019556146802,1776696019555,False,1.8703497492555945,1.3084910439156334,2.4427389963269937,0.0711554018441062,0.235114750074515,-1.9042845835797624,1.0,1.0,3.0,-1.5,-1.0,1.0,1.0,1.74533,0
116,1776696019663978056,1776696019663,False,1.9043394515911576,1.331791173079132,2.4524901632688545,0.3028685043281378,0.2913317334271486,-2.392636351448133,1.0,1.0,3.0,-1.5,-1.0,-1.0,1.0,1.74533,0
117,1776696019756192170,1776696019755,False,1.9327013807623827,1.3282860189796857,2.453003335047484,0.5410337091029541,0.1486672479534001,-2.7937625441818583,1.0,1.0,3.0,-1.5,-1.0,-1.0,1.0,1.74533,0
118,1776696019856370835,1776696019855,False,1.9476408046707665,1.3002164819475748,2.454850256642912,0.5856507963037847,0.1416074561076789,-2.751398808621853,1.0,1.0,3.0,-1.5,-1.0,-1.0,1.0,1.74533,0
119,1776696019955407564,1776696019955,False,1.9554451529888437,1.2455895625092182,2.4598718893544684,0.6351854595110372,0.3100331869401658,-2.466623222977451,1.0,1.0,3.0,-1.5,-1.0,-1.0,1.0,1.74533,0
120,1776696020055624982,1776696020055,False,1.975824718473269,1.1687343492411146,2.4639162665058665,0.5633894180805537,0.6443981974862021,-1.92014456646512,1.0,1.0,3.0,-1.5,-1.0,-1.0,1.0,1.74533,0
121,1776696020159696850,1776696020159,False,2.016754769809859,1.1012979811325407,2.437520735664143,-0.2542404443752001,1.1082721353269676,-0.7332280581293664,1.0,1.0,3.0,-1.5,-1.0,1.0,1.0,-1.74533,0
122,1776696020269635681,1776696020269,False,2.013268946432615,1.0815814382933326,2.433394677561929,-0.4383689903092455,0.7584503422913635,-0.3609003442118181,1.0,1.0,3.0,-1.5,-1.0,1.0,1.0,-1.74533,0
123,1776696020360741328,1776696020360,False,1.9918855946599887,1.0801202284077207,2.4160058339039,-0.4927130913493289,0.2999234200699756,-0.0226362817582483,1.0,1.0,3.0,-1.5,1.0,1.0,1.0,-1.74533,0
124,1776696020459937684,1776696020459,False,1.963699982609718,1.0904294209203862,2.40373426850211,-0.3060264503128066,0.1635721476157584,-0.0755017511096068,1.0,1.0,3.0,-1.5,-1.0,1.0,1.0,-1.74533,0
125,1776696020559756125,1776696020559,False,1.929621122520843,1.1108053450149458,2.398515915561185,-0.2350811515805378,0.1502001563023341,-0.2156720201506774,1.0,1.0,3.0,-1.5,-1.0,1.0,1.0,-1.74533,0
126,1776696020659500812,1776696020659,False,1.8916768791348024,1.1354554932790355,2.397509187410421,-0.1875054958418017,0.1908533493417699,-0.4462738585475847,1.0,1.0,3.0,-1.5,-1.0,1.0,1.0,-1.74533,0
127,1776696020759139293,1776696020759,False,1.849413519403968,1.1591053919688654,2.394172625961357,-0.1306243240322863,0.1570245587428959,-0.7213350565831792,1.0,1.0,3.0,-1.5,-1.0,1.0,1.0,-1.74533,0
128,1776696020858303607,1776696020858,False,1.8218667472547896,1.1659298200714212,2.3854849883844094,0.094400371077202,0.1419852813661902,-0.9232991735043246,1.0,1.0,3.0,-1.5,-1.0,1.0,1.0,-1.74533,0
129,1776696020962908775,1776696020962,False,1.763074463540264,1.178489428781739,2.3121655050916416,0.5212295547933848,-0.4368165547273406,-1.1345182299733405,1.0,1.0,3.0,-1.5,-1.0,1.0,1.0,-1.74533,0
130,1776696021060884964,1776696021060,False,1.735141892396702,1.2359999253006575,2.168062771633253,2.7048624206283107,-1.1521592162590302,0.3105533992681062,1.0,1.0,3.0,-1.5,1.0,1.0,1.0,-1.74533,0
131,1776696021164019271,1776696021163,False,1.7624744073659926,1.3134187597932148,2.018489097047166,-1.9870283546049912,0.0838619923051321,0.8260326054346553,1.0,1.0,3.0,-1.5,1.0,1.0,1.0,-1.74533,0
132,1776696021265659383,1776696021265,False,1.7211014774541855,1.3077245473478378,1.812002449891592,-0.2115384713135657,0.0190780701601672,-0.325441505460633,1.0,1.0,3.0,-1.5,-1.0,1.0,1.0,-1.74533,0
133,1776696021365882024,1776696021365,False,1.663109156516721,1.3366159787959622,1.4185426942322572,1.4888215381620924,-1.3939606169178729,0.4628812998465264,1.0,1.0,3.0,-1.5,1.0,1.0,1.0,-1.74533,0
134,1776696021471870308,1776696021471,False,1.6844463160794374,1.4136337438159168,0.9521459710009534,-2.3215411523588063,-0.1353982026032923,2.1044041536605125,1.0,1.0,3.0,-1.5,1.0,-1.0,1.0,1.74533,0
135,1776696021577256878,1776696021576,False,1.6710690230132874,1.4383882035773576,0.4693226350940546,-0.9096146203643708,0.4934433832350438,1.0946666236941862,1.0,1.0,3.0,-1.5,1.0,1.0,1.0,-1.74533,0
136,1776696021674715078,1776696021674,False,1.621282831509225,1.446614142671795,0.1238637666068867,-1.0274228776402552,-0.595811037247491,0.4330789807920242,1.0,1.0,3.0,-1.5,1.0,1.0,1.0,-1.74533,0
137,1776696021776815752,1776696021776,False,1.6622988840754391,1.4305360401181646,0.3138798412538804,1.2847254053057329,0.9099705507769178,-0.4588128019741977,1.0,1.0,3.0,-1.5,-1.0,1.0,1.0,-1.74533,0
138,1776696021886347338,1776696021886,False,1.6938275501907103,1.4651064486909997,0.4136155933041344,-2.969587578015048,-0.8214590887065455,0.4477739609526774,1.0,1.0,3.0,-1.5,-1.0,1.0,1.0,-1.74533,0
139,1776696021982471760,1776696021982,False,1.7231338810858157,1.439817529001211,0.4201364403841502,-0.5400991970603471,0.315833629944577,-0.1460806739925601,1.0,1.0,3.0,-1.5,-1.0,1.0,1.0,-1.74533,0
140,1776696022083006317,1776696022082,False,1.7372054800392274,1.4027319439421295,0.3106976385162939,-1.1828460891133776,-0.380487217408163,-0.8382038736572232,1.0,1.0,3.0,-1.5,-1.0,1.0,1.0,-1.74533,0
141,1776696022187015915,1776696022186,False,1.7822602955872808,1.4418112599970432,0.1046482196444892,-1.5518619104856075,-0.7958912819513883,0.3878861431510914,1.0,1.0,3.0,-1.5,-1.0,1.0,1.0,-1.74533,0
142,1776696022272695662,1776696022272,False,1.7831402200542843,1.457317053652908,0.0404465264392647,1.2604667686933808,-0.6222317321039866,2.532503276970266,1.0,1.0,3.0,-1.5,1.0,-1.0,1.0,1.74533,0
143,1776696022374815182,1776696022374,False,1.736683670662692,1.5086832058954305,0.0256395690318395,-1.7148064152873643,-0.4643706857415979,3.1274974439973464,1.0,1.0,3.0,-1.5,1.0,-1.0,1.0,1.74533,0
144,1776696022464253287,1776696022463,False,1.677426442563794,1.5184114002673288,0.0174285151072461,0.1047170520614702,-0.4123305964210669,-1.154503433832761,1.0,1.0,3.0,-1.5,-1.0,-1.0,1.0,-1.7274828308361956,0
145,1776696022564330829,1776696022563,False,1.670239767622833,1.499801565786706,0.0121087444577379,0.4774869386529554,0.226153949491243,0.1175286652324656,1.0,1.0,3.0,-1.5,-1.0,1.0,1.0,-1.74533,0
146,1776696022663789326,1776696022663,False,1.680525841826826,1.5055917786288684,0.0142123732058361,0.0007791619403496,0.0563163313969506,1.5698291169456544,1.0,1.0,3.0,-1.5,1.0,1.0,1.0,-1.74533,0
147,1776696022763713781,1776696022763,False,1.6653243614559834,1.5266187334644774,0.0160983047044971,-0.0068758446654606,0.0418174609145814,2.776191503501471,1.0,1.0,3.0,-1.5,1.0,-1.0,1.0,1.74533,0
148,1776696022863926555,1776696022863,False,1.6431765218325418,1.5416727127070422,0.0160487485545934,-0.0268381847257206,-0.0118825377633224,-2.4227485767485533,1.0,1.0,3.0,-1.5,1.0,-1.0,1.0,1.74533,0
149,1776696022963165397,1776696022963,False,1.632056688216974,1.5372244651148357,0.0139986681966831,-0.0160529508654112,-0.0445013431622557,-1.5870430691140591,1.0,1.0,3.0,-1.5,-1.0,-1.0,1.0,0.4352153455702945,0
150,1776696023063556809,1776696023063,False,1.627398212567326,1.5266454809499286,0.0157174281624297,0.0064653316992523,-0.028433997615739,-1.0480294102705034,1.0,1.0,3.0,-1.5,-1.0,-1.0,1.0,-1.74533,0
151,1776696023163350779,1776696023163,False,1.6280826643091555,1.5205062860240803,0.0158045785533761,0.0294336311062056,-0.0095820828137128,-0.745608923296648,1.0,1.0,3.0,-1.5,-1.0,-1.0,1.0,-1.74533,0
152,1776696023264684678,1776696023264,False,1.6290389749061192,1.519721559296525,0.0154230999543453,0.0359459588138719,0.0107120945653722,-0.6964510076475534,1.0,1.0,3.0,-1.5,-1.0,-1.0,1.0,-1.74533,0
153,1776696023367762823,1776696023367,False,1.6284889456125722,1.5193325276869931,0.0156929861194528,0.0472068855856742,-0.0116063012799866,-0.7030432703044447,1.0,1.0,3.0,-1.5,-1.0,-1.0,1.0,-1.74533,0
154,1776696023465870942,1776696023465,False,1.6284762652805571,1.5193140125024434,0.0157189042863022,0.0450952080513355,-0.0116379786468153,-0.7030230726597296,1.0,1.0,3.0,-1.5,-1.0,-1.0,1.0,-1.74533,0
155,1776696023564810910,1776696023564,False,1.62847691017449,1.5193483517943858,0.015771499754286,0.0455775593201751,-0.0110627380485147,-0.7030405854819236,1.0,1.0,3.0,-1.5,-1.0,-1.0,1.0,-1.74533,0
156,1776696023667420154,1776696023666,False,1.6289779423760464,1.5197438221105717,0.0155008882073906,0.0348124159289982,0.0130405223692554,-0.6971264911767652,1.0,1.0,3.0,-1.5,-1.0,-1.0,1.0,-1.74533,0
157,1776696023764628561,1776696023764,False,1.6289813866261167,1.5195154871753915,0.0155177065231817,0.0343596666904996,0.0112767611396011,-0.6938218695060556,1.0,1.0,3.0,-1.5,-1.0,-1.0,1.0,-1.74533,0
158,1776696023864649266,1776696023864,False,1.628306396993808,1.5194748853036455,0.0160858524225772,0.0310600937022221,-0.0084677927218227,-0.7133523745920205,1.0,1.0,3.0,-1.5,-1.0,-1.0,1.0,-1.74533,0
159,1776696023964073051,1776696023964,False,1.629033612829344,1.51975484959417,0.0155022525822437,0.0351017128502968,0.0127608233929413,-0.6974532286383742,1.0,1.0,3.0,-1.5,-1.0,-1.0,1.0,-1.74533,0
160,1776696024064605100,1776696024064,False,1.6285572643230484,1.5193608186258156,0.0156932929120729,0.04685738193475,-0.0125148287692336,-0.7031495206837345,1.0,1.0,3.0,-1.5,-1.0,-1.0,1.0,-1.74533,0
161,1776696024168996948,1776696024168,False,1.6289690156824277,1.5195737500189976,0.0153943014287059,0.034798257600036,0.0085891121647176,-0.6961343287413156,1.0,1.0,3.0,-1.5,-1.0,-1.0,1.0,-1.74533,0
162,1776696024269357351,1776696024269,False,1.6285219459336473,1.5195549694965582,0.0157191084467933,0.0449755435319673,-0.0114190050192473,-0.7052834042446142,1.0,1.0,3.0,-1.5,-1.0,-1.0,1.0,-1.74533,0
163,1776696024369569852,1776696024369,False,1.628987994593272,1.5195598307373208,0.0154792449894202,0.0348361303693066,0.0115229808875721,-0.6939814525796454,1.0,1.0,3.0,-1.5,-1.0,-1.0,1.0,-1.74533,0
164,1776696024468350948,1776696024468,False,1.628638002300458,1.5195746023097214,0.0156227658431209,0.0468925016315755,-0.0127896157332765,-0.7051921359301025,1.0,1.0,3.0,-1.5,-1.0,-1.0,1.0,-1.74533,0
165,1776696024568573719,1776696024568,False,1.6289816620100035,1.5196043983851355,0.0154466399813122,0.0349212337892359,0.0124407537641961,-0.6937614350210057,1.0,1.0,3.0,-1.5,-1.0,-1.0,1.0,-1.74533,0
166,1776696024668122899,1776696024667,False,1.6285800063353877,1.519569745401592,0.0156526190169236,0.0462968412047116,-0.0130331738391055,-0.7051882933037364,1.0,1.0,3.0,-1.5,-1.0,-1.0,1.0,-1.74533,0
167,1776696024767381695,1776696024767,False,1.6282271820314465,1.5192727883209476,0.0161755418113436,0.0323364756950776,-0.0067144048334502,-0.7087680282078788,1.0,1.0,3.0,-1.5,-1.0,-1.0,1.0,-1.74533,0
168,1776696024868845809,1776696024868,False,1.6284820632490502,1.5193457581010732,0.0157555248200984,0.0454357549359057,-0.0114309314091176,-0.7032955496976996,1.0,1.0,3.0,-1.5,-1.0,-1.0,1.0,-1.74533,0
169,1776696024968065917,1776696024967,False,1.6286227184875888,1.519548121558622,0.0156582914764307,0.0441901380367464,-0.0123721792490129,-0.7050947729523055,1.0,1.0,3.0,-1.5,-1.0,-1.0,1.0,-1.74533,0
170,1776696025069065636,1776696025068,False,1.6281272591787266,1.5192634269451175,0.0162148122143256,0.0319575844986506,-0.0066817071712643,-0.7107445070631743,1.0,1.0,3.0,-1.5,-1.0,-1.0,1.0,-1.74533,0
171,1776696025168762413,1776696025168,False,1.6291392585513902,1.5198177419074566,0.0153584933250922,0.0372766418570603,0.0128137106951928,-0.6946977878520129,1.0,1.0,3.0,-1.5,-1.0,-1.0,1.0,-1.74533,0
172,1776696025268126844,1776696025267,False,1.6286481177266332,1.519577522488738,0.0155631849753872,0.0471165531416545,-0.0151373685743403,-0.7051283953954881,1.0,1.0,3.0,-1.5,-1.0,-1.0,1.0,-1.74533,0
173,1776696025368996094,1776696025367,False,1.628484755827165,1.5193421375382945,0.0156215200037231,0.0455200991787811,-0.0147659829821766,-0.7035521498312537,1.0,1.0,3.0,-1.5,-1.0,-1.0,1.0,-1.74533,0
174,1776696025467800662,1776696025467,False,1.6281208160651246,1.5192355319944897,0.0162189196270124,0.0297534969033263,-0.0053371130957933,-0.711162110303485,1.0,1.0,3.0,-1.5,-1.0,-1.0,1.0,-1.74533,0
175,1776696025571143409,1776696025571,False,1.629028297673348,1.5197855809944956,0.0154554010011326,0.0365758525326085,0.0111873825368033,-0.6975701436733704,1.0,1.0,3.0,-1.5,-1.0,-1.0,1.0,-1.74533,0
176,1776696025667810853,1776696025667,False,1.6284911261879096,1.5193462382827787,0.0157171947612945,0.044728193277907,-0.0125885023761944,-0.7036807432464537,1.0,1.0,3.0,-1.5,-1.0,-1.0,1.0,-1.74533,0
177,1776696025776173572,1776696025775,False,1.6290276430369917,1.519717075592821,0.015462552369065,0.0350433860113791,0.012043254335806,-0.6968497148845239,1.0,1.0,3.0,-1.5,-1.0,-1.0,1.0,-1.74533,0
178,1776696025872957218,1776696025872,False,1.628660916781702,1.5195744753102725,0.0155886217678084,0.0468393220503642,-0.0132239632279974,-0.7049024927360268,1.0,1.0,3.0,-1.5,-1.0,-1.0,1.0,-1.74533,0
179,1776696025978017604,1776696025977,False,1.6291442445824764,1.5197330639571855,0.0149727448835465,0.0572946530042937,-0.0103876047946643,-0.6951429698113846,1.0,1.0,3.0,-1.5,-1.0,-1.0,1.0,-1.74533,0
180,1776696026087616304,1776696026087,False,1.6289280148341334,1.5195510436794504,0.0154772675510329,0.0361984316973051,0.0100734633275053,-0.6957196741747415,1.0,1.0,3.0,-1.5,-1.0,-1.0,1.0,-1.74533,0
181,1776696026172259364,1776696026172,False,1.628122191469814,1.5192638069172688,0.0161324854890695,0.0310397178511729,-0.0086106574203847,-0.7109609604146885,1.0,1.0,3.0,-1.5,-1.0,-1.0,1.0,-1.74533,0
182,1776696026269503989,1776696026269,False,1.628275505985029,1.5194610416025751,0.0160896084186063,0.0305861542495465,-0.0083824564695365,-0.7134851307440213,1.0,1.0,3.0,-1.5,-1.0,-1.0,1.0,-1.74533,0
183,1776696026374465544,1776696026374,False,1.6282923217293872,1.5194747124457186,0.0160655600549947,0.0304367232627588,-0.0084319824005592,-0.713357127778228,1.0,1.0,3.0,-1.5,-1.0,-1.0,1.0,-1.74533,0
184,1776696026470124083,1776696026469,False,1.6285423766845346,1.5193604882479814,0.0157215984760422,0.0446394881268136,-0.0115618332177708,-0.7020144749708556,1.0,1.0,3.0,-1.5,-1.0,-1.0,1.0,-1.74533,0
185,1776696026694330335,1776696026694,False,1.6284965366182516,1.5193296568463388,0.0157555279364778,0.0448992068719679,-0.0106709465213217,-0.7030577056366915,1.0,1.0,3.0,-1.5,-1.0,-1.0,1.0,-1.74533,0
186,1776696026699638472,1776696026699,False,1.628216673337532,1.5194181443219383,0.0161419088095896,0.0303461548393238,-0.0073473372438665,-0.7125779525593695,1.0,1.0,3.0,-1.5,-1.0,-1.0,1.0,-1.74533,0
187,1776696026918246847,1776696026917,False,1.6281481513266711,1.5192570823885982,0.0161568748947113,0.0325214817005776,-0.0079402973998106,-0.7110579747880631,1.0,1.0,3.0,-1.5,-1.0,-1.0,1.0,-1.74533,0
188,1776696026923713611,1776696026923,False,1.6289249823966527,1.5195725340259505,0.0154757324150946,0.0345893157133785,0.011348097978084,-0.6961645535405953,1.0,1.0,3.0,-1.5,-1.0,-1.0,1.0,-1.74533,0
189,1776696027021685121,1776696027021,False,1.6285961919766638,1.5193468319620418,0.0156936674782466,0.0458405209651549,-0.0128931977235111,-0.7009751002937941,1.0,1.0,3.0,-1.5,-1.0,-1.0,1.0,-1.74533,0
190,1776696027157393257,1776696027157,False,1.6285133467323187,1.5193462329264105,0.0156530895338235,0.044722345578277,-0.0130899322300662,-0.7035457972943614,1.0,1.0,3.0,-1.5,-1.0,-1.0,1.0,-1.74533,0
191,1776696027223764285,1776696027223,False,1.628926237289693,1.5195648963069208,0.0154992336262851,0.0370683203462479,0.0101052923295544,-0.6956067605893256,1.0,1.0,3.0,-1.5,-1.0,-1.0,1.0,-1.74533,0
192,1776696027414501154,1776696027414,False,1.6285129558662963,1.5193392697807702,0.0156654621976986,0.0462670184689485,-0.0128179226634025,-0.7032590780582176,1.0,1.0,3.0,-1.5,-1.0,-1.0,1.0,-1.74533,0
193,1776696027422695871,1776696027422,False,1.6285270748612592,1.5193502840311857,0.0156843859340663,0.0460224858832122,-0.0126628802789424,-0.7033158753025498,1.0,1.0,3.0,-1.5,-1.0,-1.0,1.0,-1.74533,0
194,1776696027635451499,1776696027635,False,1.6281407412708335,1.519233544818763,0.0161549141067984,0.0331234858219952,-0.0082806376424941,-0.7105269140297339,1.0,1.0,3.0,-1.5,-1.0,-1.0,1.0,-1.74533,0
195,1776696027636931144,1776696027637,False,1.6290753180488913,1.5197334989633504,0.0154446834077624,0.0350520883716618,0.0122877989949277,-0.6950798581759415,1.0,1.0,3.0,-1.5,-1.0,-1.0,1.0,-1.74533,0
196,1776696027741193762,1776696027741,False,1.6282654798743317,1.5194478012366168,0.0161350421714958,0.0309904579719639,-0.00754177319672,-0.7128249955766723,1.0,1.0,3.0,-1.5,-1.0,-1.0,1.0,-1.74533,0
197,1776696027872012335,1776696027869,False,1.6289062919316186,1.5195746403044457,0.0155287067575757,0.0330195318704073,0.0126499368856924,-0.6965947540440708,1.0,1.0,3.0,-1.5,-1.0,-1.0,1.0,-1.74533,0
198,1776696027941179478,1776696027940,False,1.6281483563188053,1.519230239300524,0.0162458670731287,0.0299614535087033,-0.0068514244033462,-0.7108156578814433,1.0,1.0,3.0,-1.5,-1.0,-1.0,1.0,-1.74533,0
199,1776696028039114994,1776696028039,False,1.6286806867205788,1.5195713339492622,0.0156182496036633,0.0444139597879383,-0.0136661391666969,-0.7040971029170968,1.0,1.0,3.0,-1.5,-1.0,-1.0,1.0,-1.74533,0
200,1776696028140103781,1776696028139,False,1.628616843961432,1.5195713992318842,0.0155887943116665,0.0461578414286517,-0.0143223695762097,-0.7052841619277715,1.0,1.0,3.0,-1.5,-1.0,-1.0,1.0,-1.74533,0
201,1776696028238084545,1776696028237,False,1.6284402907423952,1.519332761087509,0.0156888170885053,0.0452965429257652,-0.012037785519686,-0.7036820959178679,1.0,1.0,3.0,-1.5,-1.0,-1.0,1.0,-1.74533,0
202,1776696028340041444,1776696028339,False,1.6281853153921872,1.519228505079425,0.0161604881734402,0.0315256300890333,-0.0075839236347266,-0.7108100967155883,1.0,1.0,3.0,-1.5,-1.0,-1.0,1.0,-1.74533,0
203,1776696028439642214,1776696028439,False,1.6289045446574812,1.519568171401136,0.0155675201517545,0.0344924275534923,0.0127589215761503,-0.696152335161001,1.0,1.0,3.0,-1.5,-1.0,-1.0,1.0,-1.74533,0
204,1776696028540188828,1776696028540,False,1.62811593304462,1.5192611020559843,0.0161189810364455,0.0301824652292097,-0.008496153383044,-0.7114484711790875,1.0,1.0,3.0,-1.5,-1.0,-1.0,1.0,-1.74533,0
205,1776696028644084009,1776696028643,False,1.6285102732742205,1.5193713733134702,0.0156014983368017,0.0467655018036565,-0.0150772591272163,-0.7034768010103689,1.0,1.0,3.0,-1.5,-1.0,-1.0,1.0,-1.74533,0
206,1776696028740976116,1776696028740,False,1.6282576561850444,1.5194335951700484,0.0161418480032743,0.0291969422092061,-0.0059935520838069,-0.7132948985003041,1.0,1.0,3.0,-1.5,-1.0,-1.0,1.0,-1.74533,0
207,1776696028844102477,1776696028842,False,1.6286658603039006,1.5195802872845148,0.0156196627004163,0.0454403513531467,-0.0129734955104519,-0.7031003647741192,1.0,1.0,3.0,-1.5,-1.0,-1.0,1.0,-1.74533,0
208,1776696028945929082,1776696028945,False,1.6290317669979633,1.5197336134579886,0.0154831549460519,0.0353340439709104,0.0123123960944708,-0.6968993899054668,1.0,1.0,3.0,-1.5,-1.0,-1.0,1.0,-1.74533,0
209,1776696029048289130,1776696029047,False,1.628551069076403,1.5193597672533383,0.0156641726215902,0.0461368288426423,-0.0130218878139266,-0.7033154655250905,1.0,1.0,3.0,-1.5,-1.0,-1.0,1.0,-1.74533,0
210,1776696029149807289,1776696029149,False,1.628095915231772,1.5192052258148352,0.0161517030580917,0.0309773818966363,-0.0073855661786435,-0.7109238324279056,1.0,1.0,3.0,-1.5,-1.0,-1.0,1.0,-1.74533,0
211,1776696029253637903,1776696029253,False,1.6281429818422533,1.5192374703418792,0.0160815231404768,0.031357383057018,-0.00948809948927,-0.7108478621300035,1.0,1.0,3.0,-1.5,-1.0,-1.0,1.0,-1.74533,0
212,1776696029354863830,1776696029354,False,1.6288975464020734,1.519542587368901,0.0155332855491362,0.0355813970112729,0.0111690031593345,-0.6953054761147488,1.0,1.0,3.0,-1.5,-1.0,-1.0,1.0,-1.74533,0
213,1776696029457285347,1776696029457,False,1.6281129870062403,1.5192219735996109,0.016307296821622,0.0297199721354987,-0.0050128652682852,-0.7113640129299016,1.0,1.0,3.0,-1.5,-1.0,-1.0,1.0,-1.74533,0
214,1776696029559840496,1776696029559,False,1.6281954548468092,1.5192636630461056,0.0161759574149168,0.0318068230830792,-0.0064757353590411,-0.7083403698566448,1.0,1.0,3.0,-1.5,-1.0,-1.0,1.0,-1.74533,0
215,1776696029661962378,1776696029661,False,1.6286519408464568,1.5195692053114656,0.0156396850997714,0.0457071467061606,-0.0123222260589965,-0.7055575389137637,1.0,1.0,3.0,-1.5,-1.0,-1.0,1.0,-1.74533,0
216,1776696029764167555,1776696029763,False,1.629008264687186,1.519741943019085,0.0154725039296753,0.0360461623478265,0.0117246600924111,-0.696865263216617,1.0,1.0,3.0,-1.5,-1.0,-1.0,1.0,-1.74533,0
217,1776696029864745086,1776696029864,False,1.6282612803811938,1.5193208425505773,0.0161021423712221,0.033164855339652,-0.0077780953480212,-0.7085537363798627,1.0,1.0,3.0,-1.5,-1.0,-1.0,1.0,-1.74533,0
218,1776696029971877390,1776696029971,False,1.6286038166827597,1.5195870156821147,0.0155853358017257,0.0469300671530307,-0.0145212940050488,-0.7052304234681668,1.0,1.0,3.0,-1.5,-1.0,-1.0,1.0,-1.74533,0
219,1776696030071860965,1776696030071,False,1.6285450754486086,1.5193430129442922,0.0157474068529586,0.0439725938421919,-0.0117070570266952,-0.7018768769553677,1.0,1.0,3.0,-1.5,-1.0,-1.0,1.0,-1.74533,0
220,1776696030143647262,1776696030143,False,1.6286232064115056,1.519538788966585,0.0155890298033093,0.0455108842155325,-0.0138442572495109,-0.7048263809105925,1.0,1.0,3.0,-1.5,-1.0,-1.0,1.0,-1.74533,0
221,1776696030244547233,1776696030244,False,1.6281498285695772,1.5192369253255396,0.0162231640587836,0.031070341572512,-0.0055773546952401,-0.7106803128193063,1.0,1.0,3.0,-1.5,-1.0,-1.0,1.0,-1.74533,0
222,1776696030344664438,1776696030344,False,1.6288276466213132,1.519563391934685,0.0155496506607408,0.0337063397997508,0.013460715713194,-0.6961073957253902,1.0,1.0,3.0,-1.5,-1.0,-1.0,1.0,-1.74533,0
223,1776696030448565000,1776696030448,False,1.6282431278565832,1.51939645618231,0.0162302111335114,0.0278316220168011,-0.0052016184628401,-0.7132320663303741,1.0,1.0,3.0,-1.5,-1.0,-1.0,1.0,-1.74533,0
224,1776696030548989763,1776696030548,False,1.6290348290666457,1.5197154814567095,0.0154662690936535,0.0355836668384625,0.0117668287514268,-0.6966317155191489,1.0,1.0,3.0,-1.5,-1.0,-1.0,1.0,-1.74533,0
225,1776696030648043763,1776696030648,False,1.6281557403930065,1.51923480837439,0.0161684058251136,0.0314305408589569,-0.0078213160038004,-0.7106745370477433,1.0,1.0,3.0,-1.5,-1.0,-1.0,1.0,-1.74533,0
226,1776696030749635118,1776696030749,False,1.6284967018847285,1.5193549925039411,0.0156916173979563,0.0459928463377061,-0.0125069321292795,-0.7035008545426145,1.0,1.0,3.0,-1.5,-1.0,-1.0,1.0,-1.74533,0
227,1776696030848295137,1776696030847,False,1.6281732992165578,1.519265473396184,0.0162052166722955,0.0313693622676533,-0.0068498908318129,-0.7111113075983676,1.0,1.0,3.0,-1.5,-1.0,-1.0,1.0,-1.74533,0
228,1776696030948404566,1776696030947,False,1.629073626093846,1.5197061758617068,0.0155348950094479,0.0335794019042045,0.0139941223456275,-0.6961969539828683,1.0,1.0,3.0,-1.5,-1.0,-1.0,1.0,-1.74533,0
229,1776696031048054847,1776696031047,False,1.628888115801419,1.5195572046179635,0.0155221649117072,0.0368986011430393,0.0096380189717072,-0.6950489238304618,1.0,1.0,3.0,-1.5,-1.0,-1.0,1.0,-1.74533,0
230,1776696031147646321,1776696031147,False,1.6285108048616013,1.5193727305594646,0.0157302970188538,0.0456890077503989,-0.0122857634343423,-0.7031751680987878,1.0,1.0,3.0,-1.5,-1.0,-1.0,1.0,-1.74533,0
231,1776696031250384475,1776696031249,False,1.628640665257444,1.5195847688960613,0.0155887728303918,0.0472410382793562,-0.0142312504559933,-0.7050719660597992,1.0,1.0,3.0,-1.5,-1.0,-1.0,1.0,-1.74533,0
232,1776696031348316973,1776696031347,False,1.6285356730987806,1.5193664266405775,0.0156965370843356,0.0458765193067724,-0.012246274873547,-0.7035929547936159,1.0,1.0,3.0,-1.5,-1.0,-1.0,1.0,-1.74533,0
233,1776696031447932279,1776696031447,False,1.628254113407149,1.5194397649843878,0.0161528555895223,0.0302940762061533,-0.0078964262509738,-0.7129521469354563,1.0,1.0,3.0,-1.5,-1.0,-1.0,1.0,-1.74533,0
234,1776696031548543702,1776696031548,False,1.6282273028329293,1.5194567852100778,0.0161671060590723,0.0295483629221576,-0.0068163752295085,-0.713793468257651,1.0,1.0,3.0,-1.5,-1.0,-1.0,1.0,-1.74533,0
235,1776696031647947015,1776696031647,False,1.6281355016511447,1.519230895890903,0.0161612680767341,0.0315218757004107,-0.0079766643587299,-0.7107537922010695,1.0,1.0,3.0,-1.5,-1.0,-1.0,1.0,-1.74533,0
236,1776696031748503922,1776696031748,False,1.6284890606363398,1.5193531109644522,0.0156637134062152,0.0465848680427954,-0.013508734805992,-0.7034125045771825,1.0,1.0,3.0,-1.5,-1.0,-1.0,1.0,-1.74533,0
237,1776696031851759787,1776696031851,False,1.6285952356893627,1.5195552506767187,0.0156088619972371,0.0445841556498721,-0.0129687263936983,-0.7055561481870141,1.0,1.0,3.0,-1.5,-1.0,-1.0,1.0,-1.74533,0
238,1776696031951970303,1776696031951,False,1.6288751634626242,1.5195396502607788,0.0154912031707981,0.0360009059824836,0.0105633343558537,-0.6949113286571837,1.0,1.0,3.0,-1.5,-1.0,-1.0,1.0,-1.74533,0
239,1776696032052251613,1776696032051,False,1.6291003921444809,1.519726211405822,0.0154160943913928,0.0343066023082409,0.0119855963830866,-0.6948490153545878,1.0,1.0,3.0,-1.5,-1.0,-1.0,1.0,-1.74533,0
240,1776696032151630269,1776696032151,False,1.6282061017059208,1.5194248241186077,0.0161515708493801,0.03040627792266,-0.0067232586290083,-0.7127918351775274,1.0,1.0,3.0,-1.5,-1.0,-1.0,1.0,-1.74533,0
241,1776696032251831016,1776696032251,False,1.6282818856094436,1.5194280876371635,0.0162616666368252,0.0261582391510866,-0.0041771525252655,-0.7120873139231422,1.0,1.0,3.0,-1.5,-1.0,-1.0,1.0,-1.74533,0
242,1776696032351893028,1776696032351,False,1.6282818506751169,1.519443525972576,0.0161188163068686,0.029333515461837,-0.0074269770538298,-0.7134970838907403,1.0,1.0,3.0,-1.5,-1.0,-1.0,1.0,-1.74533,0
243,1776696032451754387,1776696032451,False,1.6284926375136806,1.519345759666273,0.0156763041511356,0.0466498460286805,-0.0134607725548457,-0.702672313117492,1.0,1.0,3.0,-1.5,-1.0,-1.0,1.0,-1.74533,0
244,1776696032551993196,1776696032551,False,1.628142988657772,1.5192490494174484,0.0162035913111345,0.0310498543513159,-0.0070525644831683,-0.710739313887527,1.0,1.0,3.0,-1.5,-1.0,-1.0,1.0,-1.74533,0
245,1776696032652706761,1776696032652,False,1.6288852147221768,1.51955264966156,0.0155190406986042,0.0347613695855853,0.0116169686712977,-0.6955551756093827,1.0,1.0,3.0,-1.5,-1.0,-1.0,1.0,-1.74533,0
246,1776696032752617010,1776696032752,False,1.6290261360142224,1.5197358895475597,0.0155080945532708,0.0357136254583131,0.0125656152564868,-0.696802387141223,1.0,1.0,3.0,-1.5,-1.0,-1.0,1.0,-1.74533,0
247,1776696032852408195,1776696032852,False,1.6285576628896838,1.519332590058807,0.0156117622861092,0.046077237221344,-0.0132063509793578,-0.7027272449311132,1.0,1.0,3.0,-1.5,-1.0,-1.0,1.0,-1.74533,0
248,1776696032951472243,1776696032951,False,1.6285751371611852,1.5193638478882905,0.0156227487480738,0.0461925249057183,-0.0137204021159745,-0.703568555478555,1.0,1.0,3.0,-1.5,-1.0,-1.0,1.0,-1.74533,0
249,1776696033051453007,1776696033051,False,1.6284669952478543,1.519355081561086,0.0157835988059308,0.0445063522621759,-0.0100368639800009,-0.703696097682912,1.0,1.0,3.0,-1.5,-1.0,-1.0,1.0,-1.74533,0
250,1776696033151022126,1776696033150,False,1.628591615240046,1.5193529062197664,0.0156805891603784,0.0457433876443134,-0.0128065163421009,-0.7008660517144344,1.0,1.0,3.0,-1.5,-1.0,-1.0,1.0,-1.74533,0
251,1776696033252188810,1776696033251,False,1.628652119798368,1.5195581706976613,0.0156397566731974,0.046380481977417,-0.0128701370605743,-0.70483750150198,1.0,1.0,3.0,-1.5,-1.0,-1.0,1.0,-1.74533,0
252,1776696033351640779,1776696033351,False,1.628089418974621,1.5192248274604456,0.0161990832702612,0.0305870381301451,-0.0066222533154135,-0.7107910041971837,1.0,1.0,3.0,-1.5,-1.0,-1.0,1.0,-1.74533,0
253,1776696033452244811,1776696033452,False,1.6281019108877262,1.519224438750143,0.016181915235844,0.0316326455070598,-0.0072184109444412,-0.7104250642467446,1.0,1.0,3.0,-1.5,-1.0,-1.0,1.0,-1.74533,0
254,1776696033557388612,1776696033557,False,1.628461119559562,1.519340547502338,0.0157734647525316,0.0454292161227298,-0.0105017115032484,-0.7030405876925159,1.0,1.0,3.0,-1.5,-1.0,-1.0,1.0,-1.74533,0
255,1776696033655175932,1776696033655,False,1.6289716327844406,1.5195817363752735,0.0158250532421669,0.0198805975233086,0.0290926568260544,-0.6943235288552632,1.0,1.0,3.0,-1.5,-1.0,-1.0,1.0,-1.74533,0
256,1776696033758833847,1776696033758,False,1.628262210580551,1.5194547624042145,0.0161226225251388,0.0304064810022373,-0.007868419869631,-0.7131725560496502,1.0,1.0,3.0,-1.5,-1.0,-1.0,1.0,-1.74533,0
257,1776696033861087380,1776696033860,False,1.6285577468922072,1.519532233071267,0.0156315113446616,0.0456263456046549,-0.0126127707848755,-0.7044802414652637,1.0,1.0,3.0,-1.5,-1.0,-1.0,1.0,-1.74533,0
258,1776696033969134911,1776696033968,False,1.6281178138042596,1.51921528742318,0.0162036943557189,0.0306891871906939,-0.0063078871114447,-0.7105251909796167,1.0,1.0,3.0,-1.5,-1.0,-1.0,1.0,-1.74533,0
259,1776696034063582036,1776696034063,False,1.6281317743589354,1.5192289807007944,0.0162098545386293,0.0298213219840739,-0.0063048257249472,-0.7112563212495323,1.0,1.0,3.0,-1.5,-1.0,-1.0,1.0,-1.74533,0
260,1776696034167107520,1776696034167,False,1.6290974119662758,1.5197239233836923,0.0155022211219155,0.0338661412597088,0.0119897538357825,-0.6963340262842758,1.0,1.0,3.0,-1.5,-1.0,-1.0,1.0,-1.74533,0
261,1776696034270632469,1776696034270,False,1.6285095424044194,1.5193476863532451,0.0156968709245533,0.0460355045732975,-0.0128860154034816,-0.7032043311947047,1.0,1.0,3.0,-1.5,-1.0,-1.0,1.0,-1.74533,0
262,1776696034373488562,1776696034373,False,1.628187257976043,1.5192528872395972,0.0162365301102088,0.0290497048948465,-0.0055808796528014,-0.7092775545994342,1.0,1.0,3.0,-1.5,-1.0,-1.0,1.0,-1.74533,0
263,1776696034474489152,1776696034474,False,1.628286721375941,1.5194578531488858,0.0161427144055531,0.0304726260535546,-0.0070932521115001,-0.7129222625033265,1.0,1.0,3.0,-1.5,-1.0,-1.0,1.0,-1.74533,0
264,1776696034577386723,1776696034577,False,1.6281381111798918,1.51924334495612,0.0161470741363243,0.0320753182486151,-0.0086815966669483,-0.7103470697423824,1.0,1.0,3.0,-1.5,-1.0,-1.0,1.0,-1.74533,0
265,1776696034680288945,1776696034680,False,1.6281646416491595,1.5192460276802555,0.0161772955643941,0.0304917359346632,-0.0058835854580161,-0.7112295050991383,1.0,1.0,3.0,-1.5,-1.0,-1.0,1.0,-1.74533,0
266,1776696034781835997,1776696034781,False,1.6281243848857674,1.5192366943324245,0.0162010289710246,0.0306343168149115,-0.0049093773647808,-0.7107317832073571,1.0,1.0,3.0,-1.5,-1.0,-1.0,1.0,-1.74533,0
267,1776696034885162766,1776696034884,False,1.6281527235165596,1.5192495389052016,0.0161541553497743,0.0315055016019609,-0.0071824421689302,-0.7110365724642365,1.0,1.0,3.0,-1.5,-1.0,-1.0,1.0,-1.74533,0
268,1776696034955313267,1776696034955,False,1.6284957334378,1.5193704496872322,0.0156886282643579,0.0459161490048051,-0.0128115035631584,-0.7036170450204488,1.0,1.0,3.0,-1.5,-1.0,-1.0,1.0,-1.74533,0
269,1776696035056117336,1776696035055,False,1.628179188511257,1.5192502462883113,0.0161960499795735,0.0317525814580353,-0.0073617438917032,-0.710774160002002,1.0,1.0,3.0,-1.5,-1.0,-1.0,1.0,-1.74533,0
270,1776696035155783402,1776696035155,False,1.6284721214742697,1.5193368489584578,0.015772284120874,0.0449992639629974,-0.0113784629983867,-0.7030185615564045,1.0,1.0,3.0,-1.5,-1.0,-1.0,1.0,-1.74533,0
271,1776696035256822002,1776696035255,False,1.6285971445056062,1.5195853764826386,0.0155814792528826,0.0462925446818217,-0.0135694393390928,-0.7056174501772052,1.0,1.0,3.0,-1.5,-1.0,-1.0,1.0,-1.74533,0
272,1776696035356568979,1776696035355,False,1.6281948989148405,1.5192685270180586,0.0161569927854268,0.0317223118258094,-0.0061234289812146,-0.708659873479193,1.0,1.0,3.0,-1.5,-1.0,-1.0,1.0,-1.74533,0
273,1776696035460092371,1776696035459,False,1.62845723474705,1.519333257405537,0.0157963803214304,0.0463928481710073,-0.0110847799231832,-0.7026085534886867,1.0,1.0,3.0,-1.5,-1.0,-1.0,1.0,-1.74533,0
274,1776696035559653428,1776696035559,False,1.6281031143777451,1.5192549895380325,0.0162235664408587,0.0315873540412904,-0.0066282639585556,-0.7111953550537871,1.0,1.0,3.0,-1.5,-1.0,-1.0,1.0,-1.74533,0
275,1776696035659739999,1776696035659,False,1.628663356775006,1.519575039019906,0.0156242854117042,0.0461578712224339,-0.0129161178162231,-0.704977745867206,1.0,1.0,3.0,-1.5,-1.0,-1.0,1.0,-1.74533,0
276,1776696035761088221,1776696035760,False,1.6286344536376642,1.5193118936206045,0.0156760659465367,0.0456318940177194,-0.0132911127625811,-0.7007700786283759,1.0,1.0,3.0,-1.5,-1.0,-1.0,1.0,-1.74533,0
277,1776696035860004132,1776696035859,False,1.628653778988733,1.5195720104523522,0.0156221863083588,0.0466405362478344,-0.0141114332568946,-0.7047227292392199,1.0,1.0,3.0,-1.5,-1.0,-1.0,1.0,-1.74533,0
278,1776696035960629317,1776696035959,False,1.6281892589833835,1.519248833175606,0.0162244729863354,0.0311893794570608,-0.006317435275587,-0.7084142131351864,1.0,1.0,3.0,-1.5,-1.0,-1.0,1.0,-1.74533,0
279,1776696036059944947,1776696036059,False,1.628097936889428,1.5192411572239974,0.0162568420087306,0.0306521909113833,-0.0055536060813404,-0.7108833118376227,1.0,1.0,3.0,-1.5,-1.0,-1.0,1.0,-1.74533,0
280,1776696036159707068,1776696036159,False,1.6284275977701874,1.5193256914454951,0.015792838763389,0.0449277873983931,-0.0104716142786923,-0.7031345245303512,1.0,1.0,3.0,-1.5,-1.0,-1.0,1.0,-1.74533,0
281,1776696036260056714,1776696036259,False,1.6281911396945912,1.5192221953912282,0.0162277780676061,0.0290845519569454,-0.005937559825779,-0.7092242499373416,1.0,1.0,3.0,-1.5,-1.0,-1.0,1.0,-1.74533,0
282,1776696036359841109,1776696036359,False,1.6282345459234118,1.5194498056474484,0.0161375262986018,0.0293593776654361,-0.007576949924977,-0.7137363087760841,1.0,1.0,3.0,-1.5,-1.0,-1.0,1.0,-1.74533,0
283,1776696036460072074,1776696036459,False,1.6281382524686867,1.51943813178762,0.0162783556632997,0.0286705131685125,-0.0049416073834563,-0.7135740708330206,1.0,1.0,3.0,-1.5,-1.0,-1.0,1.0,-1.74533,0
284,1776696036559781595,1776696036559,False,1.6282397916664235,1.5194842425779758,0.016135603203187,0.0306150738651888,-0.0075678657076568,-0.7135175130951898,1.0,1.0,3.0,-1.5,-1.0,-1.0,1.0,-1.74533,0
285,1776696036659637689,1776696036659,False,1.6281759489002416,1.5192624484708,0.0161797388350764,0.0311973373235104,-0.0055273270095805,-0.7089738474439944,1.0,1.0,3.0,-1.5,-1.0,-1.0,1.0,-1.74533,0
286,1776696036759593756,1776696036759,False,1.6284864685957108,1.5193244212745385,0.0158035966033146,0.0445592106301804,-0.0101714237624897,-0.7033247049232898,1.0,1.0,3.0,-1.5,-1.0,-1.0,1.0,-1.74533,0
287,1776696036860684908,1776696036860,False,1.6281597605582598,1.5192502086922453,0.0162641379504618,0.0313544886465543,-0.005361589512298,-0.7106951698258795,1.0,1.0,3.0,-1.5,-1.0,-1.0,1.0,-1.74533,0
288,1776696036964168436,1776696036963,False,1.6282170577696455,1.5192643163016004,0.0162749577615347,0.0306654505222404,-0.005599145751888,-0.7093653501142698,1.0,1.0,3.0,-1.5,-1.0,-1.0,1.0,-1.74533,0
289,1776696037064573600,1776696037064,False,1.6281623418475673,1.5192432363625388,0.0160976437842875,0.0313741209111289,-0.0093156059319581,-0.7106619737404439,1.0,1.0,3.0,-1.5,-1.0,-1.0,1.0,-1.74533,0
290,1776696037163223428,1776696037163,False,1.6281672878132891,1.5192323289654606,0.0161920347301642,0.0299215579987873,-0.00724460174869,-0.7111733582285921,1.0,1.0,3.0,-1.5,-1.0,-1.0,1.0,-1.74533,0
291,1776696037264699605,1776696037263,False,1.6281522465196432,1.519257293154353,0.0162350253782124,0.0297727708968912,-0.0053387901765708,-0.7115846866708897,1.0,1.0,3.0,-1.5,-1.0,-1.0,1.0,-1.74533,0
292,1776696037363105967,1776696037362,False,1.6281353072983964,1.5192316996426745,0.0162001004379817,0.0298760845044435,-0.0071921567264658,-0.7107579157730657,1.0,1.0,3.0,-1.5,-1.0,-1.0,1.0,-1.74533,0
293,1776696037463672983,1776696037463,False,1.6286017129954669,1.5195637357928446,0.0156227610725501,0.0457737576659951,-0.0127062011370321,-0.7051438771691899,1.0,1.0,3.0,-1.5,-1.0,-1.0,1.0,-1.74533,0
294,1776696037563541189,1776696037563,False,1.6282242366239208,1.5192454589695874,0.0162262497501618,0.0307577056450137,-0.0065021626481098,-0.7085539994361955,1.0,1.0,3.0,-1.5,-1.0,-1.0,1.0,-1.74533,0
