,recording_time_ns,dt,wind_enabled,pos_x,pos_y,pos_z,pos_roll,pos_pitch,pos_yaw,targetpos_x,targetpos_y,targetpos_z,targetpos_yaw,control_vel_x,control_vel_y,control_vel_z,control_vel_yaw,experiment_id
828,1776697177697343251,1776697177697,False,-0.0753587249769644,0.0243472668283269,0.863125158975457,0.0026422980471086,0.0214949322527502,0.0422757775530028,0.0,0.0,2.0,0.0,1.0,-1.0,0.2842187102561357,-0.0042275777553002,3
829,1776697177798286082,1776697177798,False,-0.0767723110418224,0.0229293777412512,0.8612581647345273,0.0027212074522232,0.0211789242358789,0.0411027347516054,0.0,0.0,2.0,0.0,1.0,-1.0,0.2846854588163682,-0.0041102734751605,3
830,1776697177906365481,1776697177906,False,-0.0781794772282966,0.0216047081264898,0.8594998330349873,0.0028177299387292,0.022091819693295,0.0422882136435921,0.0,0.0,2.0,0.0,1.0,-1.0,0.2851250417412532,-0.0042288213643592,3
831,1776697178008775016,1776697178008,False,-0.0792739111565821,0.0203441093620241,0.8584471090137802,0.0032139074233802,0.0189036283704211,0.0416313030123587,0.0,0.0,2.0,0.0,1.0,-1.0,0.2853882227465549,-0.0041631303012358,3
832,1776697178098645755,1776697178098,False,-0.080195375492799,0.0196751616400099,0.8577616802951911,0.0014925590855716,0.0196595374215599,0.0425165300103747,0.0,0.0,2.0,0.0,1.0,-1.0,0.2855595799262022,-0.0042516530010374,3
833,1776697178201232701,1776697178200,False,-0.0811925575674545,0.0190297744970137,0.8567013422945766,0.0011772262779874,0.0185501491114834,0.0415411842546896,0.0,0.0,2.0,0.0,1.0,-1.0,0.2858246644263558,-0.0041541184254689,3
834,1776697178298964425,1776697178298,False,-0.0817431466377169,0.0188052267290025,0.8562530107898414,0.0029186838624025,0.0210842683709147,0.0408341620057303,0.0,0.0,2.0,0.0,1.0,-1.0,0.2859367473025396,-0.004083416200573,3
835,1776697178403958385,1776697178403,False,-0.0820905181951026,0.018810074576522,0.8557216797568261,0.0086048237175863,0.0272689905925839,0.0418995526474335,0.0,0.0,2.0,0.0,1.0,-1.0,0.2860695800607934,-0.0041899552647433,3
836,1776697178502125276,1776697178501,False,-0.0823346895616227,0.0188639241066684,0.8552470390119482,0.0055977844460065,0.0218710136519002,0.0408521719033147,0.0,0.0,2.0,0.0,1.0,-1.0,0.2861882402470129,-0.0040852171903314,3
837,1776697178601860098,1776697178601,False,-0.0825074495876586,0.0190927273211863,0.8545396865980966,0.002668569771747,0.0194777774941525,0.0410419986089941,0.0,0.0,2.0,0.0,1.0,-1.0,0.2863650783504758,-0.0041041998608994,3
838,1776697178704267090,1776697178704,False,-0.0823753165652624,0.0191878229988485,0.8543820593900727,0.0091145216037713,0.0252282487744977,0.0411602166979893,0.0,0.0,2.0,0.0,1.0,-1.0,0.2864044851524818,-0.0041160216697989,3
839,1776697178803137314,1776697178802,False,-0.0811035701704451,0.0181818452147202,0.8569543450986978,0.0300247643500181,0.0395331175725761,0.0394775720222132,0.0,0.0,2.0,0.0,1.0,-1.0,0.2857614137253255,-0.0039477572022213,3
840,1776697178901190312,1776697178901,False,-0.077222729221982,0.0143960505250127,0.8635782582093293,0.049362345542308,0.0558597011015604,0.0395130808087204,0.0,0.0,2.0,0.0,1.0,-1.0,0.2841054354476676,-0.003951308080872,3
841,1776697179000974972,1776697179000,False,-0.0703831218108231,0.0075170306192979,0.8725526940914923,0.0576284854099626,0.0630197505320424,0.0397964019637799,0.0,0.0,2.0,0.0,1.0,-1.0,0.2818618264771269,-0.0039796401963779,3
842,1776697179103480835,1776697179103,False,-0.0631928093551927,0.0002801912775179,0.8800253058160289,0.052664674328114,0.0642302918250363,0.0406777629772569,0.0,0.0,2.0,0.0,1.0,-1.0,0.2799936735459928,-0.0040677762977257,3
843,1776697179202650245,1776697179202,False,-0.0484784818021405,-0.0152634405109827,0.8934381572507708,0.0559886131872296,0.0587358256989439,0.0397849736309229,0.0,0.0,2.0,0.0,1.0,-1.0,0.2766404606873073,-0.0039784973630923,3
844,1776697179306751744,1776697179306,False,-0.0333397764025174,-0.0316358495110317,0.9054177230118524,0.0492655182949225,0.0614501254559693,0.0423708969877767,0.0,0.0,2.0,0.0,1.0,-1.0,0.2736455692470368,-0.0042370896987776,3
845,1776697179410667939,1776697179410,False,-0.0135446182376808,-0.0534255509499186,0.9193295961531912,0.0502894281119337,0.054230045929244,0.0400385740685956,0.0,0.0,2.0,0.0,1.0,-1.0,0.2701676009617022,-0.0040038574068595,3
846,1776697179528202380,1776697179528,False,0.0080044720558618,-0.0771050107638735,0.9326568344346304,0.0457815776579738,0.0491936840873879,0.0405109314186976,0.0,0.0,2.0,0.0,1.0,-1.0,0.2668357913913424,-0.0040510931418697,3
847,1776697179620117113,1776697179619,False,0.0327742776401481,-0.1042019463869964,0.9461943387201622,0.0437462217445252,0.0518706808678183,0.0385872303028685,0.0,0.0,2.0,0.0,1.0,-1.0,0.2634514153199594,-0.0038587230302868,3
848,1776697179716623792,1776697179716,False,0.0614449396080232,-0.1359851512264346,0.9601979220611804,0.0470645916524926,0.052495119649101,0.0408047378299058,0.0,0.0,2.0,0.0,1.0,1.0,0.2599505194847049,-0.0040804737829905,3
849,1776697179813580125,1776697179813,False,0.0866188385908884,-0.1639693064354478,0.9711849483367522,0.0440756672295165,0.05223735495815,0.0409799392994208,0.0,0.0,2.0,0.0,1.0,1.0,0.2572037629158119,-0.0040979939299421,3
850,1776697179923912930,1776697179923,False,0.1164694111583521,-0.1958234692091141,0.983872598993315,0.0217096206765193,0.0524429968713717,0.0427599343302065,0.0,0.0,2.0,0.0,1.0,1.0,0.2540318502516712,-0.0042759934330206,3
851,1776697180026321247,1776697180026,False,0.1441690182887316,-0.2227442447307378,0.9944843646603344,-0.0160809743045741,0.055051592119117,0.041897885544494,0.0,0.0,2.0,0.0,1.0,1.0,0.2513789088349164,-0.0041897885544494,3
852,1776697180133410431,1776697180133,False,0.1782453573909637,-0.2503812773600898,1.0062191797679516,-0.0413789191299585,0.0537196946364606,0.0436640533622691,0.0,0.0,2.0,0.0,1.0,1.0,0.2484452050580121,-0.0043664053362268,3
853,1776697180227514243,1776697180227,False,0.216646524960973,-0.2725544453126262,1.018516112173617,-0.0478102182050614,0.0551998528813068,0.043661428173642,0.0,0.0,2.0,0.0,1.0,1.0,0.2453709719565957,-0.0043661428173642,3
854,1776697180336660427,1776697180336,False,0.2482537543540725,-0.2841450245799844,1.0280148031641438,-0.046552270580571,0.052208859728727,0.0439204506109053,0.0,0.0,2.0,0.0,1.0,1.0,0.242996299208964,-0.0043920450610905,3
855,1776697180430731125,1776697180430,False,0.2850024148369053,-0.2908505455744919,1.0384676370006225,-0.0451962035269142,0.0546816451427386,0.0437105393674061,0.0,0.0,2.0,0.0,-1.0,1.0,0.2403830907498443,-0.0043710539367406,3
856,1776697180536417465,1776697180536,False,0.3213851995034381,-0.2912924607031525,1.0484548482220648,-0.0461184015733045,0.0480115940374366,0.0430294018401347,0.0,0.0,2.0,0.0,-1.0,1.0,0.2378862879444838,-0.0043029401840134,3
857,1776697180604595637,1776697180604,False,0.356800062116411,-0.2864616743982702,1.0579617883787804,-0.0436487585396507,0.0168588771358833,0.0426469054995933,0.0,0.0,2.0,0.0,-1.0,1.0,0.2355095529053049,-0.0042646905499593,3
858,1776697180744115021,1776697180744,False,0.3908270383405236,-0.2767732212816848,1.0676376821959137,-0.0387761638304836,-0.0202386490449564,0.042329808049126,0.0,0.0,2.0,0.0,-1.0,1.0,0.2330905794510216,-0.0042329808049125,3
859,1776697180805213612,1776697180805,False,0.4170852142827029,-0.2640514009415039,1.0763585541690064,-0.0344735397376817,-0.0374639955087902,0.0430081110464904,0.0,0.0,2.0,0.0,-1.0,1.0,0.2309103614577484,-0.004300811104649,3
860,1776697180910115912,1776697180910,False,0.4378160189332005,-0.2477755657567357,1.08562200885496,-0.0325850083248409,-0.0443142340982029,0.0434137359105613,0.0,0.0,2.0,0.0,-1.0,1.0,0.22859449778626,-0.0043413735910561,3
861,1776697181008837892,1776697181008,False,0.4513111140100883,-0.2276837804478414,1.0947160601778911,-0.0319523098507641,-0.0461647733068307,0.0425263480167814,0.0,0.0,2.0,0.0,-1.0,1.0,0.2263209849555272,-0.0042526348016781,3
862,1776697181110513388,1776697181110,False,0.4572423255590501,-0.2058945081863151,1.1040745612229332,-0.030865632238886,-0.0377347275418886,0.0435421550012942,0.0,0.0,2.0,0.0,-1.0,1.0,0.2239813596942667,-0.0043542155001294,3
863,1776697181209679673,1776697181209,False,0.4567599237374226,-0.181751317926975,1.1126762042717455,-0.0284765862244621,-0.0349778886633862,0.0442554170703009,0.0,0.0,2.0,0.0,-1.0,1.0,0.2218309489320635,-0.0044255417070301,3
864,1776697181309461805,1776697181309,False,0.4506339710537398,-0.1557880280822232,1.1212901559485209,-0.0252408666685951,-0.0317763324552734,0.0434248745520472,0.0,0.0,2.0,0.0,-1.0,1.0,0.2196774610128697,-0.0043424874552047,3
865,1776697181411488010,1776697181411,False,0.4399454263854642,-0.1278941484043812,1.1299238840104482,-0.0283074099002234,-0.0246608404051435,0.0433454912019422,0.0,0.0,2.0,0.0,-1.0,1.0,0.2175190289973879,-0.0043345491201942,3
866,1776697181511645760,1776697181511,False,0.425245975781677,-0.0986994213584016,1.1384753134394765,-0.0313996399688278,-0.0251480363489725,0.041710991032674,0.0,0.0,2.0,0.0,-1.0,1.0,0.2153811716401308,-0.0041710991032673,3
867,1776697181607708453,1776697181607,False,0.4078448928638383,-0.0693517627545856,1.1465600767266977,-0.0256871027210489,-0.0240192823725256,0.0428261618235451,0.0,0.0,2.0,0.0,-1.0,1.0,0.2133599808183255,-0.0042826161823545,3
868,1776697181709907446,1776697181709,False,0.3856751428423067,-0.0365059024315706,1.1553113197074478,-0.0225269396050271,-0.0200043414416456,0.0426323446947372,0.0,0.0,2.0,0.0,-1.0,1.0,0.211172170073138,-0.0042632344694737,3
869,1776697181809285006,1776697181809,False,0.3617118356597368,-0.0039359291366435,1.1635615376202215,-0.0191680092799597,-0.0197293364132006,0.043256942155938,0.0,0.0,2.0,0.0,-1.0,1.0,0.2091096155949446,-0.0043256942155938,3
870,1776697181909012985,1776697181908,False,0.3351255496570389,0.0291356186107581,1.1722966107463275,-0.0223528588347582,-0.0166570919192776,0.0415529858635849,0.0,0.0,2.0,0.0,-1.0,1.0,0.206925847313418,-0.0041552985863584,3
871,1776697182009312507,1776697182009,False,0.3065406194676188,0.062756328711669,1.1815354688179245,-0.0231198097869464,-0.0129679013357623,0.0438601818722916,0.0,0.0,2.0,0.0,-1.0,1.0,0.2046161327955188,-0.0043860181872291,3
872,1776697182108634324,1776697182108,False,0.2764658439507163,0.0973922412537314,1.191495595232563,-0.027179307257355,-0.013673773227526,0.0433860394539384,0.0,0.0,2.0,0.0,-1.0,1.0,0.2021261011918592,-0.0043386039453938,3
873,1776697182209931693,1776697182209,False,0.2459978261386493,0.131275145054888,1.2009794698765943,-0.0223159766206128,-0.0142806624760012,0.0429759310882899,0.0,0.0,2.0,0.0,-1.0,1.0,0.1997551325308513,-0.0042975931088289,3
874,1776697182313794264,1776697182313,False,0.2105896099240558,0.1703939498785006,1.211693805088509,-0.0288902169258312,-0.0132948754145578,0.0418973800769116,0.0,0.0,2.0,0.0,-1.0,1.0,0.1970765487278727,-0.0041897380076911,3
875,1776697182410402575,1776697182410,False,0.177666669465288,0.2058486942125347,1.2209784639759105,-0.027818241546224,-0.0119037999004112,0.0429002361112828,0.0,0.0,2.0,0.0,-1.0,1.0,0.1947553840060224,-0.0042900236111282,3
876,1776697182513376288,1776697182513,False,0.140978467056712,0.2451636871298115,1.230941109478728,-0.0263006245693942,-0.0092383513555017,0.0425902892291801,0.0,0.0,2.0,0.0,-1.0,1.0,0.192264722630318,-0.004259028922918,3
877,1776697182613888522,1776697182613,False,0.104719255748837,0.2838752633476858,1.2406687861911148,-0.026274154800002,-0.0103094873561281,0.0409742534741989,0.0,0.0,2.0,0.0,-1.0,1.0,0.1898328034522213,-0.0040974253474198,3
878,1776697182712140933,1776697182711,False,0.0691922330987193,0.3218040139795333,1.2498071355895044,-0.0197685920199822,-0.0048947405148682,0.0421805367155544,0.0,0.0,2.0,0.0,-1.0,1.0,0.1875482161026239,-0.0042180536715554,3
879,1776697182812653193,1776697182812,False,0.0301368386540714,0.363295621537482,1.2595275238710872,-0.0241148304505724,-0.0054301801442842,0.0426806285531365,0.0,0.0,2.0,0.0,-1.0,1.0,0.1851181190322282,-0.0042680628553136,3
880,1776697182912996979,1776697182912,False,-0.0078298157172183,0.4034925058002667,1.268283899005099,-0.0252223787996422,-0.0052765112870258,0.0415692170036568,0.0,0.0,2.0,0.0,-1.0,1.0,0.1829290252487252,-0.0041569217003656,3
881,1776697183012677138,1776697183012,False,-0.046136949203571,0.4441276881299051,1.2770300038330662,-0.0220312327369884,-0.0013835787153055,0.042399455493176,0.0,0.0,2.0,0.0,-1.0,1.0,0.1807424990417334,-0.0042399455493176,3
882,1776697183112741105,1776697183112,False,-0.084719226265914,0.4849698618165889,1.285626367053737,-0.0212519758529526,-0.0022717456827493,0.0418161429075968,0.0,0.0,2.0,0.0,-1.0,1.0,0.1785934082365657,-0.0041816142907596,3
883,1776697183212687714,1776697183212,False,-0.1233847338517238,0.5260275393261709,1.2940632296399408,-0.0215700776823423,-0.0005973562186865,0.0424932603747507,0.0,0.0,2.0,0.0,-1.0,1.0,0.1764841925900148,-0.004249326037475,3
884,1776697183312681873,1776697183312,False,-0.1623949510636758,0.5672114110538036,1.3025361556335626,-0.019649175943573,-0.0003196365821264,0.0427383276392511,0.0,0.0,2.0,0.0,-1.0,1.0,0.1743659610916093,-0.0042738327639251,3
885,1776697183412648894,1776697183412,False,-0.2014708698441011,0.6087526530867083,1.3106499179415725,-0.0209690450219819,-0.0020653768417673,0.0460183431678466,0.0,0.0,2.0,0.0,-1.0,-1.0,0.1723375205146069,-0.0046018343167846,3
886,1776697183512803069,1776697183512,False,-0.240971864224042,0.6502851389866994,1.318517142872131,-0.012005368360947,-0.0024790647263977,0.0429221896522843,0.0,0.0,2.0,0.0,-1.0,-1.0,0.1703707142819672,-0.0042922189652284,3
887,1776697183613113745,1776697183612,False,-0.2810318515728088,0.6894441193022037,1.325711620405556,0.0304849550411834,-0.0022676474777739,0.0442163387161391,0.0,0.0,2.0,0.0,-1.0,-1.0,0.168572094898611,-0.0044216338716139,3
888,1776697183712744184,1776697183712,False,-0.3214209965032071,0.7238770578339322,1.332675617196944,0.0700938582754901,-0.0040903896728383,0.0416089640954194,0.0,0.0,2.0,0.0,-1.0,-1.0,0.166831095700764,-0.0041608964095419,3
889,1776697183812606865,1776697183812,False,-0.3619774230411113,0.7517198295181425,1.3393698871616473,0.0878476659522483,-0.0010851326070969,0.0436830251749396,0.0,0.0,2.0,0.0,-1.0,-1.0,0.1651575282095881,-0.0043683025174939,3
890,1776697183915999036,1776697183916,False,-0.4047588551706861,0.7709810109036624,1.3462460237027494,0.0870583192979087,-0.0001182009190309,0.0418198050840788,0.0,0.0,2.0,0.0,-1.0,-1.0,0.1634384940743126,-0.0041819805084078,3
891,1776697184014570810,1776697184014,False,-0.4444220277034219,0.7802362367787549,1.3523991694376571,0.0874766046408305,0.0023887903593545,0.0422538570381948,0.0,0.0,2.0,0.0,-1.0,-1.0,0.1619002076405857,-0.0042253857038194,3
892,1776697184130750050,1776697184130,False,-0.4755738334093179,0.7818655076282107,1.3573362499718138,0.0823980531445944,0.0016119671468827,0.0397978763976622,0.0,0.0,2.0,0.0,-1.0,-1.0,0.1606659375070465,-0.0039797876397662,3
893,1776697184218280393,1776697184218,False,-0.518200261977961,0.7770461318474761,1.363582060450585,0.0737685014477338,-0.0002215093115399,0.0418552756863735,0.0,0.0,2.0,0.0,-1.0,-1.0,0.1591044848873537,-0.0041855275686373,3
894,1776697184321922612,1776697184321,False,-0.5609233766263343,0.7648917824220796,1.3702251543732693,0.0707326740552538,-0.003267513359918,0.0407463610780673,0.0,0.0,2.0,0.0,-1.0,-1.0,0.1574437114066826,-0.0040746361078067,3
895,1776697184421071267,1776697184420,False,-0.6020376409705961,0.747125018333717,1.3766566443169743,0.0658090523251698,-0.0075306827711552,0.0413501900266451,0.0,0.0,2.0,0.0,-1.0,-1.0,0.1558358389207563,-0.0041350190026645,3
896,1776697184525642414,1776697184525,False,-0.6449764042392077,0.7232774892313673,1.3835832730381228,0.0615795331205883,-0.003021959997771,0.0445942071303522,0.0,0.0,2.0,0.0,-1.0,-1.0,0.1541041817404693,-0.0044594207130352,3
897,1776697184627813636,1776697184627,False,-0.6867983210155146,0.6957834490903223,1.3900386202243349,0.0515533336551505,-0.010958254032924,0.0392936478166062,0.0,0.0,2.0,0.0,-1.0,-1.0,0.1524903449439163,-0.0039293647816606,3
898,1776697184732160978,1776697184731,False,-0.7304109752627852,0.6635092959858173,1.3958649742319038,0.0508223966556298,-0.0042695413074758,0.0436354714480473,0.0,0.0,2.0,0.0,-1.0,-1.0,0.151033756442024,-0.0043635471448047,3
899,1776697184833181895,1776697184832,False,-0.7743038133710306,0.6282017017449291,1.401419975057732,0.0496039875565148,-0.0029225087023824,0.0431237303358574,0.0,0.0,2.0,0.0,-1.0,-1.0,0.1496450062355669,-0.0043123730335857,3
900,1776697184933907963,1776697184933,False,-0.8169442691965847,0.5914540656030661,1.4066168466595312,0.0427502378095206,-0.0046780183103471,0.0427994358182677,0.0,0.0,2.0,0.0,1.0,-1.0,0.1483457883351172,-0.0042799435818267,3
901,1776697185037866757,1776697185037,False,-0.8613668016134812,0.5510163596273718,1.412043684457703,0.0482104647511918,0.0061615089217033,0.0452329188755411,0.0,0.0,2.0,0.0,1.0,-1.0,0.1469890788855742,-0.0045232918875541,3
902,1776697185141560057,1776697185141,False,-0.902047489150474,0.5103614395285716,1.4168418795467153,0.0422785669907788,0.0375239015895193,0.0431151178575998,0.0,0.0,2.0,0.0,1.0,-1.0,0.1457895301133212,-0.0043115117857599,3
903,1776697185242507624,1776697185242,False,-0.939751875401806,0.4664130494702946,1.4209845745290215,0.0400321465455917,0.0834832531291285,0.0405373474685918,0.0,0.0,2.0,0.0,1.0,-1.0,0.1447538563677446,-0.0040537347468591,3
904,1776697185315710748,1776697185315,False,-0.969477434478252,0.4226680174235884,1.4241881952397883,0.037922926937975,0.1038713974062242,0.0403418426939551,0.0,0.0,2.0,0.0,1.0,-1.0,0.1439529511900529,-0.0040341842693955,3
905,1776697185416395607,1776697185415,False,-0.9903869709339086,0.3776687063504238,1.4270251446037705,0.0405698623545693,0.1098365087943433,0.0402283074043421,0.0,0.0,2.0,0.0,1.0,-1.0,0.1432437138490573,-0.0040228307404342,3
906,1776697185516688944,1776697185515,False,-1.002237571701964,0.3316601509995581,1.4297563338630082,0.0380669317796109,0.1092383378326017,0.0405757289618495,0.0,0.0,2.0,0.0,1.0,-1.0,0.1425609165342479,-0.0040575728961849,3
907,1776697185616647649,1776697185616,False,-1.0053879426163024,0.2844608637181861,1.432188727814879,0.0347014436505552,0.1040529924561522,0.0418309852540964,0.0,0.0,2.0,0.0,1.0,-1.0,0.1419528180462802,-0.0041830985254096,3
908,1776697185716924879,1776697185716,False,-1.0002999961527532,0.2363085484384126,1.4344318645640168,0.0386341113501953,0.104522472363893,0.0405922786418251,0.0,0.0,2.0,0.0,1.0,-1.0,0.1413920338589958,-0.0040592278641825,3
909,1776697185820252868,1776697185820,False,-0.9873379826951032,0.1853251633381913,1.4368980274683922,0.0326029910176053,0.0976198387578935,0.0408640487194965,0.0,0.0,2.0,0.0,1.0,-1.0,0.1407754931329019,-0.0040864048719496,3
910,1776697185920999479,1776697185920,False,-0.9683443700414526,0.1358322689873627,1.4388006377475304,0.0343672334338718,0.0929899966658621,0.0413410588407536,0.0,0.0,2.0,0.0,1.0,-1.0,0.1402998405631174,-0.0041341058840753,3
911,1776697186020422985,1776697186020,False,-0.943719457815237,0.0858019323567275,1.441305492239361,0.033978682310111,0.0819558148916558,0.040758104031381,0.0,0.0,2.0,0.0,1.0,-1.0,0.1396736269401597,-0.0040758104031381,3
912,1776697186121015433,1776697186120,False,-0.9143770744071822,0.035783645055293,1.443507334955602,0.0341259678004363,0.0787337550511293,0.0408538040808227,0.0,0.0,2.0,0.0,1.0,-1.0,0.1391231662610995,-0.0040853804080822,3
913,1776697186220764411,1776697186220,False,-0.8812713578197502,-0.0145668890461021,1.445912484234827,0.036345421987775,0.0731750922791733,0.0418820449679315,0.0,0.0,2.0,0.0,1.0,-1.0,0.1385218789412932,-0.0041882044967931,3
914,1776697186317557154,1776697186317,False,-0.8463446212180523,-0.0629924954875157,1.447849494353033,0.0362475451751178,0.0693033300614122,0.0415330600889408,0.0,0.0,2.0,0.0,1.0,-1.0,0.1380376264117418,-0.004153306008894,3
915,1776697186420768158,1776697186420,False,-0.805765732256835,-0.1158047547203291,1.450030762401719,0.0381722958861127,0.070253121274397,0.0410000473823059,0.0,0.0,2.0,0.0,1.0,-1.0,0.1374923093995702,-0.0041000047382306,3
916,1776697186521066116,1776697186520,False,-0.7640617195870686,-0.16704304485936,1.451944457344777,0.0357018841904672,0.0667888334084579,0.0422426726929501,0.0,0.0,2.0,0.0,1.0,-1.0,0.1370138856638057,-0.004224267269295,3
917,1776697186621367043,1776697186621,False,-0.7203587861616292,-0.2183277757873055,1.4539744490054336,0.0361341048842494,0.0676299782118025,0.040081788509309,0.0,0.0,2.0,0.0,1.0,-1.0,0.1365063877486416,-0.0040081788509309,3
918,1776697186721193679,1776697186720,False,-0.6747781064950177,-0.2698421485453695,1.455816500958224,0.0380317801222938,0.0625396578913264,0.0411217454327031,0.0,0.0,2.0,0.0,1.0,-1.0,0.136045874760444,-0.0041121745432703,3
919,1776697186820760057,1776697186820,False,-0.6274224050350057,-0.3216394701189917,1.4575197474228103,0.0369161118921285,0.0658638781253427,0.0413078522116585,0.0,0.0,2.0,0.0,1.0,-1.0,0.1356200631442973,-0.0041307852211658,3
920,1776697186921754734,1776697186921,False,-0.57901385932095,-0.3735192201557814,1.459594140972731,0.0375944341286042,0.0599047134698985,0.0413967833699844,0.0,0.0,2.0,0.0,1.0,-1.0,0.1351014647568171,-0.0041396783369984,3
921,1776697187024311495,1776697187024,False,-0.5295686661570655,-0.4252622547357741,1.46216962479044,0.0425559147147956,0.059154272691949,0.0420116557244761,0.0,0.0,2.0,0.0,1.0,-1.0,0.1344575938023899,-0.0042011655724476,3
922,1776697187120401382,1776697187120,False,-0.4791213299583334,-0.4771254462357872,1.4648186847663345,0.0387610062290921,0.0619454627142392,0.0416148561651197,0.0,0.0,2.0,0.0,1.0,-1.0,0.1337953288084163,-0.0041614856165119,3
923,1776697187221032054,1776697187220,False,-0.4281053647260102,-0.52907277270154,1.4676141046978604,0.0388268933552485,0.0604107214043183,0.0418513138125416,0.0,0.0,2.0,0.0,1.0,-1.0,0.1330964738255349,-0.0041851313812541,3
924,1776697187319579299,1776697187319,False,-0.3786885978013201,-0.5791101192100021,1.4712058525362168,0.0424112709234799,0.0645272557972933,0.0430148507548395,0.0,0.0,2.0,0.0,1.0,-1.0,0.1321985368659458,-0.0043014850754839,3
925,1776697187420980126,1776697187420,False,-0.3248127440143162,-0.6330998036563575,1.475428043706452,0.0401311179161875,0.058683886577727,0.042094568130891,0.0,0.0,2.0,0.0,1.0,-1.0,0.131142989073387,-0.004209456813089,3
926,1776697187531065056,1776697187531,False,-0.2998377151702304,-0.6579869566363656,1.4776859267393854,0.0383287449714119,0.0547511570961772,0.0407684170229712,0.0,0.0,2.0,0.0,1.0,-1.0,0.1305785183151536,-0.0040768417022971,3
927,1776697187622401434,1776697187622,False,-0.2204028665466574,-0.7369952779165242,1.4853100908120822,0.0368737873961156,0.0584617865773342,0.0408711538141585,0.0,0.0,2.0,0.0,1.0,-1.0,0.1286724772969794,-0.0040871153814158,3
928,1776697187721054339,1776697187720,False,-0.1679909056148816,-0.7891410379743556,1.4904764608081835,0.040724375888713,0.0607592577675076,0.0380238350535897,0.0,0.0,2.0,0.0,1.0,-1.0,0.127380884797954,-0.0038023835053589,3
929,1776697187820118606,1776697187819,False,-0.115694728569279,-0.8414974768556859,1.495231881492204,0.039952908807845,0.0603980261632228,0.0396378259649882,0.0,0.0,2.0,0.0,1.0,-1.0,0.126192029626949,-0.0039637825964988,3
930,1776697187920709552,1776697187920,False,-0.0627012259199253,-0.8936477921579327,1.4998948198310054,0.0344582842407113,0.0576743570057144,0.0415066863740391,0.0,0.0,2.0,0.0,1.0,-1.0,0.1250262950422486,-0.0041506686374038,3
931,1776697188020941366,1776697188020,False,-0.0092580581283819,-0.9457770661041554,1.5043672181283472,0.0340259692915298,0.0548536607452828,0.0409830627095254,0.0,0.0,2.0,0.0,1.0,-1.0,0.1239081954679132,-0.0040983062709525,3
932,1776697188124194872,1776697188124,False,0.0465737260547864,-0.9995645583127656,1.5087025774884222,0.0337687336872478,0.0547869806398952,0.040932447097374,0.0,0.0,2.0,0.0,1.0,-1.0,0.1228243556278944,-0.0040932447097373,3
933,1776697188224495124,1776697188224,False,0.100338229296346,-1.0513270931470649,1.5128102774298748,0.0366472443033344,0.050779179968645,0.0414356880425431,0.0,0.0,2.0,0.0,1.0,-1.0,0.1217974306425312,-0.0041435688042543,3
934,1776697188324053220,1776697188323,False,0.1538369107629393,-1.1030927006242908,1.5165521264804114,0.0375250170918026,0.0525663811714613,0.0400707061298909,0.0,0.0,2.0,0.0,1.0,-1.0,0.1208619683798971,-0.0040070706129891,3
935,1776697188423971748,1776697188423,False,0.194243464256135,-1.1425370231661298,1.5194372213436498,0.0451771456647106,0.0559310322946752,0.0421280480238534,0.0,0.0,2.0,0.0,1.0,-1.0,0.1201406946640875,-0.0042128048023853,3
936,1776697188521707368,1776697188521,False,0.2582367487637879,-1.2058978409647103,1.5239525430168204,0.0375258456300411,0.0620687584001032,0.0422418163014161,0.0,0.0,2.0,0.0,1.0,-1.0,0.1190118642457949,-0.0042241816301415,3
937,1776697188645207421,1776697188645,False,0.2986888646004952,-1.2463333490529878,1.5269789703570973,0.0361874587426514,0.0644982782138501,0.0437559805789899,0.0,0.0,2.0,0.0,1.0,1.0,0.1182552574107256,-0.0043755980578989,3
938,1776697188727398218,1776697188727,False,0.3519500098469605,-1.299433198274038,1.5306839695272605,0.0312872586671188,0.0642499168772673,0.0431424963340866,0.0,0.0,2.0,0.0,1.0,1.0,0.1173290076181849,-0.0043142496334086,3
939,1776697188830091227,1776697188829,False,0.4078373186455034,-1.3530443423871672,1.5353370916665776,0.0034895329976102,0.0631401291936681,0.044186379427295,0.0,0.0,2.0,0.0,1.0,1.0,0.1161657270833556,-0.0044186379427295,3
940,1776697188931905396,1776697188931,False,0.4644580017482753,-1.4019700404741229,1.540300634369537,-0.0453662446596549,0.0592722767943681,0.0468186162579597,0.0,0.0,2.0,0.0,1.0,1.0,0.1149248414076158,-0.0046818616257959,3
941,1776697189031165660,1776697189030,False,0.5195395102691965,-1.4419767374740031,1.5452681260049317,-0.0724675385583363,0.0596770900191852,0.0451100842905092,0.0,0.0,2.0,0.0,1.0,1.0,0.1136829684987671,-0.0045110084290509,3
942,1776697189136145138,1776697189135,False,0.5772490628376569,-1.4740015392496926,1.5499783538929894,-0.0697617117963047,0.063599281318942,0.0473656163352783,0.0,0.0,2.0,0.0,1.0,1.0,0.1125054115267526,-0.0047365616335278,3
943,1776697189248631022,1776697189248,False,0.6327651434247081,-1.4948571923922052,1.5547501337240923,-0.0745539370938191,0.0629042284599072,0.0511884668598389,0.0,0.0,2.0,0.0,1.0,1.0,0.1113124665689768,-0.0051188466859839,3
944,1776697189339447754,1776697189339,False,0.6908128775529332,-1.5064681527397317,1.5595013849722794,-0.0768510672333717,0.0590395888931293,0.0513778376140678,0.0,0.0,2.0,0.0,1.0,1.0,0.1101246537569301,-0.0051377837614067,3
945,1776697189456996117,1776697189456,False,0.7534435929510246,-1.5079065573807824,1.564112960038236,-0.0696954128818033,0.0567189399734261,0.0495880150855954,0.0,0.0,2.0,0.0,1.0,1.0,0.108971759990441,-0.0049588015085595,3
946,1776697189541483865,1776697189541,False,0.8047557246739366,-1.5015173561235533,1.5681210434068862,-0.0631379107072803,0.0562568325085653,0.0478424454317348,0.0,0.0,2.0,0.0,1.0,1.0,0.1079697391482784,-0.0047842445431734,3
947,1776697189664564359,1776697189664,False,0.8629053804939338,-1.4867816272916146,1.5726788841118486,-0.0603889080943943,0.058593313715693,0.0484825256951171,0.0,0.0,2.0,0.0,1.0,1.0,0.1068302789720378,-0.0048482525695117,3
948,1776697189748388653,1776697189748,False,0.9190501424101576,-1.4662018708982858,1.5762889824888155,-0.0478818825700679,0.0571277191046062,0.0463149081109801,0.0,0.0,2.0,0.0,1.0,1.0,0.1059277543777961,-0.0046314908110979,3
949,1776697189851595147,1776697189851,False,0.9774924552897618,-1.4391319246450796,1.5789567742712272,-0.0326617494585096,0.0507470802662115,0.0459873999165291,0.0,0.0,2.0,0.0,1.0,1.0,0.1052608064321932,-0.0045987399916529,3
950,1776697189924584056,1776697189924,False,1.033070996934126,-1.4091788002183927,1.580683689731473,-0.0253779778359745,0.0533334226075193,0.0484669601750611,0.0,0.0,2.0,0.0,1.0,1.0,0.1048290775671316,-0.0048466960175061,3
951,1776697190024582294,1776697190024,False,1.0883372706551624,-1.3763256919053224,1.5821265226946448,-0.0340050700380116,0.0543358512250088,0.0496536037994755,0.0,0.0,2.0,0.0,1.0,1.0,0.1044683693263388,-0.0049653603799475,3
952,1776697190124221066,1776697190124,False,1.1433173877578138,-1.3410030092362402,1.5833021861481766,-0.0334143691045736,0.0611617147307294,0.0467334559678082,0.0,0.0,2.0,0.0,1.0,1.0,0.1041744534629558,-0.0046733455967808,3
953,1776697190226461247,1776697190226,False,1.198448328854917,-1.3037335409656876,1.5853326022642873,-0.027588339266462,0.0677191388700733,0.0487819272191387,0.0,0.0,2.0,0.0,1.0,1.0,0.1036668494339281,-0.0048781927219138,3
954,1776697190325287212,1776697190324,False,1.2537907718283918,-1.2645732011327122,1.5875202585059591,-0.0264768865986058,0.0664429766510948,0.0487109828358765,0.0,0.0,2.0,0.0,1.0,1.0,0.1031199353735101,-0.0048710982835876,3
955,1776697190424912631,1776697190424,False,1.309393407420938,-1.2241635151209018,1.5902102517226846,-0.0251671788322799,0.0605972851086459,0.0463812751063727,0.0,0.0,2.0,0.0,1.0,1.0,0.1024474370693288,-0.0046381275106372,3
956,1776697190528793448,1776697190528,False,1.3677288669342684,-1.1808900745373123,1.5928589678715632,-0.0250367099216615,0.0693028255557556,0.047132751214009,0.0,0.0,2.0,0.0,1.0,1.0,0.1017852580321092,-0.0047132751214009,3
957,1776697190628955131,1776697190628,False,1.4244090559900615,-1.138103172891749,1.595394932144539,-0.0296506157130608,0.0657829439125197,0.050172882976415,0.0,0.0,2.0,0.0,1.0,1.0,0.1011512669638652,-0.0050172882976414,3
958,1776697190728877988,1776697190728,False,1.4814795076871352,-1.0941281477492004,1.5979310191086729,-0.0262755446841898,0.0649633487776727,0.0481758106469418,0.0,0.0,2.0,0.0,1.0,1.0,0.1005172452228317,-0.0048175810646941,3
959,1776697190829171203,1776697190828,False,1.5389096102359068,-1.0489642952433988,1.6010860678403969,-0.0303742554049516,0.0659004943004311,0.0499853477726345,0.0,0.0,2.0,0.0,1.0,1.0,0.0997284830399007,-0.0049985347772634,3
960,1776697190928520283,1776697190928,False,1.5963471369436653,-1.00256177184901,1.6045379358257477,-0.0253561383651603,0.0634372064054527,0.0503165161891785,0.0,0.0,2.0,0.0,1.0,1.0,0.098865516043563,-0.0050316516189178,3
961,1776697191028981484,1776697191028,False,1.653595509043866,-0.9550090780159444,1.6083494864760088,-0.0243192904288561,0.0637009510961339,0.0504108837524651,0.0,0.0,2.0,0.0,-1.0,1.0,0.0979126283809977,-0.0050410883752465,3
962,1776697191128620814,1776697191128,False,1.7106737985643976,-0.9067337599188544,1.6118706480949012,-0.0255495496860421,0.0490083688533103,0.0472701078016955,0.0,0.0,2.0,0.0,-1.0,1.0,0.0970323379762747,-0.0047270107801695,3
963,1776697191228741636,1776697191228,False,1.764605185269143,-0.8577689874999811,1.6149401495269171,-0.0203650727839676,0.0096433092633038,0.0483003142546593,0.0,0.0,2.0,0.0,-1.0,1.0,0.0962649626182706,-0.0048300314254659,3
964,1776697191329178754,1776697191328,False,1.811709400922712,-0.8101255789791406,1.6176908118227642,-0.0204977992982453,-0.0212156695091205,0.0222561008131898,0.0,0.0,2.0,0.0,-1.0,1.0,0.0955772970443089,-0.0022256100813189,3
965,1776697191429491234,1776697191429,False,1.8403356668936972,-0.7719438623871591,1.6188684762173684,-0.0422854107831974,-0.0195077145364576,-0.1886037104620067,0.0,0.0,2.0,0.0,-1.0,1.0,0.0952828809456579,0.0188603710462006,3
966,1776697191528405025,1776697191527,False,1.851052764257077,-0.7396890665870426,1.6205750666658227,-0.1037117139312523,-0.0013403490407358,-0.4717890409310779,0.0,0.0,2.0,0.0,-1.0,1.0,0.0948562333335443,0.0471789040931077,3
967,1776697191628761551,1776697191628,False,1.8531207534651808,-0.7079002506445659,1.6208775299993683,-0.1270774973591303,0.0272214622408161,-0.7749168224377829,0.0,0.0,2.0,0.0,-1.0,1.0,0.0947806175001579,0.0774916822437783,3
968,1776697191728909075,1776697191728,False,1.8507343916169536,-0.6726214314486432,1.6181320384721063,-0.1133214213924364,0.031931677253635,-1.032277732913753,0.0,0.0,2.0,0.0,-1.0,1.0,0.0954669903819734,0.1032277732913753,3
969,1776697191828259477,1776697191828,False,1.84734664503054,-0.6342280664489929,1.6148103401139111,-0.0859615145957686,0.0562359455598903,-1.261214506851179,0.0,0.0,2.0,0.0,-1.0,-1.0,0.0962974149715221,0.1261214506851178,3
970,1776697191928153528,1776697191927,False,1.8448592857945705,-0.5928322997665769,1.611999515140358,-0.0729886910817152,0.0801341631009387,-1.4680120179380391,0.0,0.0,2.0,0.0,-1.0,-1.0,0.0970001212149105,0.1468012017938039,3
971,1776697192028624307,1776697192028,False,1.843528298994567,-0.5509064155282911,1.6085390216220234,-0.0652447932193811,0.0646346870279264,-1.6711570994053568,0.0,0.0,2.0,0.0,-1.0,-1.0,0.0978652445944941,0.1671157099405357,3
972,1776697192131643331,1776697192131,False,1.844012713122422,-0.5087672656915895,1.6037464869481264,-0.0794804907351929,0.0650298297711028,-1.9154662909368303,0.0,0.0,2.0,0.0,-1.0,-1.0,0.0990633782629684,0.191546629093683,3
973,1776697192228501795,1776697192228,False,1.847450364216524,-0.4719321699768474,1.59994967936598,-0.09635635582857,0.0656884758065291,-2.268576699584821,0.0,0.0,2.0,0.0,-1.0,-1.0,0.100012580158505,0.2268576699584821,3
974,1776697192328729998,1776697192328,False,1.856233864617776,-0.4355491388482553,1.598781556154482,-0.0742852775545527,0.1082065519179505,-2.726574908371637,0.0,0.0,2.0,0.0,1.0,-1.0,0.1003046109613794,0.2726574908371637,3
975,1776697192432387917,1776697192432,False,1.8666177017776968,-0.4016955734119685,1.5969413278480582,-0.0414964953215777,0.1005694063667411,3.111542191577733,0.0,0.0,2.0,0.0,1.0,-1.0,0.1007646680379854,-0.3111542191577733,3
976,1776697192532092928,1776697192531,False,1.8772672216903623,-0.3752512166096455,1.593527539655034,-0.048458625662326,0.0466544200962192,2.7226335510972404,0.0,0.0,2.0,0.0,1.0,-1.0,0.1016181150862415,-0.272263355109724,3
977,1776697192633639237,1776697192633,False,1.8828960289591687,-0.3637194418404545,1.591124615455192,-0.0902950011262146,0.0175054765359556,2.526646648306578,0.0,0.0,2.0,0.0,1.0,-1.0,0.102218846136202,-0.2526646648306578,3
978,1776697192732558839,1776697192732,False,1.8904803043805425,-0.3469427908711643,1.5894259112871625,-0.1176255113884641,0.0127534361612887,2.265587433832325,0.0,0.0,2.0,0.0,1.0,-1.0,0.1026435221782093,-0.2265587433832325,3
979,1776697192832343883,1776697192832,False,1.8858895149181212,-0.345968539785513,1.5900546523059225,-0.1086500009311548,0.0150683846313985,2.300467826082369,0.0,0.0,2.0,0.0,1.0,-1.0,0.1024863369235193,-0.2300467826082369,3
980,1776697192932423931,1776697192932,False,1.875580305734332,-0.3482334665929822,1.589319733284614,-0.126635446942036,0.0320938100200151,2.4175240168967846,0.0,0.0,2.0,0.0,1.0,-1.0,0.1026700666788464,-0.2417524016896785,3
981,1776697193033479230,1776697193033,False,1.8658322359572588,-0.350299427376581,1.5882828359120114,-0.1374911535707098,0.0384934393560724,2.5098979515521456,0.0,0.0,2.0,0.0,1.0,-1.0,0.1029292910219971,-0.2509897951552146,3
982,1776697193132415586,1776697193132,False,1.8438976458429872,-0.3551157218532884,1.588647304698648,-0.1508597406995968,0.04517493516844,2.655678399628948,0.0,0.0,2.0,0.0,1.0,-1.0,0.102838173825338,-0.2655678399628948,3
983,1776697193234217362,1776697193233,False,1.8327502969503264,-0.3583566138118505,1.589327882082518,-0.1386157959155154,0.0395699948440819,2.723783779723029,0.0,0.0,2.0,0.0,1.0,-1.0,0.1026680294793705,-0.2723783779723029,3
984,1776697193337782385,1776697193337,False,1.8160564622338984,-0.3644272946259399,1.5897128695810938,-0.1369605553549206,0.0303751689974295,2.805324771733204,0.0,0.0,2.0,0.0,1.0,-1.0,0.1025717826047265,-0.2805324771733203,3
985,1776697193438376826,1776697193438,False,1.807681459631884,-0.3677048221410079,1.589809951576066,-0.1448228170035761,0.0247204743687976,2.845758404912325,0.0,0.0,2.0,0.0,1.0,-1.0,0.1025475121059835,-0.2845758404912325,3
986,1776697193537469428,1776697193537,False,1.798018652571728,-0.3707942518071178,1.5901555719013674,-0.1431150725216116,0.0136287938077084,2.880464015803834,0.0,0.0,2.0,0.0,1.0,-1.0,0.1024611070246581,-0.2880464015803834,3
987,1776697193642391525,1776697193642,False,1.7900301289150635,-0.3730322390852306,1.591081433124067,-0.1264376598204254,0.0115659985683912,2.9041314201397297,0.0,0.0,2.0,0.0,1.0,-1.0,0.1022296417189832,-0.290413142013973,3
988,1776697193742908554,1776697193742,False,1.7829384858727613,-0.3742510715909352,1.5915661666934224,-0.1305295238112195,0.0028138379490218,2.9191357592425997,0.0,0.0,2.0,0.0,1.0,-1.0,0.1021084583266443,-0.2919135759242599,3
989,1776697193843843663,1776697193843,False,1.7770182912967896,-0.3749326620742578,1.592038913256394,-0.1328692222250095,0.0001914215858359,2.9272030354148693,0.0,0.0,2.0,0.0,1.0,-1.0,0.1019902716859014,-0.2927203035414869,3
990,1776697193946373699,1776697193946,False,1.7712223529757407,-0.3758243932726577,1.5922812426072035,-0.1330083284871553,0.0019915828848222,2.929241563713916,0.0,0.0,2.0,0.0,1.0,-1.0,0.1019296893481991,-0.2929241563713916,3
991,1776697194049174983,1776697194048,False,1.7597573545213157,-0.3788528380771101,1.5922762171080982,-0.135123786199413,-0.0004445659543362,2.985993018727801,0.0,0.0,2.0,0.0,1.0,-1.0,0.1019309457229754,-0.2985993018727801,3
992,1776697194152111474,1776697194151,False,1.741444168330788,-0.3877816255319012,1.5934931692941865,-0.1294930369387721,-0.0141892714600126,3.066502924530456,0.0,0.0,2.0,0.0,1.0,-1.0,0.1016267076764534,-0.3066502924530456,3
993,1776697194256026055,1776697194255,False,1.7230668276512977,-0.4005377272261662,1.5949158072349323,-0.1273669934684803,-0.0008594562883722,3.1057491916132483,0.0,0.0,2.0,0.0,1.0,-1.0,0.1012710481912669,-0.3105749191613248,3
994,1776697194362660200,1776697194362,False,1.705784642278526,-0.4092710659729722,1.5942735601366644,-0.1525857370858662,-0.0159037564629955,-3.0912359394715847,0.0,0.0,2.0,0.0,1.0,-1.0,0.1014316099658338,0.3091235939471584,3
995,1776697194460220444,1776697194459,False,1.6945933821402297,-0.4141479080183983,1.5949585449664754,-0.1440303012160004,-0.0170508047124309,-3.031261558718114,0.0,0.0,2.0,0.0,1.0,-1.0,0.1012603637583811,0.3031261558718114,3
996,1776697194562698175,1776697194562,False,1.6882507597207714,-0.4168572964255933,1.5962425573304917,-0.1296344131594214,-0.0226967854969012,-2.98712737408258,0.0,0.0,2.0,0.0,1.0,-1.0,0.1009393606673771,0.2987127374082579,3
997,1776697194662802027,1776697194662,False,1.6870506140820682,-0.4173818699794538,1.5960481415965857,-0.1205929442110209,-0.0392538127534859,-2.9657685576599,0.0,0.0,2.0,0.0,1.0,-1.0,0.1009879646008535,0.2965768557659899,3
998,1776697194735646855,1776697194735,False,1.688238963985204,-0.4160359136854887,1.5954077771445998,-0.122269125448481,-0.0526260919742694,-2.9681086698055714,0.0,0.0,2.0,0.0,1.0,-1.0,0.10114805571385,0.2968108669805572,3
999,1776697194838597674,1776697194837,False,1.6903328036519938,-0.4133278430797854,1.5951923343297054,-0.1193593552741693,-0.0585397675522854,-2.974249935082319,0.0,0.0,2.0,0.0,1.0,-1.0,0.1012019164175736,0.297424993508232,3
