,recording_time_ns,dt,wind_enabled,pos_x,pos_y,pos_z,pos_roll,pos_pitch,pos_yaw,targetpos_x,targetpos_y,targetpos_z,targetpos_yaw,control_vel_x,control_vel_y,control_vel_z,control_vel_yaw,experiment_id
1155,1777301720349107282,1777301720.3386316,False,-0.6357242684323278,0.6231975544674652,0.822569029666531,-0.0383806110108,0.0704621405690163,-0.1033027188051181,-2.0,0.0,2.0,0.0,-7.273997556032081e-10,-4.2789739843039815e-10,6.625285621438752e-10,5.811173994916139e-11,6
1156,1777301720442297494,0.1001083850860595,False,-0.6335026356821349,0.6221029208853911,0.8232705078398864,-0.0195464906292583,0.0754171497160817,-0.1009051804425896,-2.0,0.0,2.0,0.0,-0.3623844053889006,-0.2153349806739198,0.3361589205347138,0.0485307735511323,6
1157,1777301720547826579,0.1062753200531005,False,-0.6310080442346887,0.6212928394879477,0.8243299531610595,-0.0397654929099525,0.0664343861638017,-0.1059653714089819,-2.0,0.0,2.0,0.0,-0.5822324750605589,-0.3706315198162698,0.5687127519947008,0.0831889056915364,6
1158,1777301720642138064,0.0937066078186035,False,-0.6292200015668106,0.6198792249171005,0.8248620054735998,-0.03975391939197,0.0694424500013817,-0.11026428959665,-2.0,0.0,2.0,0.0,-0.6531074684703289,-0.4621805339757183,0.6836698967598519,0.1072434361743241,6
1159,1777301720742322921,0.1000313758850097,False,-0.626071210106474,0.6194102810573979,0.8251933846863706,-0.0246156432709433,0.0652967072906895,-0.1007141260869722,-2.0,0.0,2.0,0.0,-0.6513589875546435,-0.51660680237893,0.6999999904764784,0.1196298805062351,6
1160,1777301720842808537,0.0999670028686523,False,-0.6235363272289844,0.6181182413749592,0.8256822374781874,-0.0459039399714108,0.062432231883933,-0.1054578007254757,-2.0,0.0,2.0,0.0,-0.6444429348668306,-0.5618079413210563,0.6999999924744568,0.1294563414212216,6
1161,1777301720942629302,0.1006069183349609,False,-0.6209825446439846,0.6170864611923689,0.8257512570290051,-0.0276761252078647,0.0841919621968843,-0.0983271630590882,-2.0,0.0,2.0,0.0,-0.6455175885920054,-0.5867484931217045,0.6999999915929528,0.1330167210440572,6
1162,1777301721044292010,0.1011922359466552,False,-0.6181568390325825,0.6157620465847554,0.8265885317517564,-0.0387055429853702,0.0625482253752197,-0.1059730099774053,-2.0,0.0,2.0,0.0,-0.6388253616524536,-0.612228839607737,0.6999999908898218,0.1383510390433854,6
1163,1777301721144141811,0.0981497764587402,False,-0.6153116180368573,0.6151970985625465,0.8265022946479302,-0.0106072932624055,0.0719875933670365,-0.1036561104739821,-2.0,0.0,2.0,0.0,-0.6389046316309874,-0.6236040019354913,0.6999999935483269,0.141288834463025,6
1164,1777301721245645928,0.10211181640625,False,-0.6124964694939448,0.6139351381653456,0.8273918756760729,-0.0374757279460546,0.0609401117588065,-0.1043977187441436,-2.0,0.0,2.0,0.0,-0.6373562136518461,-0.634440142488058,0.6999999894819812,0.1433092006902203,6
1165,1777301721344746346,0.0979979038238525,False,-0.6093087607069015,0.613522615340033,0.8273139589631461,-0.0181733785724432,0.0696664259202613,-0.1041140323070557,-2.0,0.0,2.0,0.0,-0.636970857783931,-0.6396694543814194,0.6999999934674898,0.144733745186625,6
1166,1777301721447278188,0.1045329570770263,False,-0.6058189036833304,0.6125913711418131,0.8283423478486795,-0.0426458503253888,0.0665702987120644,-0.094370352343834,-2.0,0.0,2.0,0.0,-0.6425988530776764,-0.6395012958339685,0.6999999848799903,0.1410571177349166,6
1167,1777301721544943136,0.0987524986267089,False,-0.6032859502575256,0.6121431146675963,0.828296842202745,-0.0311434019417863,0.0904995752369564,-0.0969787162342931,-2.0,0.0,2.0,0.0,-0.640740983817909,-0.6431040313168318,0.6999999928478717,0.1397079167223712,6
1168,1777301721648714208,0.1034445762634277,False,-0.6054260623781915,0.6041320743903434,0.8427301919001939,0.2828468631792717,-0.3165373734731243,-0.139249706669577,-2.0,0.0,2.0,0.0,-0.6128487588991703,-0.6706287395578506,0.6999999905215387,0.1570410943760442,6
1169,1777301721747534758,0.0982956886291503,False,-0.6088398103890758,0.6004869613234578,0.8475120664223538,-0.0511199562784887,-0.1614296111229891,-0.1514408619126495,-2.0,0.0,2.0,0.0,-0.6049776893002533,-0.6757565774705793,0.6999999941061518,0.175603954262797,6
1170,1777301721844403412,0.0960891246795654,False,-0.622873628043727,0.5873817782737675,0.870529622235543,0.0822893609605258,-0.0532650658770064,-0.0499100415829025,-2.0,0.0,2.0,0.0,-0.6706513862734705,-0.6050138980576977,0.6999999948343008,0.1454541684508795,6
1171,1777301721944355485,0.1007082462310791,False,-0.6527042758076872,0.5547187419513215,0.91119561982301,0.0856844229265278,-0.0544883496671165,-0.0362507503385951,-2.0,0.0,2.0,0.0,-0.6792573855193964,-0.5846363843209031,0.699999993189029,0.1145320472080645,6
1172,1777301722042936796,0.0988655090332031,False,-0.6929247757110686,0.5083121999196556,0.9627668809403436,0.0574345908621201,-0.0568989990949086,-0.0067146928765536,-2.0,0.0,2.0,0.0,-0.6963684291564469,-0.5431811823591762,0.6999999971900789,0.0806035938128916,6
1173,1777301722165396386,0.1205995082855224,False,-0.7499537670825488,0.4488044948882155,1.0235432692696405,0.0601253582180629,-0.058085086867357,-0.0271252799531264,-2.0,0.0,2.0,0.0,-0.6859421945538988,-0.5276218035961328,0.6999999900100128,0.0637058894608682,6
1174,1777301722248199230,0.0823607444763183,False,-0.8052219776686331,0.3933866413347182,1.0770824645070605,0.0448432948318001,-0.0706979848537594,-0.0264214698891304,-2.0,0.0,2.0,0.0,-0.6874217409462192,-0.4851991333371087,0.6999999935736513,0.0554688305848318,6
1175,1777301722351056400,0.1062841415405273,False,-0.8823105830409438,0.3196100642375167,1.1454929150862356,0.0385062146683315,-0.0601841802538466,-0.0355858140884532,-2.0,0.0,2.0,0.0,-0.6845820496421202,-0.4455345352314351,0.6999999978369326,0.0530776447034956,6
1176,1777301722445113156,0.0935802459716796,False,-0.9523753850698564,0.2564934362628622,1.2021333006795154,0.02184311843936,-0.0634550109702244,-0.0389841490946475,-2.0,0.0,2.0,0.0,-0.6850401651171127,-0.397193131687174,0.6999999893465905,0.0536411562609959,6
1177,1777301722555456778,0.1099450588226318,False,-1.0465403084109102,0.1768634187008609,1.2720893008515122,0.0258212729176152,-0.0450435131120311,-0.0467048910740129,-2.0,0.0,2.0,0.0,-0.6847004908942269,-0.3436897068103012,0.6999987007900761,0.0573039420012366,6
1178,1777301722652394310,0.0973644256591796,False,-1.1371537926551432,0.1062149970356251,1.3303340930436038,0.0099057673051869,-0.0370567665595624,-0.0471574541753429,-2.0,0.0,2.0,0.0,-0.6873817368608798,-0.2838869649905031,0.6826415425441469,0.0604443149015399,6
1179,1777301722744423807,0.0914571285247802,False,-1.2246686919461447,0.0400537111328944,1.385293138330182,-0.0082130273477169,-0.0370544541377015,-0.0534545098057977,-2.0,0.0,2.0,0.0,-0.6887870404238651,-0.2282797261667488,0.652568626123008,0.0652450532172268,6
1180,1777301722852208998,0.1086721420288086,False,-1.3372343194382033,-0.038920679104145,1.4519965182468353,-0.0163037820188173,-0.0475401138864036,-0.0506153254211889,-2.0,0.0,2.0,0.0,-0.6788380517985052,-0.1577187640536003,0.6173423218262558,0.0672942887138312,6
1181,1777301722952705257,0.0998523235321044,False,-1.4446304232487484,-0.107185585123424,1.5110595235398498,-0.0261460137991928,-0.0432990781671186,-0.0539397632367115,-2.0,0.0,2.0,0.0,-0.6386627628949566,-0.0925345041296265,0.5741355661557578,0.0701901997303913,6
1182,1777301723053332199,0.1005215644836425,False,-1.556538506675048,-0.1713814756963055,1.5685286883816598,-0.0541355633848352,-0.0652216605123886,-0.066561625586179,-2.0,0.0,2.0,0.0,-0.5798122822691463,-0.032218728564016,0.5274727028768246,0.0776809874797377,6
1183,1777301723151744535,0.0989043712615966,False,-1.6718013533414555,-0.2297387542111471,1.6221075823284183,-0.0638040562062581,-0.0480920954254522,-0.0577880839950085,-2.0,0.0,2.0,0.0,-0.5074730291811499,0.0385687913610782,0.4792098951911107,0.0794379674106771,6
1184,1777301723252681306,0.1008529663085937,False,-1.7900639590009284,-0.2758605495815606,1.667034823372134,-0.0678561214052398,-0.0613158578584522,-0.0773347341983154,-2.0,0.0,2.0,0.0,-0.4254907282112624,0.0925033833086852,0.4324205026412432,0.0886764962101453,6
1185,1777301723352482196,0.0994026660919189,False,-1.909190552179693,-0.3208561418411085,1.7128057157236802,-0.0749398841565263,-0.0348059914624474,-0.075559739706969,-1.0,1.0,3.0,-1.5,-0.0718551009675325,0.4496161474500313,0.6311915342794806,-0.491608941099675,6
1186,1777301723447897436,0.0952377319335937,False,-2.0155771026608216,-0.3538097878252603,1.748630256942842,-0.0720858597786076,-0.0019753453875875,-0.0645408373076673,-1.0,1.0,3.0,-1.5,0.2097870672416963,0.6582334369373205,0.6999999950822305,-0.6999999890571738,6
1187,1777301723546184707,0.0983085632324218,False,-2.129877919495263,-0.383856937987912,1.7901320380661667,-0.1030792913906323,0.0582258180557616,-0.089683636325109,-1.0,1.0,3.0,-1.5,0.4281199778792108,0.741323194207309,0.699999997229438,-0.6999999951890133,6
1188,1777301723665068989,0.1184532642364502,False,-2.24628055275639,-0.405299747647033,1.840658837067337,-0.124653557863979,0.120273174827743,-0.1373436943629571,-1.0,1.0,3.0,-1.5,0.5630096572916505,0.7844701708861598,0.6999999969516256,-0.6999999946872554,6
1189,1777301723753633584,0.0877699851989746,False,-2.339136650515832,-0.4130080712253095,1.887155711962825,-0.1125146566209176,0.1429464476795329,-0.1835272576866496,-1.0,1.0,3.0,-1.5,0.5604951563419666,0.8159933682344868,0.6999999988945974,-0.6999999979853253,6
1190,1777301723857026275,0.1037938594818115,False,-2.4181482926272038,-0.4098495959459047,1.937493094538829,-0.0965961822955364,0.1674714784319996,-0.2210235163478619,-1.0,1.0,3.0,-1.5,0.5295116534662576,0.8364313505721462,0.6999999979092144,-0.6999999962122507,6
1191,1777301723952599153,0.0956954956054687,False,-2.4783968555449363,-0.4171352058418455,2.0041343979326083,-0.0933619763402988,0.1643409116804877,-0.2625275440198032,-1.0,1.0,3.0,-1.5,0.4943503502474848,0.8576815990819809,0.6999999967781184,-0.6999999943440057,6
1192,1777301724049676637,0.0982213020324707,False,-2.528713432812474,-0.4008522215784621,2.061805549306017,-0.0972703128629566,0.1475363996177959,-0.3139162768465452,-1.0,1.0,3.0,-1.5,0.4496419797132196,0.8819422244430747,0.6999999980891565,-0.6999999970392718,6
1193,1777301724154169769,0.1032013893127441,False,-2.567129032299823,-0.3749078341257607,2.1249494456360165,-0.0887635518518884,0.1663937100874602,-0.3549215368170445,-1.0,1.0,3.0,-1.5,0.4131098749984079,0.8996333849244356,0.6999999966625067,-0.6999999956360567,6
1194,1777301724256750571,0.1033508777618408,False,-2.5868218473852145,-0.3460369972458367,2.1835681189148977,-0.0830296402953664,0.1807462005145238,-0.4007882199678567,-1.0,1.0,3.0,-1.5,0.3714266771492847,0.9176285820673884,0.6999999880944195,-0.6999999891400055,6
1195,1777301724358467590,0.1015195846557617,False,-2.593893661295435,-0.3122090708560447,2.2422759726783243,-0.0601839604730511,0.1860528603931254,-0.4448372463673831,-1.0,1.0,3.0,-1.5,0.3306588180163146,0.9330941770797132,0.6999999758766503,-0.6999999963953253,6
1196,1777301724454964313,0.0963788032531738,False,-2.5889151679488456,-0.2782286320855928,2.2985249006168944,-0.052194445130396,0.1917816649386182,-0.4850069278939192,-1.0,1.0,3.0,-1.5,0.2929200613767012,0.945620344316781,0.6910349974592506,-0.699999997096405,6
1197,1777301724552425756,0.0976347923278808,False,-2.5666850297165924,-0.2286833688114559,2.351768865425068,-0.053427628047682,0.2041872073635652,-0.5334313122194301,-1.0,1.0,3.0,-1.5,0.2468035022968447,0.9586907894694068,0.670256292907187,-0.6999999976840952,6
1198,1777301724662537457,0.1104393005371093,False,-2.5378084741173788,-0.1819790271768369,2.411304242927629,-0.0367597106648535,0.2066244542136154,-0.5822324618762542,-1.0,1.0,3.0,-1.5,0.1997430282652282,0.9695889418443194,0.6417407071765516,-0.6999999901188839,6
1199,1777301724771457616,0.1095929145812988,False,-2.4941842988205414,-0.1269611738281222,2.476247484600234,-0.039043261211233,0.1976126551756513,-0.6226239642944703,-1.0,1.0,3.0,-1.5,0.1604276064688548,0.976863849405542,0.6025957306941266,-0.699999994997795,6
1200,1777301724865292573,0.0928103923797607,False,-2.4441015573425533,-0.0732067435642407,2.5345599258371707,-0.0417672214464348,0.19624762253137,-0.6660731859021226,-1.0,1.0,3.0,-1.5,0.1178455793393621,0.9829101773376072,0.5557693244614383,-0.6999999923217066,6
1201,1777301724957176732,0.0907790660858154,False,-2.39091697491556,-0.0211686530115316,2.585119018225265,-0.0338171364135461,0.2057674117198646,-0.7013968878364856,-1.0,1.0,3.0,-1.5,0.0830592592117258,0.9864588980086242,0.5081871987944478,-0.6999999950481361,6
1202,1777301725054085905,0.0978920459747314,False,-2.324484778516249,0.0396567601619241,2.63839915572913,-0.0208964673343333,0.1999226221252497,-0.7565137680951364,-1.0,1.0,3.0,-1.5,0.0285901168014188,0.9895365597750666,0.4609546757319254,-0.699999993245161,6
1203,1777301725154981322,0.0999402999877929,False,-2.250714021643749,0.1042784716909395,2.687954557275052,-0.0325771531356916,0.2042382178571197,-0.7667072925022781,-1.0,1.0,3.0,-1.5,0.0185019559805297,0.9897765296200176,0.4137477379351629,-0.6999997459251561,6
1204,1777301725253693889,0.1014559268951416,False,-2.169245054869963,0.1733894088436304,2.735814789928246,-0.0295439391379238,0.222171373065343,-0.8696618574467263,-1.0,1.0,3.0,-1.5,-0.0833181024088183,0.9864370256264416,0.3669357244970366,-0.6999998513328726,6
1205,1777301725352812278,0.0976548194885253,False,-2.0820919581685877,0.2412836751771944,2.776631707964472,-0.0409156735189178,0.2459695929113706,-0.9078836809003022,-1.0,1.0,3.0,-1.5,-0.1209512150008729,0.982532571210612,0.3222797518080609,-0.6999999214187274,6
1206,1777301725450332603,0.0977609157562255,False,-1.99870173492994,0.3048566807601621,2.806892232924852,0.0065986993857563,0.2805522636579777,-0.9456269017607432,-1.0,1.0,3.0,-1.5,-0.1499585977764397,0.9715081570743932,0.2820328645953374,-0.6999999959118791,6
1207,1777301725552725845,0.1025187969207763,False,-1.893777453131279,0.3818330229625576,2.853253559257013,0.0070317386668902,0.2015462032628947,-0.9763362001089751,-1.0,1.0,3.0,-1.5,-0.1574935101973132,0.951421479270178,0.2408559885257037,-0.6999957302843868,6
1208,1777301725660165078,0.1075420379638671,False,-1.7893586186318935,0.4569086090601681,2.877176055609888,-0.0071682191427334,0.1725581788392186,-1.0226416935315796,-1.0,1.0,3.0,-1.5,-0.1673784701253825,0.9223603165166884,0.204237056049376,-0.691289088705323,6
1209,1777301725819716747,0.1595923900604248,False,-1.6688804670865964,0.5418880254692577,2.8991551039632446,0.0054888568484838,0.1707869558070111,-1.0738152406865378,-1.0,1.0,3.0,-1.5,-0.1668241335843265,0.8692889012664562,0.1664893072999292,-0.6287166719829599,6
1210,1777301725856185747,0.0364782810211181,False,-1.5657848254230504,0.6119173873982633,2.913553530730525,0.0066176779740162,0.1613488788042696,-1.1023767455400688,-1.0,1.0,3.0,-1.5,-0.1571782744327065,0.7444408671998733,0.1375684789607819,-0.5758584449650449,6
1211,1777301725951632206,0.0957798957824707,False,-1.4470312831805552,0.6914189347197841,2.927057019949346,0.0147162755977971,0.1740764967853748,-1.1528171224176953,-1.0,1.0,3.0,-1.5,-0.1659706739974126,0.6718554103131436,0.1177800174238481,-0.5509239376021688,6
1212,1777301726052980975,0.1007604598999023,False,-1.3228820069460647,0.7704956339472576,2.937157168516679,0.0138646898805092,0.1695864101319843,-1.1838249171834123,-1.0,1.0,3.0,-1.5,-0.1575731709818416,0.5817355386687283,0.1008082764177569,-0.5172370720491931,6
1213,1777301726155380069,0.1004951000213623,False,-1.1960743384247583,0.8501456555293232,2.944455905835809,0.032075854874671,0.1798574790031343,-1.2200645112975217,-3.0,-1.0,3.0,-1.5,0.1682943509595658,-0.2209612723702589,0.086743325687026,-0.477812628750381,6
1214,1777301726256051413,0.102496862411499,False,-1.058794916143449,0.9155739352058716,2.9408012029328265,0.0441493240277505,0.1615037249307247,-1.247428954427152,-3.0,-1.0,3.0,-1.5,0.3848822402653964,-0.7115812508450233,0.0776190082631308,-0.4375956641672887,6
1215,1777301726359866997,0.1039879322052002,False,-0.940546812282262,0.9860920686872164,2.9395533741726863,0.1003364431609865,0.0960935448352396,-1.270551255326294,-3.0,-1.0,3.0,-1.5,0.4616567827587986,-0.8757128097663213,0.071665477885616,-0.3992822131119614,6
1216,1777301726468360882,0.1077311038970947,False,-0.8140650969181169,1.0634081345305044,2.948872493729382,0.1812906408858785,-0.0672522981863213,-1.2880111736724686,-3.0,-1.0,3.0,-1.5,0.4768755310567961,-0.8675192941194769,0.0651220953550107,-0.3643199572896438,6
1217,1777301726554404148,0.0862867832183837,False,-0.7195659904641738,1.1262372325471632,2.958075707230376,0.193733571060157,-0.092228153072449,-1.3013140554804568,-3.0,-1.0,3.0,-1.5,0.488373491312127,-0.8610988807057546,0.0577664693751097,-0.3390418221194819,6
1218,1777301726673875562,0.1192665100097656,False,-0.6091197650081344,1.169261565443555,2.9519719072133555,0.2020664855628302,-0.0758642600287802,-1.3502015805253589,-3.0,-1.0,3.0,-1.5,0.5298702411976081,-0.8362042347527758,0.0541714083433131,-0.2926961116676219,6
1219,1777301726766464598,0.0922155380249023,False,-0.4545220348621486,1.1862286724215705,2.91237037544422,0.1931253866239585,-0.1013933428735896,-1.3369580138362065,-3.0,-1.0,3.0,-1.5,0.5187497727718529,-0.8431480715425239,0.0611332530482092,-0.2723505474590462,6
1220,1777301726862977129,0.0968005657196044,False,-0.4388324142671971,1.1941605404405502,2.9618236143211623,-2.918289639784987,0.1222072785086201,-0.1064282556277081,-3.0,-1.0,3.0,-1.5,-0.621680079372618,-0.7703985095838901,0.0550351293606043,-0.6336864387808452,6
1221,1777301726955766847,0.0925595760345459,False,-0.3994789505251361,1.198070326624283,2.919193101060659,0.2044240101761506,-0.0876889568979237,-1.3559299232313569,-3.0,-1.0,3.0,-1.5,0.5346515868480837,-0.8331552540462864,0.0599796548388983,-0.5462289827652849,6
1222,1777301727062992798,0.1074166297912597,False,-0.3652316291644095,1.1875823501901157,2.9111978183669374,0.1615932008976425,-0.1225816415581621,-1.3955174299643525,-3.0,-1.0,3.0,-1.5,0.5672066216216218,-0.8113424962612147,0.0675911214183752,-0.4138840998369638,6
1223,1777301727154855007,0.0917541980743408,False,-0.3510798195340157,1.1701169926559376,2.9052343619483767,0.1801004605981996,-0.1118078907449698,-1.41533933337108,-3.0,-1.0,3.0,-1.5,0.583176494213847,-0.7999407302326886,0.0734528906044745,-0.3195227249910915,6
1224,1777301727255976496,0.1009101867675781,False,-0.3502004588198428,1.143307797584008,2.9000101749060696,0.1949607572168491,-0.107586175521271,-1.4369030580192952,-3.0,-1.0,3.0,-1.5,0.6002892770272519,-0.7871802708936249,0.0799364183575375,-0.2422405447716362,6
1225,1777301727366331477,0.1120800971984863,False,-0.3660040871820271,1.103774368706158,2.896309841919177,0.2254274410343515,-0.1160640366689029,-1.4395220005765863,-3.0,-1.0,3.0,-1.5,0.6023487971728564,-0.7856054512422602,0.0863550731638129,-0.1860710314489455,6
1226,1777301727464297371,0.0962800979614257,False,-0.3933793088191502,1.058817570609424,2.893449354135796,0.2213069556186375,-0.1105258601955579,-1.4525143902842828,-3.0,-1.0,3.0,-1.5,0.612504562458365,-0.7777134142611932,0.0905186778112669,-0.1470581803704332,6
1227,1777301727556612997,0.0928518772125244,False,-0.4286651161455387,1.0111114999815218,2.8918190490601394,0.2103085753234974,-0.10306318848259,-1.4655537845274296,-3.0,-1.0,3.0,-1.5,0.6225931181196434,-0.7696608390474087,0.0936155153140323,-0.1154905760588095,6
1228,1777301727662460548,0.1057577133178711,False,-0.4840494197026632,0.9436543905560704,2.89156848527352,0.2011988120221523,-0.0990986652208559,-1.4803668182261742,-3.0,-1.0,3.0,-1.5,0.6339254059259972,-0.7603542414506551,0.0969707760512242,-0.0857190315891853,6
1229,1777301727766236940,0.1036508083343505,False,-0.5452926105001122,0.8741401312770558,2.891662597220721,0.1943942151869606,-0.0950742027378209,-1.4870548033393225,-3.0,-1.0,3.0,-1.5,0.6389964292235789,-0.7560975855086577,0.099152804040182,-0.06285316724492,6
1230,1777301727866110833,0.0998678207397461,False,-0.6156497204000182,0.7968827313693004,2.8924193674509744,0.1912440276037468,-0.0886047198433545,-1.4916491216002474,-3.0,-1.0,3.0,-1.5,0.6424634271571588,-0.7531538640290703,0.1002191015652747,-0.0457955691024864,6
1231,1777301727964965776,0.099466323852539,False,-0.6948796862943541,0.7124316247101959,2.89294086549301,0.1851126808121615,-0.0738829614252584,-1.50580279956442,-3.0,-1.0,3.0,-1.5,0.6530586188105314,-0.7439855102030931,0.1007853237466599,-0.0282186767716697,6
1232,1777301728063545724,0.097581148147583,False,-0.7817861642165017,0.620722033217143,2.894732915588379,0.2289522179662428,-0.1020553452809133,-1.479056520630565,-3.0,-1.0,3.0,-1.5,0.6329285742315407,-0.761184221522119,0.1005751899865662,-0.0274863125369269,6
1233,1777301728164127577,0.1008687019348144,False,-0.8906852246194976,0.5239063454644733,2.9024552704187965,0.2282221621844391,-0.1041855524643884,-1.4848890131049035,-3.0,-1.0,3.0,-1.5,0.6373573847702982,-0.7574797444826017,0.0986148151728999,-0.0255541405792427,6
1234,1777301728263881360,0.1000008583068847,False,-0.9919822362700104,0.4208686922606089,2.9044407348718773,0.2284606058004188,-0.1054758275767865,-1.4726512726959065,-3.0,-1.0,3.0,-1.5,0.6280400497347567,-0.7652226437148593,0.0964776920372555,-0.0294255333293859,6
1235,1777301728363782953,0.0999891757965087,False,-1.0980340433076443,0.3104679048752637,2.904333584342075,0.184744512914841,-0.1000352263675791,-1.509280260976591,-3.0,-1.0,3.0,-1.5,0.6556418459057469,-0.741710029865062,0.0949345090074718,-0.016711717784904,6
1236,1777301728462593224,0.0991108417510986,False,-1.208648218135779,0.1953082500805831,2.904494380655376,0.2224536939426444,-0.1014558842418302,-1.4849937201023329,-3.0,-1.0,3.0,-1.5,0.6374366927313146,-0.7574130036276582,0.0937566330713604,-0.0172342660892409,6
1237,1777301728563043161,0.1000435352325439,False,-1.3244092647960042,0.0761541519008993,2.904405742839209,0.2235794987194848,-0.1062799026409573,-1.4747655646115314,-3.0,-1.0,3.0,-1.5,0.6296565373019569,-0.7638930580258266,0.0930033791942388,-0.0228951969320177,6
1238,1777301728663202081,0.0999765396118164,False,-1.4445821319232317,-0.0501825816943354,2.903854846980921,0.2222838879945266,-0.112805860862768,-1.4950337330498442,-3.0,-1.0,3.0,-1.5,0.6450088576789923,-0.7509750371124091,0.0926146375699531,-0.0184362475332723,6
1239,1777301728763273499,0.1004009246826171,False,-1.566562049764361,-0.1791146039746591,2.900718328473465,0.2183729895930177,-0.111753220332302,-1.4956094747372446,-3.0,-1.0,3.0,-1.5,0.6454411342294095,-0.7506035818273584,0.0931888613791248,-0.0143992809029495,6
1240,1777301728869237116,0.103907823562622,False,-1.6975023934788624,-0.3136405542209077,2.9028367617785333,0.2123539797212498,-0.1142107636988425,-1.498822385178897,-3.0,-1.0,3.0,-1.5,0.640202368829702,-0.7479746218373651,0.0933264642205518,-0.0101721635992089,6
1241,1777301728968733330,0.0998055934906005,False,-1.8279736327409413,-0.4480659450316284,2.898567389207374,0.2258865075842691,-0.1044915437200375,-1.4863692624840208,-3.0,-1.0,3.0,-1.5,0.5857421466459165,-0.7520725263992186,0.094236242364973,-0.0126695125647015,6
1242,1777301729064006086,0.0969736576080322,False,-1.9634915587843251,-0.5874053730593194,2.895910748506317,0.2274968375141756,-0.0939926421565969,-1.479931606364398,-3.0,-1.0,3.0,-1.5,0.5097558241542721,-0.7493464314390095,0.0954491070594014,-0.0175890437994096,6
1243,1777301729161853888,0.0988049507141113,False,-2.0754265784118857,-0.6775623296627726,2.862493623216748,0.241571040064948,-0.0853181760326766,-1.4734687091288887,-3.0,-1.0,3.0,-1.5,0.4282339241701317,-0.7451396603003791,0.1050373097604222,-0.0239827236921936,6
1244,1777301729271547453,0.1076545715332031,False,-2.233243082690195,-0.83935863899286,2.86037374054478,0.227287851012482,-0.08909343853036,-1.4794129684239845,-3.0,-1.0,3.0,-1.5,0.3327955704986662,-0.7334299407395564,0.1141249246078204,-0.0259393270769689,6
1245,1777301729365748223,0.095923900604248,False,-2.3814810758709,-0.9934891048045176,2.862375311524549,0.1997795735743235,-0.0744681152136564,-1.4642698236385356,-3.0,-1.0,3.0,-1.5,0.2145814475460336,-0.6973473430970942,0.1188592696439871,-0.0334960768351902,6
1246,1777301729472148680,0.1054553985595703,False,-2.537805756005485,-1.156652740293923,2.8798709383645646,0.2072769871860257,-0.1252589199905527,-1.481450711162826,-3.0,-1.0,3.0,-1.5,0.1042829670929413,-0.6189553002860272,0.1184754983625927,-0.0316901867530516,6
1247,1777301729575299386,0.1042706966400146,False,-2.6828392177593248,-1.2989467953526308,2.870515887595693,0.2070080668284889,-0.1443250763497871,-1.4715235803405835,-3.0,-1.0,3.0,-1.5,-0.0236115516835823,-0.5205012705626683,0.1201222421060746,-0.0341699783883225,6
1248,1777301729664333052,0.0881917476654052,False,-2.8289641975359734,-1.4366446806357875,2.857969726915065,0.1618999606397824,-0.1396490622416284,-1.4734619427040188,-2.0,0.0,1.0,-3.1,-0.3654041953847043,-0.1214534438482229,-0.3610946358539276,-0.5621712571796356,6
1249,1777301729765191392,0.1010096073150634,False,-2.9778700044089788,-1.56527432833684,2.843959181806735,0.1313737075651398,-0.1697207669763167,-1.4821473430720236,-2.0,0.0,1.0,-3.1,-0.5982857580123618,0.2204726571775511,-0.6446881365366389,-0.6999999969674171,6
1250,1777301729864940349,0.0992228984832763,False,-3.1366437064854824,-1.6850122075735288,2.830317859333573,0.0570325774257536,-0.0769666473233993,-1.5032036261693178,-2.0,0.0,1.0,-3.1,-0.6690191652421449,0.4813140323950539,-0.699999997764431,-0.6999999953558903,6
1251,1777301729966735389,0.1020562648773193,False,-3.3461653043445074,-1.824199575420184,2.8460348640978657,-0.0254275575640586,0.0355870745456139,-1.6046503123643574,-2.0,0.0,1.0,-3.1,-0.7211496433722169,0.6126427390118362,-0.6999999940211428,-0.6999999816163094,6
1252,1777301730064560122,0.0978682041168212,False,-3.500353521517704,-1.919752137296127,2.821127959115213,-0.0100046355181961,0.0740040896223512,-1.6559328777880422,-2.0,0.0,1.0,-3.1,-0.7569882632130527,0.6379410217886818,-0.6999999951944825,-0.6999999845590192,6
1253,1777301730165504989,0.1009550094604492,False,-3.640839265747059,-1.9988405824145343,2.7844934548111797,0.0093939674281173,0.0829929731789128,-1.7036742134366956,-2.0,0.0,1.0,-3.1,-0.7865703392472758,0.6010882544405992,-0.699999995985778,-0.6999999856565189,6
1254,1777301730260490131,0.0966627597808837,False,-3.766175320667444,-2.0627990268041447,2.7401356884993424,0.0207653639070236,0.0866791781611626,-1.7520737448741703,-2.0,0.0,1.0,-3.1,-0.8147302782717052,0.5623295898254725,-0.6999999979317182,-0.6999999920902111,6
1255,1777301730363267732,0.1008546352386474,False,-3.876386760798171,-2.1138150790686736,2.690623648933531,0.0285345957094541,0.0836565737889649,-1.7971443664553823,-2.0,0.0,1.0,-3.1,-0.8392388731366868,0.5250505676965117,-0.6999999945851617,-0.6999999751022963,6
1256,1777301730465994801,0.1031272411346435,False,-3.97144520070404,-2.1533612388879475,2.638288002811287,0.0329870392374449,0.0826300378756973,-1.84101318189232,-2.0,0.0,1.0,-3.1,-0.8614574181982388,0.4877408199061869,-0.6999999973691783,-0.6999999793606627,6
1257,1777301730566339429,0.1008288860321044,False,-4.052114639959506,-2.1825446513413405,2.584867175137166,0.0369065098261844,0.0800574579720362,-1.8824251542580288,-2.0,0.0,1.0,-3.1,-0.880911381653566,0.4516581987375817,-0.6999999973799939,-0.6999999757839779,6
1258,1777301730666220638,0.0994200706481933,False,-4.119251121903695,-2.2020321851619897,2.530968271086616,0.0417758910852191,0.0735234292362764,-1.920589321336965,-2.0,0.0,1.0,-3.1,-0.897502910761098,0.4177182295188222,-0.6999999975106378,-0.6999999853663365,6
1259,1777301730763308965,0.0971338748931884,False,-4.173322056699775,-2.2124465883669804,2.477669796048497,0.0424728403333663,0.0724034910637068,-1.9600935078119943,-2.0,0.0,1.0,-3.1,-0.9133000113432748,0.3819464269287606,-0.6999999898649679,-0.6999999650709361,6
1260,1777301730873656495,0.1103656291961669,False,-4.218652734589392,-2.2141961603543105,2.4202411762934486,0.043203687928477,0.0677250440574171,-2.004155702427116,-2.0,0.0,1.0,-3.1,-0.9292375321120244,0.3413467343490058,-0.6999999894119321,-0.6999999611595582,6
1261,1777301730966178033,0.0927002429962158,False,-4.245096793114892,-2.208633705708542,2.3745167377403,0.0422767346763491,0.0647383324141252,-2.037155969260049,-2.0,0.0,1.0,-3.1,-0.9399940929978888,0.3105013652394454,-0.6999999959127762,-0.6999999804791028,6
1262,1777301731064666426,0.098419189453125,False,-4.263861039251537,-2.195630436488472,2.3251783508606687,0.0409707124482315,0.0620900362768672,-2.076366451129344,-2.0,0.0,1.0,-3.1,-0.9514433708391088,0.2734145258957612,-0.6999999956884588,-0.6999999707379501,6
1263,1777301731174291718,0.1088709831237793,False,-4.271864988490361,-2.173508722975615,2.2723959068068584,0.0390563066332892,0.0584365949070385,-2.1190393137636825,-2.0,0.0,1.0,-3.1,-0.9622410673734934,0.2325771326551213,-0.6999999966653729,-0.6999999798384454,6
1264,1777301731264438874,0.0908730030059814,False,-4.269009015267307,-2.1496427855133358,2.230312281695758,0.0381162455273398,0.0532137137038098,-2.1546766129659845,-2.0,0.0,1.0,-3.1,-0.969916764749054,0.1981450445724593,-0.6999999920375519,-0.6999999652513119,6
1265,1777301731376009136,0.1113016605377197,False,-4.254614510052682,-2.1139001865864624,2.1799444705676416,0.0369425389638546,0.0503540583357149,-2.198559278602676,-2.0,0.0,1.0,-3.1,-0.9776753778502932,0.1554054183881353,-0.6999999902705025,-0.6999999579509547,6
1266,1777301731476588237,0.1003808975219726,False,-4.231534772534149,-2.0755289375623835,2.13508474257554,0.0321445713599372,0.044782929501605,-2.2372279682127783,-2.0,0.0,1.0,-3.1,-0.9829523536849772,0.1174932414275154,-0.6999999944984986,-0.6999999586973343,6
1267,1777301731577329424,0.1014997959136962,False,-4.199781700827277,-2.032076224248515,2.0911174754693937,0.0274110611916432,0.039705670829934,-2.2760364390481738,-2.0,0.0,1.0,-3.1,-0.9867708265473196,0.0792674716942299,-0.6999999977872106,-0.6999999776391095,6
1268,1777301731667815966,0.089529275894165,False,-4.164360394017182,-1.9887389285219876,2.051524539145938,0.0255338933767572,0.0350386332706325,-2.311180005076812,-2.0,0.0,1.0,-3.1,-0.988946687514262,0.0445470186479388,-0.699999987495611,-0.6999999457255486,6
1269,1777301731775133208,0.1069915294647216,False,-4.112975670198021,-1.930533554598192,2.002710823914593,0.0229623438735177,0.0291003003062049,-2.353831292742044,-2.0,0.0,1.0,-3.1,-0.9899467258567096,0.002339443592108,-0.6999999940161512,-0.6999999499714692,6
1270,1777301731875550263,0.1003870964050293,False,-4.059576725697293,-1.8726861177993253,1.9582658729662308,0.0200552030446068,0.0224473283288593,-2.39184563636145,-2.0,0.0,1.0,-3.1,-0.9893204432773012,-0.0352853584771062,-0.699999995948675,-0.6999999683989419,6
1271,1777301731986700128,0.1117339134216308,False,-4.000381716548363,-1.8107843491148337,1.9135785109255024,0.0165189802832075,0.0199445986919377,-2.433198330624816,-2.0,0.0,1.0,-3.1,-0.9870159434263288,-0.0761545996471609,-0.6999999945776211,-0.6999999684846225,6
1272,1777301732073461012,0.0865070819854736,False,-3.9358792470768713,-1.745048047939223,1.8682796319773067,0.0151419950553956,0.016395213185141,-2.4717537495643342,-2.0,0.0,1.0,-3.1,-0.9833469792279484,-0.1141433898603674,-0.6999999942903958,-0.6999999629791788,6
1273,1777301732173695841,0.1006033420562744,False,-3.866609098814521,-1.6757748487254824,1.8230464076471893,0.0173471533956431,0.0126494402475484,-2.511225758785499,-2.0,0.0,1.0,-3.1,-0.9780767334668364,-0.1528590840363995,-0.699999993774619,-0.699999984738006,6
1274,1777301732272854695,0.0990443229675293,False,-3.7932156380273954,-1.603842953974184,1.776976773630679,0.017339782460773,0.009348257059912,-2.5520498172689603,-2.0,0.0,1.0,-3.1,-0.971023218369735,-0.1926496959031595,-0.6999999747331722,-0.6999999389482244,6
1275,1777301732374713766,0.1010935306549072,False,-3.7157885221158495,-1.52961458217179,1.7303445723347968,0.0149687814983054,0.0045536043844272,-2.5912959241721745,-2.0,0.0,1.0,-3.1,-0.9627166934541942,-0.2306004487952904,-0.6999374244219931,-0.6999968518205698,6
1276,1777301732473683042,0.1000487804412841,False,-3.635186658997484,-1.4536573269903932,1.684049027667695,0.0148407499945419,0.0016948878538607,-2.631274179148431,-2.0,0.0,1.0,-3.1,-0.952730910375906,-0.2688936751676651,-0.6873628527223622,-0.6895045856733248,6
1277,1777301732574287720,0.1010270118713378,False,-3.5517070668124933,-1.375835114209936,1.6371064624489655,0.0091981646838554,0.0032368267011577,-2.674930533299544,-2.0,0.0,1.0,-3.1,-0.9400879284590988,-0.310217020778751,-0.6654733756998378,-0.6614646584282572,6
1278,1777301732677094730,0.1018769741058349,False,-3.4659552471236155,-1.2968404164173857,1.5893119671415692,0.007401278410768,-0.0088112187113938,-2.708514177461036,-2.0,0.0,1.0,-3.1,-0.9291416045430506,-0.3416077433461187,-0.6366657270208989,-0.6260202767511505,6
1279,1777301732774618966,0.0974276065826416,False,-3.378218164172601,-1.2165648197810777,1.5420921637385554,0.0072054141943774,-0.0141035595739257,-2.744596230189805,-2.0,0.0,1.0,-3.1,-0.9162136040578392,-0.3749034562364814,-0.6018628004534582,-0.5869208878808166,6
1280,1777301732872087109,0.0983529090881347,False,-3.288928911259648,-1.1348579241126395,1.495247550866556,-0.0029794231303698,-0.0193340175994257,-2.775308082944437,-2.0,0.0,1.0,-3.1,-0.9042693752605254,-0.4028608579675931,-0.5643951597019372,-0.5457939891867875,6
1281,1777301732973410500,0.1009373664855957,False,-3.198418933625677,-1.0514429587497975,1.449319303956011,-0.0030987413479265,-0.0195065252403239,-2.806611505647224,-2.0,0.0,1.0,-3.1,-0.8912175052283453,-0.4309655952855554,-0.5254510798193248,-0.5027247277097128,6
1282,1777301733072244314,0.0989966392517089,False,-3.106826381801457,-0.9655612144947384,1.404567159237947,-0.003433369148837,-0.0189893691177816,-2.8356996223956368,-2.0,0.0,1.0,-3.1,-0.8783062861677106,-0.4567034680948325,-0.4850807203218855,-0.4608336297951295,6
1283,1777301733169344761,0.097008466720581,False,-3.023370656572016,-0.8863382162573255,1.3665878692330455,-0.0035432505402479,-0.0241749242192111,-2.85829022932926,-2.0,0.0,1.0,-3.1,-0.8677658461990586,-0.4764267191667851,-0.4455386594090687,-0.4225228244189019,6
1284,1777301733272179472,0.1035618782043457,False,-2.920004603310015,-0.7872883878569171,1.3228830939390488,-0.0064227030947128,-0.0278683302645035,-2.879722699773907,-2.0,0.0,1.0,-3.1,-0.8573563327669316,-0.4949142435127587,-0.4060102586880092,-0.3849878630926642,6
1285,1777301733372272786,0.0999982357025146,False,-2.825025951812235,-0.6982494440056362,1.292378683162373,-0.0097187539724901,-0.0302503607850081,-2.8993049962015705,-2.0,0.0,1.0,-3.1,-0.8457811872895956,-0.5046484444131649,-0.3690375568915257,-0.3516958559573734,6
1286,1777301733472662403,0.0997929573059082,False,-2.730499935583925,-0.6055909909286301,1.260529484727698,-0.0224524504615408,-0.034168369284875,-2.913299862453961,-2.0,0.0,1.0,-3.1,-0.8314958939284758,-0.485808698683826,-0.3340289525498308,-0.3227573253071016,6
1287,1777301733575392169,0.1026179790496826,False,-2.635207319685796,-0.5109010282357362,1.2330786750038183,-0.0165039443720059,-0.0404039630122168,-2.922675054987539,-2.0,0.0,1.0,-3.1,-0.7927353013239044,-0.4514061727931096,-0.3016079267460396,-0.2983134136961686,6
1288,1777301733685798705,0.1088125705718994,False,-2.5394696144039197,-0.4139656075658656,1.209955521481548,-0.013758689949015,-0.0278350993373051,-2.9355032275468296,-2.0,0.0,1.0,-3.1,-0.7311852205847851,-0.4098275442228967,-0.272132803745632,-0.2749046078199413,6
1289,1777301733775942667,0.092261791229248,False,-2.443241956294322,-0.3155667900888728,1.1888955724013586,0.0029817415209853,-0.0210741471844648,-2.9465062640578545,-2.0,0.0,1.0,-3.1,-0.6535651921565818,-0.3594610605779412,-0.2449709442437926,-0.2569286416992725,6
1290,1777301733873836643,0.0978586673736572,False,-2.3465724860297783,-0.2163818022255068,1.1730251577839896,-0.0191403771272648,-0.0981870176501037,-2.9466119803504256,-2.0,0.0,1.0,-3.1,-0.5707992803192773,-0.2961951977825767,-0.2215447217830908,-0.2436925045170632,6
1291,1777301733972985422,0.0989925861358642,False,-2.2476058833498067,-0.1171316138811602,1.1571999534241333,-0.0033684687762745,-0.0267894919200507,-2.963716278746427,-1.0,1.0,2.0,3.1,-0.7564943265772026,-0.4684851102343537,0.0831702933005323,-0.2671363249427831,6
1292,1777301734090233229,0.1147985458374023,False,-2.1375420483040664,-0.0103586132626693,1.1444398520834913,0.0131067543809566,-0.0350933979091968,-2.971740944684459,-1.0,1.0,2.0,3.1,-0.8069559856135278,-0.5640435334588773,0.3195539799742549,-0.2767690197389312,6
1293,1777301734179922624,0.0919983386993408,False,-2.046608252692728,0.0746562113288552,1.1378109625516752,0.0369908319259353,-0.0302968720298953,-2.984314411880067,-1.0,1.0,2.0,3.1,-0.8010015087712783,-0.5817186314259947,0.4606000212380166,-0.2794112225386669,6
1294,1777301734280766342,0.1011185646057128,False,-1.9441434719390127,0.1670369721259367,1.134317968020265,0.0038356165253009,-0.0453141201079434,-2.9965144935609005,-1.0,1.0,2.0,3.1,-0.793845057397506,-0.5914473848588634,0.5709341847119063,-0.2747024004382618,6
1295,1777301734380263444,0.0992577075958252,False,-1.8413093400508136,0.2585399549431448,1.1391959611670763,-0.0126773042303495,-0.0531867758985989,-3.005250484859104,-1.0,1.0,2.0,3.1,-0.7886478026655731,-0.5983586606041826,0.6454599278896028,-0.2674430729887276,6
1296,1777301734475123625,0.0948786735534668,False,-1.7396015714662594,0.3514443631398063,1.154890050517804,-0.0270946947734555,-0.0605936756808565,-3.0090764259169607,-1.0,1.0,2.0,3.1,-0.7832638762584911,-0.5783471374868049,0.6902257981358279,-0.2609926200462689,6
1297,1777301734578182309,0.1028046607971191,False,-1.6394123212352605,0.4468773092364572,1.181590698047037,-0.0246025477179447,-0.0630811797330295,-3.0134793912130085,-1.0,1.0,2.0,3.1,-0.7529208137337433,-0.544097249967577,0.6999999979359367,-0.2537481964977516,6
1298,1777301734677500923,0.1001830101013183,False,-1.5401937586000398,0.5448661525111407,1.2184053821457943,-0.0188072728202006,-0.0424425041070352,-3.017231323434308,-1.0,1.0,2.0,3.1,-0.698992174256389,-0.4958386042081155,0.6999999963954054,-0.2474513269357355,6
1299,1777301734773452166,0.0951423645019531,False,-1.4409277280791974,0.6441740836325097,1.2636741662544524,-0.0214093873366963,-0.0336164348655542,-3.0233631581629186,-1.0,1.0,2.0,3.1,-0.6277724239779756,-0.4393078715058708,0.699333508402552,-0.2409598933613242,6
1300,1777301734875070619,0.1021637916564941,False,-1.3406888161546286,0.7440609438156656,1.3154167084944624,-0.0205610945003422,-0.0312913378900375,-3.034584841157687,-1.0,1.0,2.0,3.1,-0.5444400375650673,-0.3776828646049004,0.6880371797949433,-0.2308062972447152,6
1301,1777301734985276775,0.1081421375274658,False,-1.2279237951613702,0.8542052185086502,1.3775353963838606,-0.0061743116276301,-0.0427579875592062,-3.0431808454992835,-1.0,1.0,2.0,3.1,-0.4505383850815024,-0.3044850150431278,0.6638658503452154,-0.2190177696646969,6
1302,1777301735075498691,0.0918774604797363,False,-1.1347481343422412,0.94407103738014,1.4304205135581387,-0.0197600662248437,-0.0242057779246545,-3.0500557994973034,-1.0,1.0,2.0,3.1,-0.3590400698305137,-0.2324732260363916,0.6271171780804485,-0.2096865515210965,6
1303,1777301735182468358,0.1074485778808593,False,-1.019327554156474,1.053941235738364,1.4972452438707295,-0.0234962850570027,-0.0228503544956101,-3.060715664627964,-1.0,1.0,2.0,3.1,-0.2555345861947161,-0.1505659876737548,0.5861158242072508,-0.1968938635932985,6
1304,1777301735287116737,0.1043970584869384,False,-0.9124918539898051,1.153645597714854,1.5568237863040328,-0.0029930572542488,0.0319459413765827,-3.0846021236470453,-1.0,1.0,2.0,3.1,-0.1509096112413282,-0.0686961142121996,0.5396353439214544,-0.1779826740207158,6
1305,1777301735377834174,0.0896012783050537,False,-0.9124918539898051,1.153645597714854,1.5568237863040328,-0.0029930572542488,0.0319459413765827,-3.0846021236470453,-3.0,-1.0,3.0,1.5,0.4024876671364408,0.4081355526887592,0.6873842124861944,-0.643991646285304,6
1306,1777301735484185059,0.1068782806396484,False,-0.7018783945225876,1.3473671128799216,1.673185996898948,0.0588128707011701,-0.1096931191099625,-3.085953946793808,-3.0,-1.0,3.0,1.5,0.73556206733765,0.6601168738817457,0.6999999990465832,-0.699999998248982,6
1307,1777301735583190621,0.0995025634765625,False,-0.6051878029540413,1.4330762391897796,1.7273710784191243,0.1234782224021348,-0.1877775271826259,-3.110568408523568,-3.0,-1.0,3.0,1.5,0.7213766374302713,0.6779496615950472,0.6999999977786635,-0.6999999961318779,6
1308,1777301735684899624,0.1012179851531982,False,-0.5338991010151416,1.5077230437165463,1.7854296917435928,0.1512502549859312,-0.2131778055998998,3.134176361394561,-3.0,-1.0,3.0,1.5,0.6947893899053931,0.7051721038058305,0.699999992121477,-0.6999999887194227,6
1309,1777301735775994221,0.0916244983673095,False,-0.4732818683457733,1.5598336246099245,1.833472464120649,0.1359390855115136,-0.2185066514034004,3.0899848527222358,-3.0,-1.0,3.0,1.5,0.6629586002400051,0.7351774537720797,0.699999993388284,-0.6999999909922134,6
1310,1777301735884589550,0.1078240871429443,False,-0.4218323994158994,1.6086197474618495,1.8930555202388424,0.1317616247705541,-0.2323529768513206,3.0443571123217863,-3.0,-1.0,3.0,1.5,0.62873576703229,0.7646511133794601,0.6999999871478683,-0.6999999829968607,6
1311,1777301735986859427,0.102607250213623,False,-0.3904599388218943,1.6395771917167148,1.946622966185724,0.1240115428001921,-0.2318450834459098,2.996456230936096,-3.0,-1.0,3.0,1.5,0.5914011293752914,0.7938795144745796,0.6999999691305313,-0.6999999627460254,6
1312,1777301736084701597,0.0964534282684326,False,-0.3740102293152518,1.6591405021820405,2.000014650730087,0.1233518582452214,-0.2330572499075968,2.948822579650706,-3.0,-1.0,3.0,1.5,0.5529292402029783,0.8211389849786701,0.6999999611948414,-0.6999999570416126,6
1313,1777301736186458689,0.1030929088592529,False,-0.3709963155213783,1.6676670655536376,2.053421641398392,0.1164112795196969,-0.2360727925314276,2.8973077204451623,-3.0,-1.0,3.0,1.5,0.5099135745036126,0.8485211407639595,0.6999999637889587,-0.6999999593049484,6
1314,1777301736282510987,0.0967774391174316,False,-0.380472471508527,1.6664040277675665,2.1061901039201008,0.1102094715260477,-0.24389692265336,2.8421942874066444,-3.0,-1.0,3.0,1.5,0.4623980978599405,0.8753216387459207,0.6999999421089944,-0.6999999409636712,6
1315,1777301736384426121,0.1005594730377197,False,-0.3880041456479711,1.657432211166152,2.148523764212649,0.1121842413472445,-0.2430278296674413,2.80561003400024,-3.0,-1.0,3.0,1.5,0.4300728467302723,0.8916486490755192,0.6999999186044903,-0.6999999266835144,6
1316,1777301736483649416,0.1000494956970214,False,-0.416897585676346,1.6404101852983906,2.198734486609961,0.1206016239754076,-0.251692157249369,2.769060914051066,-3.0,-1.0,3.0,1.5,0.397203908304885,0.9067684547689988,0.699999887872519,-0.6999999431248338,6
1317,1777301736583476462,0.0994291305541992,False,-0.456634088265381,1.6160012215308148,2.249769811401715,0.0880476564567516,-0.2459933760917768,2.713702162831812,-3.0,-1.0,3.0,1.5,0.3464234970200577,0.9273568583928478,0.6999982796112688,-0.6999999566038085,6
1318,1777301736685097678,0.1017451286315918,False,-0.5002959266985418,1.5814973227888045,2.3005594875269884,0.1176204651328335,-0.2388379375283807,2.664395468064654,-3.0,-1.0,3.0,1.5,0.3002961027711895,0.9433038944080572,0.6926296505199859,-0.6999999659739442,6
1319,1777301736783339636,0.0986466407775878,False,-0.5593843204844745,1.540890251591777,2.349924280224779,0.1288604192054983,-0.2560864751779849,2.6311329152652365,-3.0,-1.0,3.0,1.5,0.268759084725898,0.952768881727643,0.6721396280841871,-0.699999968258702,6
1320,1777301736885275718,0.0999679565429687,False,-0.6257395066342938,1.4938573723317088,2.39949533867184,0.0989383971890106,-0.2521741256408376,2.5932803581865573,-3.0,-1.0,3.0,1.5,0.2325104399692833,0.9622571820444276,0.64410307432661,-0.6999999712606777,6
1321,1777301736987465862,0.102473497390747,False,-0.7023121379545721,1.4409315383427193,2.4475152398260884,0.0883974840329982,-0.2501624001042897,2.535890832456222,-3.0,-1.0,3.0,1.5,0.176934477212427,0.9740093319222844,0.6112419298708401,-0.6999999615405368,6
1322,1777301737083983614,0.0978407859802246,False,-0.785424611090757,1.3800119189593243,2.4936002598557474,0.0824210850512883,-0.247856247154676,2.492793755377195,-3.0,-1.0,3.0,1.5,0.1348062258054125,0.9807279309164292,0.5739991653813284,-0.699999973553682,6
1323,1777301737183814688,0.0996906757354736,False,-0.9073440092764176,1.2734918525966612,2.5489570446444185,3.1091707173892087,0.4159475213687766,-2.3514769645842155,-3.0,-1.0,3.0,1.5,0.9899384769132064,-0.004670094992975,0.532764870600645,-0.6999999989332959,6
1324,1777301737288825663,0.10475754737854,False,-0.9471292961989256,1.239703503947321,2.5658816893515493,0.081957487590314,-0.2489640465934886,2.41517077704392,-3.0,-1.0,3.0,1.5,0.0583497063899196,0.9882283637994332,0.4985961101934197,-0.6999999658239018,6
1325,1777301737385719920,0.0975341796875,False,-1.0583744753898092,1.154808972077049,2.607332553127125,0.0102576446586495,-0.2430811349431561,2.3483228808413346,-3.0,-1.0,3.0,1.5,-0.0077924148690299,0.989918820715911,0.462463103237395,-0.699999971215293,6
1326,1777301737491901770,0.1066021919250488,False,-1.0583744753898092,1.154808972077049,2.607332553127125,0.0102576446586495,-0.2430811349431561,2.3483228808413346,-3.0,-1.0,3.0,1.5,-0.0077924142474225,0.9899188197402476,0.4371710137014871,-0.6999999519917771,6
1327,1777301737582652569,0.090848684310913,False,-1.311104081155077,0.9922685263509816,2.6845346794157003,-0.0436907431334422,-0.2707146544032253,2.2436720685006635,-3.0,-1.0,3.0,1.5,-0.1111566024226988,0.983689078979456,0.3976994067516959,-0.6999999712600493,6
1328,1777301737686322609,0.1008553504943847,False,-1.423431495330621,0.923331042663206,2.7084806497323486,-0.0227323800011106,-0.2358707749848186,2.2135642243228357,-3.0,-1.0,3.0,1.5,-0.1407185084094352,0.979897085252062,0.3629311159236806,-0.6999999690804082,6
1329,1777301737788661676,0.1030490398406982,False,-1.5669527113420978,0.83744487587519,2.7353871918835817,0.0457740824423518,-0.2648406363505839,2.1853623475248454,-3.0,-1.0,3.0,1.5,-0.1682938268702518,0.9755394285281684,0.3309093398210561,-0.6999999551072639,6
1330,1777301737885553207,0.0965330600738525,False,-1.7008228620249537,0.7575508733677994,2.7536312489801924,0.0472821116097048,-0.2537510213228468,2.1412734918265084,-3.0,-1.0,3.0,1.5,-0.2111267706806387,0.96717396800776,0.3026231530176004,-0.6999999846822379,6
1331,1777301737988012442,0.1042895317077636,False,-1.8396116875271125,0.6725390717117835,2.768954051554632,0.0118980828594852,-0.2503140142973299,2.091420077553188,-3.0,-1.0,3.0,1.5,-0.259061415859779,0.9554512958202492,0.2787730367491186,-0.6999999881661682,6
1332,1777301738086595576,0.0984876155853271,False,-1.9823043864270808,0.5845898763023193,2.7802623687190526,0.0250078324400038,-0.2453417959564783,2.0478673765812307,-3.0,-1.0,3.0,1.5,-0.3004150867327682,0.9432660145959816,0.2583748351148377,-0.6999999853730607,6
1333,1777301738184827511,0.0967640876770019,False,-2.12826928946736,0.4935112621837084,2.788707679819082,0.0189089278828941,-0.2283137722035728,2.001690782492835,-3.0,-1.0,3.0,1.5,-0.3436361939530952,0.9283933248395636,0.2414140186440461,-0.699994516149349,6
1334,1777301738285851918,0.100104808807373,False,-2.2766647992992395,0.3993509946304845,2.7948153760391192,0.0126043190698929,-0.2074634926032703,1.955997323957968,-3.0,-1.0,3.0,1.5,-0.3856866095394094,0.9117220438001448,0.227989883717329,-0.683710059844178,6
1335,1777301738386642215,0.1018626689910888,False,-2.427570841058573,0.3014419952583415,2.7995171810759243,0.0213328907449774,-0.1945852231518708,1.923464922168496,-3.0,-1.0,3.0,1.5,-0.4292056538468259,0.8604724468011924,0.2173377788570904,-0.656067002051669,6
1336,1777301738486724653,0.1014695167541503,False,-2.5788887711379838,0.2005574820515027,2.801850186593501,0.0195069375807041,-0.2068463530875961,1.8711155642511272,-3.0,-1.0,3.0,1.5,-0.4949772338737179,0.7679431234027342,0.2091109742095448,-0.6136615349202114,6
1337,1777301738585347460,0.0993854999542236,False,-2.7308488704208145,0.0962965376506198,2.8025520450926824,0.0249174812860671,-0.1954014716030331,1.8380534168990983,-3.0,-1.0,3.0,1.5,-0.5448755829629857,0.6606465656801874,0.2028907721397742,-0.5697165487305715,6
1338,1777301738684138712,0.0985772609710693,False,-2.88374453536562,-0.0118935837145089,2.803311481074066,0.028822791503022,-0.1913544136829323,1.8016731127865844,-3.0,-1.0,3.0,1.5,-0.5935010132513797,0.5342230168721285,0.1982171326554662,-0.5235851565464078,6
1339,1777301738796613810,0.1121492385864257,False,-3.0523669282707577,-0.1350277004906308,2.804292622301283,0.033417380603186,-0.1868353878549313,1.7639160011109896,-3.0,-1.0,3.0,1.5,-0.6382227545393745,0.3837070149724557,0.1958414398499579,-0.4697516236137712,6
1340,1777301738907035792,0.110001802444458,False,-3.204824076567431,-0.2509254896456877,2.8042146557444108,0.047795730553476,-0.1636539242094122,1.7378080643574,-3.0,-1.0,3.0,1.5,-0.6704930640599879,0.2336204250833262,0.1940558137932423,-0.4223886237075961,6
1341,1777301739007426417,0.1013643741607666,False,-3.3388326653877067,-0.357663294750888,2.803149479136135,0.063011027432778,-0.1104133407170987,1.730580379461535,-3.0,-1.0,3.0,1.5,-0.6708197868154235,0.0980061352026237,0.1923269400064545,-0.38979081294009,6
1342,1777301739084865844,0.0771429538726806,False,-3.481644833983025,-0.4820308574875314,2.8020574325688203,0.0747337932538228,-0.0647248260480565,1.703055412304709,-3.0,-1.0,3.0,1.5,-0.6297416601121796,-0.036812509550641,0.1870550930709731,-0.3597257137900123,6
1343,1777301739187099437,0.1022148132324218,False,-3.6137954462155175,-0.6097006077191104,2.800862810702689,0.0685451528722666,-0.0260724816878579,1.681460028143318,-3.0,-1.0,3.0,1.5,-0.5746240987092012,-0.1943748420831514,0.1882013864575629,-0.3254031962181246,6
1344,1777301739284855666,0.0979840755462646,False,-3.732667726152893,-0.7409577536121124,2.79829132578169,0.0890402571063882,0.0087907915382676,1.651388570309064,-3.0,-1.0,3.0,1.5,-0.4929744037236526,-0.3447814372683074,0.1891371765712879,-0.2896572000724325,6
1345,1777301739391625653,0.1070911884307861,False,-3.8470715591039073,-0.8916736870675114,2.7967936499742674,0.04214733035182,0.0383282652589431,1.6497126480353013,-3.0,-1.0,3.0,1.5,-0.3978387340532723,-0.4833603556093018,0.1913479037712406,-0.2619673682940262,6
1346,1777301739493407731,0.1003291606903076,False,-3.9320843930149256,-1.0316060085506438,2.7979828538979747,0.0118170328934092,0.0666608915941549,1.64211783314918,-3.0,-1.0,3.0,1.5,-0.2903732596850543,-0.6041763986890937,0.1918537108277798,-0.2415834942179615,6
1347,1777301739597915567,0.1043276786804199,False,-3.998377488732169,-1.1706888919353649,2.800387255395118,-0.0227460857744755,0.0866041086887766,1.6348060179416943,-3.0,-1.0,3.0,1.5,-0.1708060915319695,-0.6900635905381415,0.1920221358523081,-0.224015819411827,6
1348,1777301739695741340,0.0986688137054443,False,-4.04589456521475,-1.3058622678021332,2.8042772320306963,-0.06253904364372,0.0917101708781858,1.627952753582683,-3.0,-1.0,3.0,1.5,-0.0463221545254963,-0.6984944619568257,0.1904146630234101,-0.2099209782478937,6
1349,1777301739793518824,0.0975697040557861,False,-4.075062533695983,-1.4345111165232551,2.809443659218026,-0.084016809853585,0.0941435810838868,1.6188350670982936,-3.0,-1.0,3.0,1.5,0.0800117303810704,-0.7046551009047961,0.1877318166084106,-0.1964649341651422,6
1350,1777301739893101739,0.0998666286468505,False,-4.087432036323803,-1.554675079131951,2.8160356951765046,-0.0978905167008322,0.0922904909244386,1.611511807254283,-3.0,-1.0,3.0,1.5,0.2054458251250674,-0.7089500638076773,0.184289843403326,-0.1837208084592773,6
1351,1777301739992734808,0.09963059425354,False,-4.08428867393302,-1.665003395129288,2.8231191428608504,-0.1080651280625323,0.0922198891152722,1.6052409431130388,-3.0,-1.0,3.0,1.5,0.3257919233231304,-0.711641673672847,0.1798504029805993,-0.1722545845515659,6
1352,1777301740099131829,0.105621337890625,False,-4.06911268165985,-1.7560179820494866,2.830272573561124,-0.1190236010061634,0.0903749561459657,1.600562345100837,-3.0,-1.0,3.0,1.5,0.4417621864096721,-0.7134636056951018,0.1751751727733367,-0.1617277455813332,6
1353,1777301740194558856,0.094581127166748,False,-4.035627397676553,-1.855818397286099,2.840094421106212,-0.132681851788869,0.0858270636306025,1.59730228295014,-3.0,-1.0,3.0,1.5,0.5415940473724822,-0.7146047964335795,0.1682388162584538,-0.1541178313520856,6
1354,1777301740292599451,0.0996761322021484,False,-3.9921531682239615,-1.935027472125016,2.8494035267815216,-0.1475463210656123,0.080529532250429,1.5935440020918454,-3.0,-1.0,3.0,1.5,0.6407082130803434,-0.7147582799930836,0.1611850620386328,-0.1469327856832711,6
1355,1777301740393546266,0.1011710166931152,False,-3.937773634899525,-2.0024898163103244,2.859101000403541,-0.1609899573551436,0.0721455055088763,1.5906680377898657,-3.0,-1.0,3.0,1.5,0.6859524864764895,-0.7137710650790139,0.1535753464217604,-0.140647916836284,6
1356,1777301740487401020,0.0936856269836425,False,-3.8810311900791774,-2.052738617205426,2.8679118790465306,-0.1659145424946557,0.070348204620663,1.592387267946647,-3.0,-1.0,3.0,1.5,0.6847243582798191,-0.7149493269643161,0.1452052639137309,-0.1375031737092845,6
1357,1777301740591796609,0.1047842502593994,False,-3.8027528353638544,-2.1015951549359984,2.879585994857198,-0.1811215030918864,0.0571725927710929,1.582252668183268,-3.0,-1.0,3.0,1.5,0.69193479858569,-0.7079733222911245,0.1367002477819425,-0.1304244205529533,6
1358,1777301740692799707,0.1005144119262695,False,-3.724689734116057,-2.1329869470718794,2.889504575390645,-0.1852950798360075,0.0527468725521559,1.577577917468289,-3.0,-1.0,3.0,1.5,0.6952406396113613,-0.704168122784877,0.1276935623847555,-0.1236256201239356,6
1359,1777301740793422852,0.1004841327667236,False,-3.640759165266042,-2.1525628020707286,2.8990597212750244,-0.1872555350539154,0.052033407081229,1.5722612851130224,-3.0,-1.0,3.0,1.5,0.6990089675019934,-0.6770034468557719,0.1186353734691721,-0.1165980629203461,6
1360,1777301740897286795,0.103257417678833,False,-3.55123920444873,-2.161279324606288,2.908588432391717,-0.1896901318637385,0.0511081968387914,1.5698059258760613,-3.0,-1.0,3.0,1.5,0.7006281585392727,-0.6339007542525366,0.1096222016492805,-0.110458965912304,6
1361,1777301740995613449,0.0970561504364013,False,-3.456850425715862,-2.159406496384117,2.9175478769134497,-0.194618700086647,0.046982309192176,1.5679198057581267,-3.0,-1.0,3.0,1.5,0.7016593151160924,-0.5758399709398329,0.1005848505732673,-0.1058213644087192,6
1362,1777301741094490966,0.1000792980194091,False,-3.357872622246928,-2.1474088129457742,2.9255124618076778,-0.1972322424224455,0.0433217737328671,1.5642160558967386,-3.0,-1.0,3.0,1.5,0.7033428740129284,-0.5057043769513508,0.0920213578255197,-0.100911038912767,6
1363,1777301741193429409,0.0993416309356689,False,-3.2549746817137364,-2.125402597109675,2.933071665381701,-0.2006817241599209,0.0396084823391474,1.561554386706749,-3.0,-1.0,3.0,1.5,0.7039791920954336,-0.4273112808010896,0.0838350214199091,-0.0963840137924741,6
1364,1777301741293841382,0.1002521514892578,False,-3.149267275939893,-2.093849309339947,2.9405341925136645,-0.2041111978152617,0.0337351640980357,1.5577601046277083,-3.0,-1.0,3.0,1.5,0.7045025920299185,-0.3408086341376124,0.0759749843196129,-0.091577551823701,6
1365,1777301741393275625,0.0993506908416748,False,-3.0416932337040143,-2.053070969655229,2.9477712057039054,-0.2108460399002908,0.0219244069069117,1.5545410589169693,-3.0,-1.0,3.0,1.5,0.704146492782022,-0.2493741945599359,0.068385746660302,-0.086878141100747,6
1366,1777301741499088191,0.1063137054443359,False,-2.944228784101869,-2.0083705184228178,2.953381242569848,-0.2144717498521431,0.0146834011809941,1.5528628324847569,-3.0,-1.0,3.0,1.5,0.702896325464108,-0.155209536618095,0.0614315284863524,-0.0825437069548735,6
1367,1777301741593800475,0.0943412780761718,False,-2.82562321485979,-1.9435386834084991,2.9589060944005943,-0.2214894522870576,-0.0021642632269511,1.5484660769706011,-3.0,-1.0,3.0,1.5,0.7014800376921745,-0.0584526241656279,0.0549251113665443,-0.0782322094909551,6
1368,1777301741694531595,0.1014084815979003,False,-2.719993213427661,-1.8748467027020188,2.963734106910433,-0.2257977504753288,-0.0190525874494159,1.54585588941623,-3.0,-1.0,3.0,1.5,0.6991505498422108,0.0427816376583541,0.0490076540278004,-0.073776366178707,6
1369,1777301741792104638,0.097928762435913,False,-2.6180137550213978,-1.7971394996497794,2.968787597382608,-0.2270880667951794,-0.0354586926335663,1.5433963872636918,-3.0,-1.0,3.0,1.5,0.6963860575412989,0.1414535015070035,0.0434164195447144,-0.069776333064775,6
1370,1777301741892081498,0.0996713638305664,False,-2.519934388086059,-1.7089939776293772,2.972331780502357,-0.2173451653808382,-0.045398315684232,1.5519447006362268,-3.0,-1.0,3.0,1.5,0.6914103801566915,0.2325182769094959,0.038445539084458,-0.0706275848147119,6
1371,1777301741991733111,0.100147008895874,False,-2.430265560017219,-1.61536748051902,2.978896435886987,-0.233195278143461,-0.060326867692933,1.5310448975643094,-3.0,-1.0,3.0,1.5,0.6532937985326033,0.3399133429758719,0.033169550738635,-0.0625254082887218,6
1372,1777301742095154988,0.1026690006256103,False,-2.345607533371424,-1.5118495214943506,2.982912521236824,-0.2268585076519865,-0.076996224076338,1.531826978991363,-3.0,-1.0,3.0,1.5,0.6004766375217845,0.4295817756504945,0.0282421028003406,-0.0565223782281382,6
1373,1777301742193399335,0.0982222557067871,False,-2.269078537415533,-1.40218795129416,2.9879205869836323,-0.2206203594159711,-0.0950366931766704,1.5248188445352124,-3.0,-1.0,3.0,1.5,0.5274310408655654,0.5140774082757712,0.0234150274013815,-0.049669890748216,6
1374,1777301742292052939,0.0994250774383544,False,-2.2003620528063434,-1.285884017953826,2.9928853624707905,-0.1973627225957714,-0.1201846830058909,1.528560226495822,-3.0,-1.0,3.0,1.5,0.4467666707925146,0.5879508777494282,0.0186070208893839,-0.0463864318089717,6
1375,1777301742402250918,0.1097707748413086,False,-2.137801228796692,-1.1558707961986658,3.0007015926370726,-0.1788223853031968,-0.1455797430827497,1.5212925043938594,-3.0,-1.0,3.0,1.5,0.3438882725920846,0.6673562729222026,0.0128892340471994,-0.0408405408480766,6
1376,1777301742502668687,0.1003334522247314,False,-2.093283803788914,-1.0351794241220795,3.0081034723281928,-0.1682747411087024,-0.1607797714422581,1.5222858933958412,-3.0,-1.0,3.0,1.5,0.2433950366679153,0.7126403532952097,0.006947373916733,-0.0376484013498053,6
1377,1777301742609415523,0.1064796447753906,False,-2.0619948303939126,-0.914775921167502,3.015515722880685,-0.1512952831171607,-0.1744698511577002,1.5200139925331273,-3.0,-1.0,3.0,1.5,0.1357107588520366,0.7078012049639267,0.0004780228929062,-0.0344171476827242,6
1378,1777301742694686998,0.0855827331542968,False,-2.045111599274044,-0.8082312428784169,3.0220042308223034,-0.1383653478883145,-0.1795596455982412,1.5204493500386045,-3.0,-1.0,3.0,1.5,0.0408734018487989,0.7029477144914974,-0.0051689749784436,-0.0327197204079053,6
1379,1777301742802383158,0.1081812381744384,False,-2.039068283614748,-0.6825123301298678,3.0300271613592584,-0.1218074688342619,-0.183881278550395,1.5208706367304865,-3.0,-1.0,3.0,1.5,-0.0726862985009233,0.6972413746926426,-0.0122691584124755,-0.0314615934652793,6
1380,1777301742907064516,0.1040072441101074,False,-2.048524407153449,-0.5768378697705889,3.038287731615607,-0.0865974653232534,-0.1901526270937879,1.5271662421621082,-3.0,-1.0,3.0,1.5,-0.1767573768073977,0.6929499459090214,-0.0194555759698486,-0.0334837403016093,6
1381,1777301743002300050,0.0956411361694336,False,-2.069349533549274,-0.4754503259852813,3.045689561896676,-0.0614762670441311,-0.2061942072090527,1.5131165636879698,-3.0,-1.0,3.0,1.5,-0.2859090038436456,0.6846565728264798,-0.026198701831704,-0.0291780104444938,6
