,recording_time_ns,dt,wind_enabled,pos_x,pos_y,pos_z,pos_roll,pos_pitch,pos_yaw,targetpos_x,targetpos_y,targetpos_z,targetpos_yaw,control_vel_x,control_vel_y,control_vel_z,control_vel_yaw,experiment_id
0,1777300584157548034,1777300584.1569598,False,-0.5472934516694488,0.705846250534333,0.820254872479776,-0.0266705188579374,0.0741310419773874,-0.0153422855129951,-1.0,1.0,2.0,0.0,-0.3,0.3,0.3,0.0092053713077969,0
1,1777300584280438076,0.0972359180450439,False,-0.5484046747233255,0.7057541687015584,0.8212258425500809,-0.0236563220663243,0.0750148486971893,-0.0128582461457212,-1.0,1.0,2.0,0.0,-0.2697803272667399,0.173377123130738,0.3,0.0077149476874327,0
2,1777300584355848560,0.1008453369140625,False,-0.5496405408968471,0.7056751351350302,0.8221590056019294,-0.0282713330007571,0.0725798637309996,-0.0150472653527881,-1.0,1.0,2.0,0.0,-0.2691696895704142,0.1727994794947751,0.3,0.0090283592116729,0
3,1777300584455640323,0.0998420715332031,False,-0.5509378148518709,0.705696228217159,0.8233568226711034,-0.0294723252311915,0.0725612482871594,-0.0178549434276039,-1.0,1.0,2.0,0.0,-0.2686485747179006,0.1717498095927614,0.3,0.0107129660565623,0
4,1777300584555530288,0.0998764038085937,False,-0.5519524892118255,0.7058248349767944,0.8248019533375296,-0.020339539591622,0.0585632271627063,-0.0186117867576888,-1.0,1.0,2.0,0.0,-0.2690123810688869,0.1711419300746385,0.3,0.0111670720546132,0
5,1777300584657310579,0.1015684604644775,False,-0.5533520959426279,0.7052298219936323,0.8261893862307442,-0.0225241969804177,0.0464564240961908,-0.0264476526768215,-1.0,1.0,2.0,0.0,-0.2684860050380673,0.1715795882513211,0.3,0.0158685916060929,0
6,1777300584755216272,0.0980572700500488,False,-0.5545660121525374,0.7047021958044268,0.8274009203583179,-0.0241699275232879,0.0450182428744443,-0.0292235295325815,-1.0,1.0,2.0,0.0,-0.2686581813108697,0.1710159183970741,0.3,0.017534117719549,0
7,1777300584854650463,0.0994849205017089,False,-0.5552593390710835,0.7043404841137255,0.8283959385098716,-0.0241129869885762,0.0524023713127589,-0.026952652302514,-1.0,1.0,2.0,0.0,-0.2694675892016441,0.1712866873786337,0.3,0.0161715913815083,0
8,1777300584955739001,0.101151704788208,False,-0.5558508313458055,0.703691875684667,0.8297322861931596,-0.0328584770228913,0.0609322337015944,-0.0262490477860139,-1.0,1.0,2.0,0.0,-0.269360667207917,0.172698388018611,0.3,0.0157494286716082,0
9,1777300585055370638,0.0996236801147461,False,-0.5562758147786049,0.7030048219717949,0.8312429658901963,-0.0447137924536043,0.0657485279905761,-0.0274591386118872,-1.0,1.0,2.0,0.0,-0.2698041911227918,0.1729235825811493,0.3,0.0164754831671323,0
10,1777300585155372128,0.1000430583953857,False,-0.5549689065387264,0.7015299040316432,0.8339956463177148,0.0370894739917736,0.2116660784002429,0.0195806209831704,-1.0,1.0,2.0,0.0,-0.2672928456934725,0.1887745194520045,0.3,-0.0117483725899023,0
11,1777300585256075745,0.1005122661590576,False,-0.5542161509665989,0.7026183901768992,0.8321866341035081,-0.0348573368333574,0.0659437404428345,-0.0285527213368941,-1.0,1.0,2.0,0.0,-0.274608320143923,0.1674086365083651,0.3,0.0171316328021364,0
12,1777300585353388420,0.09747314453125,False,-0.5580384304576615,0.7029870836328135,0.8385860022510344,0.0434418725622798,0.0546987132563625,0.0711335676277094,-1.0,1.0,2.0,0.0,-0.2401867650616328,0.1946361527548269,0.3,-0.0426801405766256,0
13,1777300585456359223,0.1030144691467285,False,-0.5520109538125082,0.7032186031604384,0.8410208223129505,-0.0442058680907319,0.0538816146706967,-0.0196925469790227,-1.0,1.0,2.0,0.0,-0.2897843245694202,0.1717216769456735,0.3,0.0118155281874135,0
14,1777300585552062475,0.0957734584808349,False,-0.5446470887079871,0.7168865276342814,0.835451415853522,-0.0450914095689908,0.0452598625527394,-0.0263559397641901,-1.0,1.0,2.0,0.0,-0.2995236216809421,0.1192028745577939,0.3,0.015813563858514,0
15,1777300585653239096,0.1011459827423095,False,-0.5475220124943516,0.7192328021520695,0.8491994363265273,-0.046600766927533,0.0418198567960774,-0.0277148688844221,-1.0,1.0,2.0,0.0,-0.2673341674779792,0.1541522614752642,0.3,0.0166289213306533,0
16,1777300585755188456,0.1018610000610351,False,-0.5600145311080922,0.7115904593078711,0.8788231905639367,-0.0319737558282634,0.0314073188367405,-0.0240932728354007,-1.0,1.0,2.0,0.0,-0.2318435778219595,0.1900236964177715,0.3,0.0144559637012403,0
17,1777300585867772435,0.1128032207489013,False,-0.5671888170738675,0.7157637495583565,0.8939570320214701,-0.0492903028105154,0.0426594534977882,-0.0194836974754276,-1.0,1.0,2.0,0.0,-0.2436673798202419,0.1547250168219298,0.3,0.0116902184852566,0
18,1777300585963925655,0.0959856510162353,False,-0.5779066953809304,0.7232008236343334,0.9133831702267666,-0.0559824746577987,0.0368656551637955,-0.0237901248027201,-1.0,1.0,2.0,0.0,-0.2230931670450729,0.1375671889911692,0.3,0.014274074881632,0
19,1777300586063429970,0.0991995334625244,False,-0.5888970858034316,0.7295668736689924,0.9304706106155572,-0.0315877427743783,0.0385939612135244,-0.0215661239339131,-1.0,1.0,2.0,0.0,-0.2164587756343208,0.1383719798788709,0.3,0.0129396743603479,0
20,1777300586168473042,0.1051352024078369,False,-0.6063558826564039,0.7379967066283389,0.959399448109698,0.2073966473013472,-0.1830145066295951,-0.0229923122136897,-1.0,1.0,2.0,0.0,-0.189380186336714,0.1288278582340707,0.3,0.0137953873282139,0
21,1777300586267923895,0.0992145538330078,False,-0.6184965284970602,0.7475515104570085,0.9699573797433232,-0.0422969519125269,0.0468443020329507,-0.0218698612578529,-1.0,1.0,2.0,0.0,-0.1948263907913703,0.1183455705185634,0.3,0.0131219167547116,0
22,1777300586385926511,0.1179258823394775,False,-0.6338584527483734,0.7568783786030528,0.9889037985220922,-0.0336540081131285,0.0407377788574869,-0.0289730394842563,-1.0,1.0,2.0,0.0,-0.1840672808567384,0.1168624961291111,0.3,0.0173838236905538,0
23,1777300586482229501,0.0967242717742919,False,-0.6456790422042545,0.777771004600343,0.9994537407962876,-0.0377622000696258,0.0656620886123468,-0.0251969568930582,-1.0,1.0,2.0,0.0,-0.1776007265804574,0.0640826459190472,0.3,0.015118174135835,0
24,1777300586555350179,0.0731432437896728,False,-0.6593893114863444,0.7864998159109794,1.0166161154937754,-0.0303218798215721,0.0703131909949586,-0.0259343434463387,-1.0,1.0,2.0,0.0,-0.1504768039196228,0.0884261905300038,0.3,0.0155606060678032,0
25,1777300586655847651,0.1007192134857177,False,-0.6798095313656893,0.7860055318057766,1.0436087757579284,-0.0312828951381096,0.0527513388058736,-0.0230599206196262,-1.0,1.0,2.0,0.0,-0.134250666301163,0.1268071231497534,0.3,0.0138359523717757,0
26,1777300586755494176,0.09932541847229,False,-0.6894767357480678,0.8050439348618419,1.0523675575509368,-0.0334182036141568,0.0660595738292759,-0.0260230632361423,-1.0,1.0,2.0,0.0,-0.1586096114705622,0.0553622270062805,0.3,0.0156138379416854,0
27,1777300586856741079,0.1014633178710937,False,-0.7072184700415348,0.8047509853585847,1.0788606517148611,-0.0359051037648449,0.0723229086073992,-0.0087911779844038,-1.0,1.0,2.0,0.0,-0.1242440577371733,0.1169278632097249,0.3,0.0052747067906421,0
28,1777300586959454700,0.1027233600616455,False,-0.7207531056987712,0.8132581748929427,1.0966650471550832,-0.0259603793636561,0.0656187804907156,-0.0230887227905202,-1.0,1.0,2.0,0.0,-0.1299997432909037,0.0842213303152027,0.3,0.0138532336743121,0
29,1777300587065497238,0.1059627532958984,False,-0.7332458918901453,0.8228623814883287,1.1154537065286907,-0.0427062929971812,0.0723242198078318,-0.0191555023295178,-1.0,1.0,2.0,0.0,-0.1261751610213027,0.0766885683294507,0.3,0.0114933013977108,0
30,1777300587167087242,0.1012885570526123,False,-0.7439707398108267,0.8306979804111588,1.133114360189498,-0.0292808638748919,0.0601362432401763,-0.0266673519472628,-1.0,1.0,2.0,0.0,-0.1238987654755824,0.075096500486093,0.3,0.0160004111683575,0
31,1777300587257520572,0.0906529426574707,False,-0.7525153754318795,0.8376726554412526,1.1493797748233714,-0.0332112652155421,0.0605258469724016,-0.0262472938953083,-1.0,1.0,2.0,0.0,-0.1221227388525866,0.071134422281228,0.3,0.0157483763371849,0
32,1777300587368072724,0.1107931137084961,False,-0.761974221308504,0.8453126346340017,1.1692882617192812,-0.030357658966561,0.0619389565079573,-0.0274077381681547,-1.0,1.0,2.0,0.0,-0.1191358070218025,0.0688863065686139,0.3,0.0164446429008928,0
33,1777300587466560245,0.0983810424804687,False,-0.7691174882248326,0.8521251631266625,1.187587661009629,-0.0182855826953794,0.0765312211567732,-0.0223600882552083,-1.0,1.0,2.0,0.0,-0.1182371373701421,0.0653237527956658,0.3,0.013416052953125,0
34,1777300587558618054,0.0917727947235107,False,-0.7750190551086642,0.8577942044703808,1.2041329672518128,-0.0274576755607464,0.0799939362506574,-0.0169146066136029,-1.0,1.0,2.0,0.0,-0.1168098347520142,0.0648252814277413,0.3,0.0101487639681616,0
35,1777300587662915370,0.1045958995819091,False,-0.7775495835521783,0.8669998464022534,1.2178546687903256,-0.0308194888095076,0.0754210274781794,-0.022166143848696,-1.0,1.0,2.0,0.0,-0.127364731160717,0.0505861155617993,0.3,0.0132996863092175,0
36,1777300587766876352,0.1036145687103271,False,-0.8068129188590035,0.8821513119492729,1.2701144425295934,3.138549496239686,-0.0629431725759826,-1.561128688095399,-1.0,1.0,2.0,0.0,-0.0271407057780948,-0.0309238381584276,0.3,0.9366772128572396,0
37,1777300587873674922,0.1068854331970214,False,-0.7883492824578806,0.8781822182538694,1.2588547932521268,-0.0288126426597267,0.0741991972538472,-0.0141537699894146,-1.0,1.0,2.0,0.0,-0.1799873573602391,0.0816916650436764,0.3,0.0084922619936488,0
38,1777300587966430607,0.0925300121307373,False,-0.7916378137337324,0.8821113084319369,1.2776281858397802,-0.0280871677477951,0.0767355010384652,0.0149779672837871,-1.0,1.0,2.0,0.0,-0.1134738322735394,0.0597005932375834,0.3,-0.0089867803702723,0
39,1777300588068860471,0.1029376983642578,False,-0.7949292109548363,0.8854655150138145,1.296531892815852,-0.0315591712665288,0.0704322611633765,0.0238138274965183,-1.0,1.0,2.0,0.0,-0.1120143310554912,0.0616299565221812,0.3,-0.0142882964979111,0
40,1777300588165862556,0.0967741012573242,False,-0.7974642038627985,0.8886326251108327,1.310807151593224,-0.017937115608746,0.0701808322493423,0.0235333854184041,-1.0,1.0,2.0,0.0,-0.1122901841678787,0.0596612185734743,0.3,-0.0141200312510425,0
41,1777300588268279577,0.1025624275207519,False,-0.8012258098397056,0.8912239104083574,1.3331490117713152,-0.0296346153563542,0.060866459498383,0.0202669237401005,-1.0,1.0,2.0,0.0,-0.1070703653993633,0.0598681537993133,0.3,-0.0121601542440604,0
42,1777300588360660828,0.09244966506958,False,-0.8036402847856524,0.8928438805533265,1.347618223314075,-0.0346292537340339,0.0701521861302017,0.0293380610730791,-1.0,1.0,2.0,0.0,-0.1082017296451004,0.062237610186125,0.3,-0.0176028366438474,0
43,1777300588467203538,0.1066064834594726,False,-0.8074870788982018,0.8955698946251267,1.368856926972253,-0.0300814032301224,0.0630622907541326,0.0268835722869268,-1.0,1.0,2.0,0.0,-0.1031666461945349,0.0577808529399153,0.3,-0.0161301433721561,0
44,1777300588565345107,0.0980639457702636,False,-0.8105952857191294,0.8970559136275333,1.3864717574750849,-0.0314359324487893,0.0693863650821223,0.0302426310910592,-1.0,1.0,2.0,0.0,-0.1023562653897678,0.0603430246013496,0.3,-0.0181455786546355,0
45,1777300588665684023,0.1002547740936279,False,-0.8137023244979498,0.8989337413728916,1.4042899122289114,-0.0318929276776624,0.0691801749519631,0.0251898827771622,-1.0,1.0,2.0,0.0,-0.1010628488264847,0.057584348756636,0.3,-0.0151139296662972,0
46,1777300588767266211,0.1008718013763427,False,-0.8170225725175856,0.900380322107102,1.4220857681785133,-0.0315072048137848,0.0680773669753952,0.0244153674586074,-1.0,1.0,2.0,0.0,-0.0985278466611908,0.0578921802692642,0.3,-0.0146492204751644,0
47,1777300588866553520,0.0999600887298584,False,-0.8204465126334773,0.9016481728289176,1.4399987020412317,-0.0291677538059874,0.0646651916579809,0.0211285832313606,-1.0,1.0,2.0,0.0,-0.0962680802625726,0.0572526611049053,0.3,-0.0126771499388163,0
48,1777300588966439194,0.0998525619506836,False,-0.8241879105769305,0.9031123158501532,1.457891849875625,-0.0314425859616982,0.0640161984701056,0.0250224810320849,-1.0,1.0,2.0,0.0,-0.0928725730976933,0.0560749094727255,0.3,-0.015013488619251,0
49,1777300589065528781,0.0991208553314209,False,-0.8270045878210153,0.9042623133533472,1.4762528403843582,-0.0316202214480948,0.070075570238006,0.023310543151219,-1.0,1.0,2.0,0.0,-0.093988615180404,0.0561680069318251,0.3,-0.0139863258907314,0
50,1777300589166321406,0.1001114845275878,False,-0.8307438932123755,0.905731597984586,1.4946790639371867,-0.0308287438629552,0.0729597337504235,0.022836539710285,-1.0,1.0,2.0,0.0,-0.0891336756891443,0.0542075579364378,0.3,-0.0137019238261711,0
51,1777300589266510385,0.1008851528167724,False,-0.8334139897066475,0.9068407812198036,1.513365282375802,-0.0339532909131923,0.057956014575321,0.0150050349939148,-1.0,1.0,2.0,0.0,-0.0912120469726981,0.0539718414317159,0.2919808305745188,-0.0090030209963488,0
52,1777300589367735927,0.1012234687805175,False,-0.8355262798833967,0.908028517359832,1.5322936726879752,-0.0318050306661371,0.0669551638176099,0.0206010689140093,-1.0,1.0,2.0,0.0,-0.0913401096593005,0.0535556840037571,0.2806237963872148,-0.0123606413484055,0
53,1777300589465242414,0.0975308418273925,False,-0.8432008577617244,0.910633122077016,1.553561641678009,-0.0202248484212283,0.0617301717036517,0.0401575188724071,-1.0,1.0,2.0,0.0,-0.0685850197117928,0.0484009778187475,0.2678630149931946,-0.0240945113234442,0
