,recording_time_ns,dt,wind_enabled,pos_x,pos_y,pos_z,pos_roll,pos_pitch,pos_yaw,targetpos_x,targetpos_y,targetpos_z,targetpos_yaw,control_vel_x,control_vel_y,control_vel_z,control_vel_yaw,experiment_id
54,1777300665009819964,1777300665.009414,False,-0.7923574119373015,0.7582348335357408,0.8160747401108736,-0.0129750258473984,0.0619198785722689,-0.0890966846350912,-2.0,0.0,2.0,0.0,-0.3,-0.3,0.3,0.0534580107810548,1
55,1777300665095617289,0.0853333473205566,False,-0.7918475323361951,0.7574287448175369,0.8166365577750624,-0.0055138977874716,0.055716222931219,-0.0920627939173134,-2.0,0.0,2.0,0.0,-0.3,-0.3,0.3,0.0552376763503881,1
56,1777300665196102940,0.1005868911743164,False,-0.7915687784223604,0.7561744539803413,0.8178368313935829,-0.0139150493795272,0.0595187450917667,-0.0948214423822257,-2.0,0.0,2.0,0.0,-0.3,-0.3,0.3,0.0568928654293353,1
57,1777300665295249134,0.099353551864624,False,-0.7909501117695261,0.7557621020422917,0.818242984639149,-0.0137396942674527,0.0602627578213216,-0.0959770064900409,-2.0,0.0,2.0,0.0,-0.3,-0.3,0.3,0.0575862038940245,1
58,1777300665389635143,0.0943777561187744,False,-0.7904695011709881,0.7551524899463652,0.8195682402996345,-0.0227636451341824,0.0612435291202602,-0.0897240169640675,-2.0,0.0,2.0,0.0,-0.3,-0.3,0.3,0.0538344101784404,1
59,1777300665499543329,0.1097991466522216,False,-0.7900653326393451,0.7544220667530341,0.8203070444918017,-0.0070830336042959,0.055709035173128,-0.090806028518015,-2.0,0.0,2.0,0.0,-0.3,-0.3,0.3,0.0544836171108091,1
60,1777300665595649541,0.0959115028381347,False,-0.7900536258681448,0.7533632563085021,0.8212664456712727,-0.0093233723593107,0.0617885565118297,-0.0914925155671676,-2.0,0.0,2.0,0.0,-0.3,-0.3,0.3,0.0548955093403006,1
61,1777300665695293390,0.0997083187103271,False,-0.7899084843148012,0.7522748664703945,0.8223878712728465,-0.0202980395989206,0.0613219305063877,-0.0925948797158851,-2.0,0.0,2.0,0.0,-0.3,-0.3,0.3,0.055556927829531,1
62,1777300665797594630,0.1025211811065673,False,-0.7890400657992321,0.7513322381180452,0.8234195694338948,-0.0120960610662542,0.0684888646562425,-0.0916473589344134,-2.0,0.0,2.0,0.0,-0.3,-0.3,0.3,0.054988415360648,1
63,1777300665897723501,0.1001272201538086,False,-0.7876914408923733,0.7505294027649594,0.8239596161740875,-0.0214598703883889,0.0680506458607988,-0.0907459333077453,-2.0,0.0,2.0,0.0,-0.3,-0.3,0.3,0.0544475599846472,1
64,1777300665997802907,0.1000566482543945,False,-0.786197235431651,0.7502553207739,0.823842499603218,-0.0386121872765509,0.0386835954425522,-0.1079955454160136,-2.0,0.0,2.0,0.0,-0.3,-0.3,0.3,0.0647973272496081,1
65,1777300666098584402,0.1007306575775146,False,-0.7764799369376022,0.7637177140333338,0.80877421115048,-0.0071701572205882,0.0714300710237477,-0.0934875374441611,-2.0,0.0,2.0,0.0,-0.3,-0.3,0.3,0.0560925224664967,1
66,1777300666195357096,0.0968027114868164,False,-0.7820706065091588,0.7495399643490319,0.824471460810776,-0.0164602692485127,0.0615780559292691,-0.0916786958994688,-2.0,0.0,2.0,0.0,-0.3,-0.3,0.3,0.0550072175396811,1
67,1777300666295730292,0.1001529693603515,False,-0.7804797741742631,0.7489283112892033,0.8250069822084644,-0.0155364483962879,0.057894014252418,-0.0940218238119064,-2.0,0.0,2.0,0.0,-0.3,-0.3,0.3,0.0564130942871438,1
68,1777300666395459120,0.0998532772064209,False,-0.778956633022334,0.7486367783231299,0.8251908328162708,-0.015364636521996,0.0584738680324178,-0.0956267639498093,-2.0,0.0,2.0,0.0,-0.3,-0.3,0.3,0.0573760583698856,1
69,1777300666495636948,0.1002001762390136,False,-0.7789350966421599,0.746862128184682,0.8288152982467306,-0.0047865123951424,0.0337333818275603,-0.0898026718656407,-2.0,0.0,2.0,0.0,-0.3,-0.3,0.3,0.0538816031193843,1
70,1777300666595480571,0.1000704765319824,False,-0.7812757050975817,0.743533544840297,0.8358784800662877,0.0121051674963359,0.0233738242624133,-0.0906446785740811,-2.0,0.0,2.0,0.0,-0.3,-0.3,0.3,0.0543868071444486,1
71,1777300666697673757,0.1016683578491211,False,-0.787599176412663,0.7367700140253163,0.8473116717014886,0.0253246134368207,0.0212529705404127,-0.09042320895587,-2.0,0.0,2.0,0.0,-0.3,-0.3,0.3,0.0542539253735219,1
72,1777300666802334574,0.1048321723937988,False,-0.7975141392940838,0.7275306890796935,0.8603220928040595,0.0168656308061715,0.0194212778047722,-0.0932562380364608,-2.0,0.0,2.0,0.0,-0.3,-0.3,0.3,0.0559537428218765,1
73,1777300666895589220,0.0932347774505615,False,-0.8054010723932787,0.7270726827032234,0.8622458647613769,0.0269948222343994,0.024053870533049,-0.099445341841435,-2.0,0.0,2.0,0.0,-0.3,-0.3,0.3,0.0596672051048609,1
74,1777300666996482812,0.1011009216308593,False,-0.8293507399668175,0.6996845252751661,0.8923498007847528,0.0129412172812241,0.0129575902897852,-0.1046447407554466,-2.0,0.0,2.0,0.0,-0.3,-0.3,0.3,0.062786844453268,1
75,1777300667095431025,0.0989937782287597,False,-0.8505976409342241,0.6814053272460648,0.9103811783017832,0.021426979239229,0.018479310577597,-0.1044911078492387,-2.0,0.0,2.0,0.0,-0.3,-0.3,0.3,0.0626946647095432,1
76,1777300667195688531,0.1002490520477294,False,-0.8695468172684122,0.6717153920520732,0.9167830772941696,0.0196537032076843,0.0246666873155763,-0.1147506946053419,-2.0,0.0,2.0,0.0,-0.3,-0.3,0.3,0.0688504167632052,1
77,1777300667295298150,0.0995798110961914,False,-0.8967678564510596,0.6487347623343482,0.9353850441930016,0.0157016636090424,0.0292634914463137,-0.1161464975946839,-2.0,0.0,2.0,0.0,-0.3,-0.3,0.3,0.0696878985568102,1
78,1777300667395408765,0.10005784034729,False,-0.9260027360131576,0.6237605751046,0.954124358483537,0.01381435937957,0.0361900167869335,-0.1203430042298392,-2.0,0.0,2.0,0.0,-0.3,-0.3,0.3,0.0722058025379035,1
79,1777300667499107465,0.1035351753234863,False,-0.9575719241689796,0.5975316656444806,0.9723027870241764,0.0147310327927293,0.0359352970754724,-0.1230588685718361,-2.0,0.0,2.0,0.0,-0.3,-0.3,0.3,0.0738353211431016,1
80,1777300667596368935,0.0974359512329101,False,-0.991041756433395,0.5696161860147635,0.9907664051969745,0.011164426172563,0.0359950552713509,-0.1290763614577064,-2.0,0.0,2.0,0.0,-0.3,-0.3,0.3,0.0774458168746238,1
81,1777300667706675329,0.1101267337799072,False,-1.029710138325996,0.5378072495670363,1.0107232340120844,0.0108898177590997,0.0363690746024125,-0.1309642541346247,-2.0,0.0,2.0,0.0,-0.3,-0.2962813739125186,0.3,0.0785785524807747,1
82,1777300667815282909,0.1089890003204345,False,-1.065831597900069,0.505232741113711,1.031442209872734,-0.0139371183502328,0.0054480471803035,-0.1462677681370947,-2.0,0.0,2.0,0.0,-0.3,-0.2783965448482356,0.3,0.0877606608822568,1
83,1777300667907299026,0.0916159152984619,False,-1.1037215055016012,0.4735854048877564,1.0500153596311417,0.0027325731723784,0.0341651892964627,-0.1316235983403806,-2.0,0.0,2.0,0.0,-0.3,-0.233254224899104,0.3,0.0789741590042283,1
84,1777300668007279136,0.1000552177429199,False,-1.1425425692375697,0.4423986475210756,1.068252812466547,0.0026887763596141,0.0373052212056562,-0.1306039494432747,-2.0,0.0,2.0,0.0,-0.3,-0.2223088503075951,0.3,0.0783623696659649,1
85,1777300668106430954,0.0991795063018798,False,-1.1826369065699955,0.4106279791721797,1.0864269799872546,-0.0101279235789177,0.0400014060893031,-0.1372687340859077,-2.0,0.0,2.0,0.0,-0.3,-0.1993750669618053,0.3,0.0823612404515446,1
86,1777300668199157767,0.0924932956695556,False,-1.2187607112597505,0.3836890450045636,1.1035189944215336,-0.0272721437575046,0.0258857012568625,-0.1378303496691876,-2.0,0.0,2.0,0.0,-0.3,-0.1897876377064946,0.3,0.0826982098015125,1
87,1777300668305673244,0.1068980693817138,False,-1.2631935903410745,0.3511960582323709,1.122967360118098,-0.0245037149467345,0.035857848433699,-0.1412208520076928,-2.0,0.0,2.0,0.0,-0.2974033450346219,-0.163011825085739,0.3,0.0847325112046157,1
88,1777300668405921400,0.1000936031341552,False,-1.303534285572311,0.3229151463655094,1.1401194020639591,-0.0127204914067596,0.0313910793460817,-0.1361377411964329,-2.0,0.0,2.0,0.0,-0.2794315377303779,-0.1482814396694124,0.3,0.0816826447178597,1
89,1777300668509468745,0.1031761169433593,False,-1.3450836461722255,0.2953974771907696,1.1574909978245804,-0.0233297655006431,0.0462898500251569,-0.1442828690997716,-2.0,0.0,2.0,0.0,-0.2553315754736615,-0.1353453678596259,0.3,0.086569721459863,1
90,1777300668605743825,0.096733808517456,False,-1.3854570348690285,0.2715087352955173,1.1738773920564027,-0.0329147886339082,0.0377131576405022,-0.1463843301923001,-2.0,0.0,2.0,0.0,-0.2279562442832633,-0.1233890536359907,0.3,0.08783059811538,1
91,1777300668706845218,0.101262092590332,False,-1.4278126248557732,0.2466008951026801,1.191008248293304,-0.0297134984794547,0.0534389921512301,-0.142260189520373,-2.0,0.0,2.0,0.0,-0.2051132219176883,-0.104303128138881,0.3,0.0853561137122238,1
92,1777300668806170183,0.0991637706756591,False,-1.4676702799094166,0.2258242440089861,1.207493990923007,-0.0275535731914149,0.0557146807329109,-0.1470848371408699,-2.0,0.0,2.0,0.0,-0.1860242011940602,-0.1009922291129,0.3,0.0882509022845219,1
93,1777300668905113095,0.0989880561828613,False,-1.5065326712231717,0.2069025155427108,1.2235745237132902,-0.0283810931198758,0.0636919644555498,-0.1403883947664673,-2.0,0.0,2.0,0.0,-0.1672005742588989,-0.091088161891816,0.3,0.0842330368598803,1
94,1777300669000262059,0.0949831008911132,False,-1.540453062149649,0.1915517909387164,1.238054566976533,-0.0305622319842937,0.0638011603618948,-0.1421808669583919,-2.0,0.0,2.0,0.0,-0.1574752521194338,-0.0896658744362466,0.3,0.0853085201750351,1
95,1777300669101265052,0.1011157035827636,False,-1.580253385907765,0.1769355781799186,1.256205401785789,-0.0182383700849326,0.0706915429988491,-0.1264674857425014,-2.0,0.0,2.0,0.0,-0.1247756017155256,-0.0791668118685027,0.3,0.0758804914455007,1
96,1777300669208587869,0.1074144840240478,False,-1.618700251774538,0.1624250462865875,1.274294400163639,-0.0319670559025385,0.0592041087129111,-0.1292173669913076,-2.0,0.0,2.0,0.0,-0.1130530680761425,-0.0720971524877017,0.3,0.0775304201947846,1
97,1777300669308758393,0.0999271869659423,False,-1.6486652885430684,0.1488150193126343,1.2887538700471193,-0.0054364615763162,0.0473836493607728,-0.1098297074022829,-2.0,0.0,2.0,0.0,-0.1148038487401637,-0.061382562123102,0.3,0.0658978244413697,1
98,1777300669413574144,0.1048815250396728,False,-1.679234236786309,0.1374706617009164,1.305427509047475,0.0063893068628033,0.0495726492325506,-0.0999597918713006,-2.0,0.0,2.0,0.0,-0.0995037033284838,-0.0602639741440954,0.3,0.0599758751227803,1
99,1777300669533891614,0.120434284210205,False,-1.7073861915390816,0.1279650624152672,1.3216831368178426,-0.0011402605060585,0.0654307112693323,-0.1024787813157876,-2.0,0.0,2.0,0.0,-0.0994568211085151,-0.0636088300361019,0.3,0.0614872687894726,1
100,1777300669617843464,0.0839509963989257,False,-1.7340180604259563,0.1192582778842526,1.3389837511342104,-0.0142362003247151,0.0670442440158442,-0.1169553848163913,-2.0,0.0,2.0,0.0,-0.0592607078786052,-0.0476819644320401,0.3,0.0701732308898346,1
101,1777300669725407647,0.1075737476348877,False,-1.7604155275918925,0.1107925868118653,1.357572620430756,-0.0106259529987477,0.0708249645316634,-0.1138401586544766,-2.0,0.0,2.0,0.0,-0.0648104712092892,-0.0505559107452807,0.3,0.0683040951926858,1
102,1777300669820837356,0.095491886138916,False,-1.7802189817677274,0.1046355506696709,1.3733482541168398,-0.025333663330583,0.077319560738847,-0.1197435712486875,-2.0,0.0,2.0,0.0,-0.0639657280368228,-0.0514478080041161,0.3,0.0718461427492125,1
103,1777300669905486419,0.0841531753540039,False,-1.7972814488139952,0.0975955295358893,1.3890829976439414,-0.0246322870873623,0.0527879143846998,-0.1203934392629122,-2.0,0.0,2.0,0.0,-0.0563458714118726,-0.0405207587129433,0.3,0.0722360635577473,1
104,1777300670006381958,0.1011755466461181,False,-1.813386778070484,0.0912501584187493,1.406222918042135,-0.0093677645340989,0.0728461389282552,-0.1088382509011942,-2.0,0.0,2.0,0.0,-0.0599299675980737,-0.0426976061952189,0.3,0.0653029505407164,1
105,1777300670105983019,0.099179983139038,False,-1.826338705724816,0.0840652373427967,1.422615040543567,-0.0366473768043791,0.0807059215087388,-0.1351960428324331,-2.0,0.0,2.0,0.0,-0.0605572773592291,-0.0372078761359543,0.3,0.0811176256994599,1
106,1777300670206251723,0.1007230281829834,False,-1.8369339490638492,0.0789175063623129,1.4390246377856049,-0.0138936793211751,0.080574788557736,-0.1244928810486421,-2.0,0.0,2.0,0.0,-0.0617933523362523,-0.0400007196284783,0.3,0.0746957286291852,1
107,1777300670305819130,0.0997343063354492,False,-1.8462025303370393,0.0738098896402031,1.4558034905174733,-0.0264161694157479,0.0831610523233421,-0.1259521606614204,-2.0,0.0,2.0,0.0,-0.0602553319088689,-0.0367828777658418,0.3,0.0755712963968522,1
108,1777300670405539243,0.0995550155639648,False,-1.8531387338832792,0.0686897032743758,1.4720297717651476,-0.0214649371163771,0.0732555644952612,-0.1214631673277601,-2.0,0.0,2.0,0.0,-0.0635957421917573,-0.0337387388442005,0.3,0.0728779003966559,1
109,1777300670505525886,0.1001198291778564,False,-1.85937732012781,0.0645323481337678,1.4883947940008586,-0.032500711768543,0.0773054046323688,-0.1278467762777383,-2.0,0.0,2.0,0.0,-0.0617958070684945,-0.0344220894181571,0.3,0.076708065766643,1
110,1777300670606480878,0.1003298759460449,False,-1.8637103939005495,0.0610846084301856,1.5044723166543323,-0.0228266484925977,0.0553974574224055,-0.1261593968566387,-2.0,0.0,2.0,0.0,-0.0649559280800739,-0.0347911374222964,0.2973166100074005,0.0756956381139831,1
111,1777300670705984243,0.1002669334411621,False,-1.868663107787622,0.0576876051844908,1.521671378613329,-0.030402483343617,0.0714614086640998,-0.1160583897364243,-2.0,0.0,2.0,0.0,-0.0607220088067285,-0.0316933810319456,0.2869971728320027,0.0696350338418545,1
112,1777300670805273279,0.0992112159729003,False,-1.8724912580248323,0.0560409584546392,1.5381956468817175,-0.0272888250239136,0.0720546626324548,-0.1181147212002162,-1.0,1.0,3.0,-1.5,0.3,0.3,0.3,-0.8291311672798702,1
113,1777300670905466843,0.1000168323516845,False,-1.8761968008540393,0.0543002643563883,1.5543993986199989,-0.0347808354425092,0.0664564519468235,-0.1146861523079726,-1.0,1.0,3.0,-1.5,0.3,0.3,0.3,-0.8311883086152163,1
114,1777300671005683203,0.1001584529876709,False,-1.8784164074608811,0.0548893919553477,1.5711577660161926,-0.0416013160365394,0.0903572990493524,-0.1462801322317263,-1.0,1.0,3.0,-1.5,0.3,0.3,0.3,-0.8122319206609642,1
115,1777300671105529583,0.099966287612915,False,-1.878330017608631,0.0576566409906578,1.588379427897748,-0.0534483272390373,0.1236832763965097,-0.1728974535331773,-1.0,1.0,3.0,-1.5,0.3,0.3,0.3,-0.7962615278800936,1
116,1777300671208355599,0.1028873920440673,False,-1.8734396529820296,0.0633634741387698,1.6055129538394346,-0.060618800876819,0.1425066723540855,-0.1973458962407693,-1.0,1.0,3.0,-1.5,0.3,0.3,0.3,-0.7815924622555385,1
117,1777300671306708345,0.0981884002685546,False,-1.8620404340094987,0.073023096171533,1.6225473338565557,-0.0688114060512193,0.151778144956315,-0.217973670279814,-1.0,1.0,3.0,-1.5,0.3,0.3,0.3,-0.7692157978321116,1
118,1777300671408591379,0.101764440536499,False,-1.8437203088239975,0.0871996673510465,1.6397682354487213,-0.0559112224531752,0.1605516821801911,-0.2529145394948829,-1.0,1.0,3.0,-1.5,0.3,0.3,0.3,-0.7482512763030703,1
119,1777300671505574339,0.0974352359771728,False,-1.817144808219296,0.1051717926092017,1.6569428896497276,-0.0493691417289096,0.1544145804380916,-0.2733128478076959,-1.0,1.0,3.0,-1.5,0.2633160883278563,0.3,0.3,-0.7360122913153825,1
120,1777300671605613079,0.0998175144195556,False,-1.7850327228847025,0.1261051915281122,1.6743860389802143,-0.0368911976648667,0.157961881970409,-0.3042351664809958,-1.0,1.0,3.0,-1.5,0.2190833383658942,0.3,0.3,-0.7174589001114025,1
121,1777300671705612587,0.1001348495483398,False,-1.7454529189078345,0.1501334959253862,1.691276457431207,-0.0328084481041584,0.1398104999628275,-0.342363890121045,-1.0,1.0,3.0,-1.5,0.1625959200930016,0.3,0.3,-0.6945816659273729,1
122,1777300671804913880,0.0992965698242187,False,-1.7016677695415177,0.1770864971045034,1.7083803744332344,-0.0263760714675107,0.1479638024314552,-0.3912822762130369,-1.0,1.0,3.0,-1.5,0.1096471005848477,0.3,0.3,-0.6652306342721779,1
123,1777300671904880952,0.1001129150390625,False,-1.6543884183276876,0.2044510369189291,1.724463464470277,-0.0384257051701062,0.117128751268816,-0.412078085746139,-1.0,1.0,3.0,-1.5,0.071612991693635,0.3,0.3,-0.6527531485523165,1
124,1777300672005057028,0.1002182960510253,False,-1.6060919197933734,0.2353773723455491,1.741044373469081,-0.0083232997379679,0.0938274761484685,-0.4185540585232156,-1.0,1.0,3.0,-1.5,0.0513327506948945,0.3,0.3,-0.6488675648860704,1
125,1777300672106205023,0.101109504699707,False,-1.5561130855256902,0.2643685742724152,1.7558254024043545,-0.0208430027540559,0.0780088020150875,-0.464628810979681,-1.0,1.0,3.0,-1.5,0.0064910358983207,0.3,0.3,-0.6212227134121914,1
126,1777300672216375529,0.1097240447998046,False,-1.50284677353228,0.299481285784854,1.773386303856794,-0.0138642019631366,0.084436984349572,-0.4997771205404026,-1.0,1.0,3.0,-1.5,-0.0184365004252316,0.3,0.3,-0.6001337276757585,1
127,1777300672305823585,0.0896742343902587,False,-1.4622708519707148,0.3302891438766117,1.7877129039717834,-0.0091461157714777,0.0809283095720717,-0.5060149649877204,-1.0,1.0,3.0,-1.5,-0.0209369662919295,0.3,0.3,-0.5963910210073677,1
128,1777300672415396047,0.109292984008789,False,-1.4126130359082305,0.3684487738953264,1.8050668989138507,-0.0116633951173589,0.070789449523599,-0.5438821795006749,-1.0,1.0,3.0,-1.5,-0.046673686911427,0.2921959752500513,0.3,-0.5736706922995951,1
129,1777300672515174355,0.1001057624816894,False,-1.3700911549356185,0.4042183345289146,1.8210618184315663,-0.0166937889748615,0.0805863738851862,-0.553066910408751,-1.0,1.0,3.0,-1.5,-0.0509515488581499,0.2626680939165419,0.3,-0.5681598537547494,1
130,1777300672616213189,0.1010603904724121,False,-1.328570632537674,0.4419827845703192,1.8367207622818875,0.0011678477584518,0.0757627786099471,-0.6142005589024194,-1.0,1.0,3.0,-1.5,-0.0679628591264774,0.2245847186825134,0.3,-0.5314796646585483,1
131,1777300672715728087,0.0989830493927002,False,-1.2896464600251751,0.4798601685380573,1.8525138850640497,0.0080352667294983,0.0728444512139253,-0.6306317704676366,-1.0,1.0,3.0,-1.5,-0.071249906340132,0.1922496505969934,0.3,-0.5216209377194181,1
132,1777300672808064766,0.0927526950836181,False,-1.2569372630232918,0.5149370399845541,1.8666047383040711,0.0187530091815333,0.0741063940852942,-0.6729217731341632,-1.0,1.0,3.0,-1.5,-0.0728603814802484,0.1690182540120108,0.3,-0.4962469361195019,1
133,1777300672916098789,0.1080870628356933,False,-1.215983731608637,0.5545343002977767,1.8842588300324263,0.0016119161422894,0.0698599314532799,-0.6840623182082423,-1.0,1.0,3.0,-1.5,-0.0871132007523503,0.1320298847582682,0.3,-0.4895626090750545,1
134,1777300673016726894,0.1004476547241211,False,-1.1827873428543605,0.5916961215014777,1.9003229248798876,0.044330343216473,0.0568636570459128,-0.7139865169829225,-1.0,1.0,3.0,-1.5,-0.0797901137292224,0.1081603949838495,0.3,-0.4716080898102465,1
135,1777300673115928636,0.0994417667388916,False,-1.1514680894533202,0.6255045192497575,1.9172040574992877,0.0436922577874544,0.0685847846950229,-0.7239778673458269,-1.0,1.0,3.0,-1.5,-0.0839749083173832,0.0895386258244184,0.3,-0.4656132795925038,1
136,1777300673207435448,0.0913593769073486,False,-1.1268760928004815,0.6559158122741903,1.9315326576047305,0.0844003273816575,0.0577807905808857,-0.7789047088108307,-1.0,1.0,3.0,-1.5,-0.0781716562837997,0.0726056898340205,0.3,-0.4326571747135015,1
137,1777300673412249839,0.2049586772918701,False,-1.1036726045920426,0.6828552601898842,1.946783458024886,0.0348380394386306,0.0403987596422812,-0.8264778795839004,-1.0,1.0,3.0,-1.5,-0.0918295591503877,0.1229722625233416,0.3,-0.4041132722496597,1
138,1777300673418541470,0.0063703060150146,False,-1.0784218792337263,0.7144052289587494,1.968093460166813,0.0709748278983402,0.0349680845376356,-0.838863478655858,-1.0,1.0,3.0,-1.5,0.2145221779152916,-0.3,0.3,-0.3966819128064852,1
139,1777300673622577361,0.2038745880126953,False,-1.056352187918121,0.7294105366052459,1.9828265279340929,0.0008044963494092,0.0412594489313266,-0.8459939321050162,-1.0,1.0,3.0,-1.5,-0.1041272961848426,0.0939996737428422,0.3,-0.3924036407369902,1
140,1777300673625988182,0.0035429000854492,False,-1.0404714237042323,0.756574523416565,2.004789731083102,0.0656336162779227,0.0317511157393396,-0.914815684540448,-1.0,1.0,3.0,-1.5,0.3,-0.3,0.3,-0.3511105892757313,1
141,1777300673832901754,0.206634521484375,False,-1.022215756755379,0.7639123650759339,2.021167125140082,-0.0022387808983375,-0.011935202615008,-0.9359831652611136,-1.0,1.0,3.0,-1.5,-0.1132913106203256,0.0670779418162314,0.3,-0.3384101008433319,1
142,1777300673835697386,0.0030739307403564,False,-1.0122856024114786,0.771278040562978,2.035192052476632,0.1338980699390942,0.026498679508338,-0.931364386491784,-1.0,1.0,3.0,-1.5,-0.1072094950418909,-0.3,0.3,-0.3411813681049297,1
143,1777300674072106399,0.2362275123596191,False,-1.0091294917967784,0.7642131681815918,2.0514087196595043,0.1567757159454528,0.0413166991741095,-0.9335789036943534,-1.0,1.0,3.0,-1.5,-0.1200458746932261,0.0906896398544545,0.3,-0.3398526577833879,1
144,1777300674081740677,0.009789228439331,False,-1.0137362195637922,0.7412556557359491,2.074808865190106,0.1005289013072468,-0.0014105090744974,-0.9562869501839054,-1.0,1.0,3.0,-1.5,-0.3,0.3,0.3,-0.3262278298896568,1
145,1777300674245234365,0.1633627414703369,False,-1.0170196782241283,0.7292360705726125,2.0827071538245656,0.1151969132443914,0.0048402657060893,-0.9684049271445332,-1.0,1.0,3.0,-1.5,-0.1428478371255851,0.117940821830888,0.3,-0.3189570437132801,1
146,1777300674275212838,0.0299875736236572,False,-1.036072899865483,0.6914817817968231,2.1095402757612156,0.0306512453393377,0.030519998250844,-0.9900853386753168,-1.0,1.0,3.0,-1.5,-0.3,0.3,0.3,-0.3059487967948099,1
147,1777300674444239800,0.1687870025634765,False,-1.0452708393596977,0.6775986688829077,2.1205099034497574,0.0007996682716124,0.0633951812403297,-0.9948738509090852,-1.0,1.0,3.0,-1.5,-0.1592358015531592,0.1552802240490175,0.3,-0.3030756894545486,1
148,1777300674475393043,0.0313942432403564,False,-1.0678244718428436,0.6543944265232103,2.146236743647223,-0.050799741899991,0.0865951867725788,-1.0160728304865123,-1.0,1.0,3.0,-1.5,-0.2298048424375171,0.3,0.3,-0.2903563017080926,1
149,1777300674654712496,0.179330825805664,False,-1.076524968677389,0.6496226523463455,2.1569211354682225,-0.0454344717254692,0.0936559350974512,-1.0188028558983395,-1.0,1.0,3.0,-1.5,-0.1540912651131641,0.1659146744075583,0.3,-0.2887182864609961,1
150,1777300674685426939,0.0306670665740966,False,-1.0932890165100562,0.6533118655702033,2.1845238842318784,-0.0348982801089332,0.1254638742346601,-1.0333913824297096,-1.0,1.0,3.0,-1.5,-0.0350857562521316,0.2769697406674445,0.3,-0.2799651705421742,1
151,1777300675065586131,0.3800928592681885,False,-1.0974618117944006,0.661533981525502,2.197428570488365,-0.0394969877568421,0.1385940318536818,-1.0388721722690075,-1.0,1.0,3.0,-1.5,-0.1380981586962661,0.1529449369013204,0.3,-0.2766766966385954,1
152,1777300675069142143,0.0036890506744384,False,-1.0987343836418972,0.6871632538917759,2.219809439470449,-0.0171701845875286,0.1339731056023965,-1.0603865266581618,-1.0,1.0,3.0,-1.5,0.3,-0.3,0.3,-0.2637680840051029,1
153,1777300675260632368,0.1912910938262939,False,-1.0743138231651383,0.7539644913457927,2.263511461772109,0.0492814914086307,0.1252738471439832,-1.0935859459255328,-1.0,1.0,3.0,-1.5,-0.03518059316674,0.0252716737177427,0.3,-0.2438484324446804,1
154,1777300675275652837,0.0154104232788085,False,-1.0484117559583437,0.7902618264503756,2.286183957484355,0.111921175128658,0.0880805815361277,-1.1138445114399456,-1.0,1.0,3.0,-1.5,0.3,-0.3,0.3,-0.2316932931360325,1
155,1777300675471928268,0.196042776107788,False,-1.0342053268261755,0.8042380824991365,2.2972049320804886,0.1505154030310621,0.0529769039623132,-1.1218837771147527,-1.0,1.0,3.0,-1.5,-0.0870789583875351,0.0405968120762047,0.3,-0.2268697337311485,1
156,1777300675474681213,0.0028603076934814,False,-1.0154305789774083,0.8176612851601693,2.313161816578975,0.1675019377409748,0.0202165745240925,-1.1342385367342982,-1.0,1.0,3.0,-1.5,0.3,-0.3,0.3,-0.219456877959421,1
157,1777300675677637002,0.2028160095214843,False,-0.9999962837932612,0.8179757768201079,2.3336269810421024,0.1667836139201021,0.1126825448130693,-1.1135316318612605,-1.0,1.0,3.0,-1.5,-0.1076571406085242,0.0275258223273356,0.3,-0.2318810208832438,1
158,1777300675686393708,0.008885383605957,False,-0.9877266479146876,0.8057994922398499,2.352552939946675,0.173534919345565,0.0129344911804408,-1.1561029650094872,-1.0,1.0,3.0,-1.5,-0.3,-0.1733025406690969,0.3,-0.2063382209943076,1
159,1777300675874304157,0.1877336502075195,False,-0.9859875156245572,0.7912929558097568,2.364013122239109,0.1688762203441393,0.0174944962578279,-1.1681751990484772,-1.0,1.0,3.0,-1.5,-0.1409221163257736,0.0478579015507084,0.3,-0.1990948805709138,1
160,1777300675888788140,0.0147275924682617,False,-0.9889805674212012,0.7552832968515373,2.3866449382090895,0.1176494710640886,0.0091798510554394,-1.17569533677728,-1.0,1.0,3.0,-1.5,-0.3,0.3,0.3,-0.194582797933632,1
161,1777300675986737614,0.0978126525878906,False,-0.9976982588796012,0.7248940420019522,2.404321195941972,0.0483012693669355,0.0049068818580774,-1.1927739514324749,-1.0,1.0,3.0,-1.5,-0.2306764826787546,0.1188897428544725,0.3,-0.184335629140515,1
162,1777300676086213770,0.0993299484252929,False,-1.009432403425435,0.6971840705678123,2.42341960180336,0.0203820915121676,0.0348745215208214,-1.1940008762408822,-1.0,1.0,3.0,-1.5,-0.2316412209060067,0.1358608621181863,0.3,-0.1835994742554705,1
163,1777300676185852849,0.0998053550720214,False,-1.0228694590186795,0.6759666601064348,2.4432948085708546,-0.0081283755392375,0.0598418056547235,-1.2089293956042846,-1.0,1.0,3.0,-1.5,-0.2223183497748976,0.1420139720361683,0.3,-0.1746423626374291,1
164,1777300676290404080,0.104332685470581,False,-1.0364398347714352,0.663043598604878,2.4628445832871355,-0.000185910003696,0.0656340243549481,-1.2104288785972432,-1.0,1.0,3.0,-1.5,-0.2024910925238666,0.141366785661888,0.3,-0.173742672841654,1
165,1777300676385784099,0.0956110954284668,False,-1.0481613757966337,0.6578221462768046,2.482980585311933,0.0079962349933792,0.0736262684220151,-1.2152313872368072,-1.0,1.0,3.0,-1.5,-0.1849603942978202,0.1387423928060293,0.3,-0.1708611676579156,1
166,1777300676494702745,0.1088533401489257,False,-1.0582103010471715,0.660666218069193,2.5029318796264586,0.0081395700433342,0.0786625751805733,-1.22131978103461,-1.0,1.0,3.0,-1.5,-0.1624867742038703,0.1258658172121206,0.2982408722241248,-0.1672081313792339,1
167,1777300676585544520,0.0908524990081787,False,-1.0653999722956056,0.6692045800184623,2.5228635937253387,0.0282863757251933,0.0845820598550685,-1.2173544263101588,-1.0,1.0,3.0,-1.5,-0.1379579462584358,0.1180275692582758,0.2862818437647967,-0.1695873442139046,1
168,1777300676682473198,0.0969014167785644,False,-1.0696896595184249,0.6813161389241438,2.5404424714791687,0.0105409802513421,0.0849595892487782,-1.2350646926980586,-1.0,1.0,3.0,-1.5,-0.1269804715825763,0.1026609701951826,0.2757345171124988,-0.1589611843811649,1
169,1777300676789960346,0.1075365543365478,False,-1.0724230691756411,0.7005095575675975,2.561210831929585,0.0468128267956176,0.0772239936057721,-1.230648316693468,-1.0,1.0,3.0,-1.5,-0.1018803116422564,0.0902396045454411,0.2632735008422489,-0.161611009983919,1
170,1777300676884119503,0.0941276550292968,False,-1.0724213133748528,0.7178021538552462,2.577575760551174,0.0484531690430244,0.0694948738676683,-1.2254335187791248,-1.0,1.0,3.0,-1.5,-0.0927524247891791,0.0795442969910108,0.2534545436692956,-0.1647398887325251,1
171,1777300676986349587,0.102203369140625,False,-1.0697837379399513,0.7388470460257535,2.596168644440427,0.0835848322802224,0.064761864183722,-1.22828919868414,-1.0,1.0,3.0,-1.5,-0.0779430183198783,0.0640240368522479,0.2422988133357438,-0.163026480789516,1
172,1777300677091729257,0.1055538654327392,False,-1.0659980921550145,0.7580426065352955,2.6121978223815003,0.0655738243744737,0.0527444952961978,-1.2367521943666129,-3.0,-1.0,3.0,-1.5,0.3,-0.3,0.2326813065710997,-0.1579486833800324,1
173,1777300677187165149,0.0953428745269775,False,-1.0610874047527887,0.7760379116237991,2.6271774009041113,0.085187166881664,0.0559853385484836,-1.246677593097186,-3.0,-1.0,3.0,-1.5,0.3,-0.3,0.2236935594575332,-0.1519934441416883,1
174,1777300677285170821,0.0981888771057128,False,-1.0605912170982643,0.7850437236114092,2.6455453504905755,0.102950784902269,0.0481397178448539,-1.2225863328416289,-3.0,-1.0,3.0,-1.5,0.3,-0.3,0.2126727897056547,-0.1664482002950228,1
175,1777300677385896112,0.1003763675689697,False,-1.0530527223411856,0.7984734525271624,2.6519019353676234,0.137162651739803,0.0062678577147126,-1.2543220216376143,-3.0,-1.0,3.0,-1.5,0.3,-0.3,0.2088588387794259,-0.1474067870174313,1
176,1777300677485424968,0.0996747016906738,False,-1.0522739012146922,0.7993677529525753,2.6626052354685723,0.1980210488728433,-0.0030911475462006,-1.255945139665747,-3.0,-1.0,3.0,-1.5,0.3,-0.3,0.2024368587188566,-0.1464329162005517,1
177,1777300677585848986,0.1005375385284423,False,-1.060183249932938,0.7904383008718061,2.6771175369743228,0.1744692721758055,-0.0327834483872437,-1.278562898643061,-3.0,-1.0,3.0,-1.5,0.3,-0.3,0.1937294778154063,-0.1328622608141632,1
178,1777300677685716564,0.099672794342041,False,-1.0644375164148037,0.769394626101919,2.6831738950414294,0.1818714745925884,0.0026717497856424,-1.2709744545469093,-3.0,-1.0,3.0,-1.5,0.3,-0.3,0.1900956629751423,-0.1374153272718544,1
179,1777300677788494430,0.1027686595916748,False,-1.0785156656904789,0.7415963460722839,2.694030533898562,0.159023984217669,0.0012804874061097,-1.2842223266995834,-3.0,-1.0,3.0,-1.5,0.3,-0.3,0.1835816796608628,-0.1294666039802498,1
180,1777300677885670562,0.097217321395874,False,-1.1012624602855303,0.7036474529586948,2.709597523597101,0.1770241880232148,0.0120914406878272,-1.2853101341487376,-3.0,-1.0,3.0,-1.5,0.3,-0.3,0.1742414858417395,-0.1288139195107575,1
181,1777300677985916578,0.10038423538208,False,-1.123700449666582,0.6576655115434067,2.719751790553872,0.1839800418865318,0.0021808192368557,-1.2833211547004078,-3.0,-1.0,3.0,-1.5,0.3,-0.3,0.1681489256676767,-0.1300073071797552,1
182,1777300678095673984,0.1096179485321044,False,-1.1496155872642766,0.6003056794925314,2.730222603419906,0.1536282427034658,-0.0045766704566107,-1.2957418222406016,-3.0,-1.0,3.0,-1.5,0.3,-0.3,0.1618664379480564,-0.1225549066556391,1
183,1777300678187061890,0.0912625789642334,False,-1.1733008149870678,0.5485068484097819,2.73782549114879,0.1535215924796467,-0.0065011770914597,-1.2963408811265136,-3.0,-1.0,3.0,-1.5,0.3,-0.3,0.1573047053107259,-0.1221954713240917,1
184,1777300678289549497,0.1025378704071044,False,-1.1929204860671512,0.4837849129736028,2.7418374931002623,0.1394579231715644,0.0150622513669347,-1.288453184999167,-3.0,-1.0,3.0,-1.5,0.3,-0.3,0.1548975041398426,-0.1269280890004999,1
185,1777300678396143520,0.1066951751708984,False,-1.2253698968081257,0.4147299335407833,2.748856055886839,0.1364722975978261,0.0037508883943226,-1.305306645944421,-3.0,-1.0,3.0,-1.5,0.3,-0.3,0.1506863664678965,-0.1168160124333474,1
186,1777300678496499369,0.1003479957580566,False,-1.2628133074659451,0.3540839673330002,2.754601801106022,0.0264054162085617,0.0168743888370862,-1.3928832946136736,-3.0,-1.0,3.0,-1.5,0.3,-0.3,0.1472389193363867,-0.064270023231796,1
187,1777300678596607587,0.1001763343811035,False,-1.2883447800825,0.2856899449947215,2.7574504167645264,0.1210201444142346,0.0108922405519108,-1.3033504227991346,-3.0,-1.0,3.0,-1.5,0.2952535715692498,-0.3,0.1455297499412841,-0.1179897463205193,1
188,1777300678697009232,0.1003785133361816,False,-1.3207818481072533,0.2199261992167087,2.7613089283250725,0.1237161307883299,0.0210742190754131,-1.2982162704628502,-3.0,-1.0,3.0,-1.5,0.2704953767920646,-0.3,0.1432146430049565,-0.1210702377222897,1
189,1777300678795360378,0.0982782840728759,False,-1.3668565352728774,0.1561163759090934,2.7708650180938306,0.1199760332023052,0.0128165252484313,-1.3010693013978856,-3.0,-1.0,3.0,-1.5,0.2572178068224299,-0.3,0.1374809891437016,-0.1193584191612687,1
190,1777300678888332566,0.0929098129272461,False,-1.3980256186274873,0.0959992438397183,2.7740862312086096,0.1191975854993842,0.0030836137783161,-1.308706004803173,-3.0,-1.0,3.0,-1.5,0.2246909049604635,-0.3,0.1355482612748342,-0.1147763971180962,1
191,1777300678995154391,0.1069412231445312,False,-1.43780359819198,0.022508913301249,2.778225979462984,0.1020276376751,0.006639229657792,-1.3164992906305506,-3.0,-1.0,3.0,-1.5,0.1865196650945758,-0.3,0.1330644123222095,-0.1101004256216696,1
192,1777300679096290679,0.1009910106658935,False,-1.474682094023165,-0.0431544967584525,2.780726116602369,0.1023465968169747,0.0161416279111258,-1.3077150045151238,-3.0,-1.0,3.0,-1.5,0.1564955982661463,-0.3,0.1315643300385785,-0.1153709972909257,1
193,1777300679199451665,0.1031379699707031,False,-1.5130144563915608,-0.1082707605708242,2.7838527047360313,0.0986389050291217,0.0052552373839251,-1.3164183211601632,-3.0,-1.0,3.0,-1.5,0.1380534819681468,-0.3,0.1296883771583812,-0.1101490073039022,1
194,1777300679300270980,0.1007156372070312,False,-1.5523626901723369,-0.1709445839970887,2.7864821382015936,0.0854563545247842,0.0044358816653631,-1.32208181458371,-3.0,-1.0,3.0,-1.5,0.1162284562352702,-0.3,0.1281107170790438,-0.1067509112497742,1
195,1777300679396474534,0.0964517593383789,False,-1.5928588111227089,-0.2307011623748804,2.7892374433528855,0.0866652247803156,0.0032442901605171,-1.3256345151781537,-3.0,-1.0,3.0,-1.5,0.0931227058862409,-0.3,0.1264575339882687,-0.1046192908931079,1
196,1777300679496397484,0.0998957157135009,False,-1.630429065248832,-0.2820946397056654,2.7855047180979176,0.0705557681348794,0.0190183916873347,-1.3339460859388483,-3.0,-1.0,3.0,-1.5,0.1023441950699223,-0.3,0.1286971691412494,-0.0996323484366911,1
197,1777300679595842627,0.0994529724121093,False,-1.6746778279451249,-0.3363355367718366,2.7886011639582384,0.0630260014193686,0.0215633501936171,-1.335768339266242,-3.0,-1.0,3.0,-1.5,0.074037671379512,-0.3,0.1268393016250569,-0.0985389964402547,1
198,1777300679695349655,0.099466323852539,False,-1.7200733914910145,-0.3871996146651645,2.7920497341845096,0.0548016657154563,0.034631148387504,-1.3275894195382736,-3.0,-1.0,3.0,-1.5,0.0559990507532228,-0.3,0.1247701594892942,-0.1034463482770358,1
199,1777300679796528330,0.101140022277832,False,-1.7668245369545734,-0.4347655370665795,2.7963133858963976,0.053442229811344,0.0168114656594184,-1.3394155527896878,-3.0,-1.0,3.0,-1.5,0.0548977011226794,-0.3,0.1222119684621614,-0.0963506683261874,1
200,1777300679898590658,0.1019926071166992,False,-1.814359273543347,-0.4768405398200357,2.7987419987375284,0.0458587407634219,0.0001588155399261,-1.3427619327636464,-3.0,-1.0,3.0,-1.5,0.0560044395758662,-0.3,0.1207548007574829,-0.0943428403418122,1
201,1777300679994805458,0.096698522567749,False,-1.8611036987626788,-0.5134024582814943,2.7989652205966262,0.0393864328438687,0.0035097007822291,-1.3481079256890962,-3.0,-1.0,3.0,-1.5,0.0552309890069598,-0.3,0.1206208676420242,-0.0911352445865422,1
202,1777300680098804894,0.1037900447845459,False,-1.9102232771810743,-0.5466162072658712,2.801156401375918,0.0541049902669736,-0.0020866909364441,-1.348144217459223,-3.0,-1.0,3.0,-1.5,0.0586487145389957,-0.3,0.1193061591744491,-0.0911134695244661,1
203,1777300680198718047,0.0997970104217529,False,-1.9554116401035972,-0.5727036292718419,2.8030663349958496,0.0621612210093659,0.0038056746471164,-1.3544959191220665,-3.0,-1.0,3.0,-1.5,0.0684512014275597,-0.3,0.1181601990024902,-0.0873024485267601,1
204,1777300680295892101,0.0970423221588134,False,-2.0120203277969053,-0.6009177937714896,2.805011566459344,0.0648885298485263,0.0032951080360633,-1.3558460945694908,-3.0,-1.0,3.0,-1.5,0.0596106768959337,-0.3,0.1169930601243937,-0.0864923432583056,1
205,1777300680395527852,0.0996198654174804,False,-2.061544818958288,-0.6174915342464371,2.8014682522314933,0.0679727905767231,0.0717383281397224,-1.3049278219585885,-3.0,-1.0,3.0,-1.5,0.0645243067564114,-0.3,0.119119048661104,-0.1170433068248469,1
206,1777300680493235238,0.0977823734283447,False,-2.098011333345033,-0.629615532187652,2.800615827221197,0.0757006758575619,0.014221637349427,-1.3417123713456072,-3.0,-1.0,3.0,-1.5,0.0827090978888325,-0.3,0.1196305036672818,-0.0949725771926358,1
207,1777300680595992178,0.1029021739959716,False,-2.1684521711860607,-0.6531646576711995,2.8031393056616873,0.0835739377646194,0.0198924358665299,-1.342677060731446,-3.0,-1.0,3.0,-1.5,0.0694449507901143,-0.3,0.1181164166029875,-0.0943937635611325,1
208,1777300680696569329,0.100135326385498,False,-2.2234119465222526,-0.6692282227042405,2.8047776427975917,0.0922108830375792,0.0257633489333821,-1.34074411084735,-3.0,-1.0,3.0,-1.5,0.0776726705609463,-0.3,0.1171334143214449,-0.09555353349159,1
209,1777300680795560752,0.0993046760559082,False,-2.278816010497848,-0.6845946246707663,2.806929413241067,0.0917971108679884,0.0306000839010789,-1.343012036424803,-3.0,-1.0,3.0,-1.5,0.0792143320090666,-0.2907324147565594,0.1158423520553598,-0.0941927781451181,1
210,1777300680895364119,0.0998616218566894,False,-2.3343735219666693,-0.6993444355907226,2.808981269052502,0.095340270646086,0.0332576387794749,-1.3498576564570333,-3.0,-1.0,3.0,-1.5,0.0818294215106691,-0.2566433929100243,0.1146112385684989,-0.09008540612578,1
211,1777300680996792311,0.101572036743164,False,-2.3876167461509685,-0.7131963699165206,2.809800050736433,0.1049541971903588,0.1436636405673586,-1.2576110102042657,-3.0,-1.0,3.0,-1.5,0.0600369192464014,-0.2403611123032289,0.1141199695581402,-0.1454333938774406,1
212,1777300681101343775,0.1046066284179687,False,-2.444129238584373,-0.7269108530461801,2.812070520358164,0.0770443080879057,0.0357802532568681,-1.375795890155355,-3.0,-1.0,3.0,-1.5,0.0889403668781566,-0.1923298284706725,0.1127576877851016,-0.074522465906787,1
213,1777300681200323920,0.0985603332519531,False,-2.492084973537597,-0.7464263810066203,2.8224731568073635,0.1181480919543106,0.0286050962006699,-1.36343423243914,-3.0,-1.0,3.0,-1.5,0.0580660424305949,-0.1744725955154237,0.1065161059155818,-0.0819394605365161,1
214,1777300681295693959,0.0954148769378662,False,-2.5547253727897017,-0.761379070792144,2.823956539332726,0.0831760417753054,0.0401006456854423,-1.3738701264426547,-3.0,-1.0,3.0,-1.5,0.0805627474647135,-0.0876701100919667,0.1056260764003644,-0.0756779241344071,1
215,1777300681416880989,0.1213719844818115,False,-2.61440098729319,-0.7774089533878986,2.827283058846173,0.0814141644663962,0.0535465249006088,-1.3770832745381267,-3.0,-1.0,3.0,-1.5,0.0760332702500911,-0.100370806622815,0.1036301646922963,-0.0737500352771239,1
216,1777300681501635916,0.0845999717712402,False,-2.6510375953019656,-0.7869806083430693,2.8292389751326352,0.0893248503166711,0.0624606076210027,-1.3892291459689,-2.0,0.0,1.0,-3.1,-0.3,0.3,-0.3,-1.02646251241866,1
217,1777300681618652815,0.1170735359191894,False,-2.6890777898551117,-0.7977487057548962,2.830908994786227,0.0871710110748033,0.0698540760989287,-1.3947634265598694,-2.0,0.0,1.0,-3.1,-0.3,0.3,-0.3,-1.0231419440640783,1
218,1777300681708404409,0.0899207592010498,False,-2.7291339959051086,-0.807954442789128,2.830434208055326,0.0555987019634759,0.0948654391366684,-1.4256286753368992,-2.0,0.0,1.0,-3.1,-0.3,0.3,-0.3,-1.0046227947978603,1
219,1777300681805785480,0.0970849990844726,False,-2.7576132823875064,-0.8131179469799762,2.825357933657018,0.0235476563489299,0.1262774709974701,-1.450289866133018,-2.0,0.0,1.0,-3.1,-0.3,0.3,-0.3,-0.9898260803201892,1
220,1777300681924203136,0.1187632083892822,False,-2.7770562899885465,-0.8121616025555752,2.8154145341802543,0.0095407060766161,0.1389638323074687,-1.4830616112036887,-2.0,0.0,1.0,-3.1,-0.3,0.3,-0.3,-0.9701630332777867,1
221,1777300682028981837,0.1048495769500732,False,-2.785506981673981,-0.8025589435909982,2.8007921874873887,-0.0074750343429893,0.1432717331958909,-1.5199487269354182,-2.0,0.0,1.0,-3.1,-0.3,0.3,-0.3,-0.9480307638387492,1
222,1777300682118771914,0.0898048877716064,False,-2.784800582727637,-0.7890380255011329,2.7889391075712457,0.0148111014779923,0.1179292605065537,-1.5562434353723682,-2.0,0.0,1.0,-3.1,-0.3,0.3,-0.3,-0.9262539387765792,1
223,1777300682216420544,0.097529649734497,False,-2.771362970359973,-0.7593201033154522,2.7624652753693084,0.0143550150463099,0.1131444623384209,-1.5879468318839074,-2.0,0.0,1.0,-3.1,-0.3,0.3,-0.3,-0.9072319008696555,1
224,1777300682299597814,0.0830810070037841,False,-2.7562375587779746,-0.7360645059932217,2.747702612539461,0.0213704106142027,0.1129928179065548,-1.6090878516149438,-2.0,0.0,1.0,-3.1,-0.3,0.3,-0.3,-0.8945472890310338,1
225,1777300682422583015,0.1229150295257568,False,-2.727213466331877,-0.6994296479310217,2.7252181077533377,0.0527080126440127,0.1079816889422182,-1.6430229073371003,-2.0,0.0,1.0,-3.1,-0.3,0.3,-0.3,-0.8741862555977399,1
226,1777300682500684019,0.0779106616973877,False,-2.698191458674793,-0.6664637235249876,2.708714587247872,0.0445724670696701,0.1170673894449872,-1.6693142937162062,-2.0,0.0,1.0,-3.1,-0.3,0.2788282458999831,-0.3,-0.8584114237702763,1
227,1777300682632861401,0.1326353549957275,False,-2.656546610831745,-0.6210551358802205,2.6855622089136686,0.0595281859962955,0.0626498330634355,-1.700318892820738,-2.0,0.0,1.0,-3.1,-0.3,0.262359447927059,-0.3,-0.8398086643075572,1
228,1777300682705991738,0.0728142261505127,False,-2.6144169991867137,-0.5788773084116873,2.66727425271513,0.1034924765368282,0.0420906274788427,-1.7417153771288063,-2.0,0.0,1.0,-3.1,-0.2042013909025372,0.1627117547015122,-0.3,-0.8149707737227162,1
229,1777300682806080001,0.1002473831176757,False,-2.5685162337211724,-0.53528551848657,2.646914736045232,0.0527486945934224,0.0450735197895197,-1.7895290847880634,-2.0,0.0,1.0,-3.1,-0.2303861239936362,0.1575080471512065,-0.3,-0.786282549127162,1
230,1777300682899700740,0.0932435989379882,False,-2.5263888969271857,-0.4981476573899696,2.633443219567049,0.0879961170088297,0.0255902893761796,-1.8044820196940383,-2.0,0.0,1.0,-3.1,-0.216275432862719,0.1338501024292923,-0.3,-0.777310788183577,1
231,1777300683006721115,0.1073930263519287,False,-2.4747498310141407,-0.4509681643580285,2.611341062856677,0.1206453106665358,0.0035001699470578,-1.835393735993896,-2.0,0.0,1.0,-3.1,-0.1707251106292916,0.0994088182377505,-0.3,-0.7587637584036625,1
232,1777300683105143878,0.0986933708190918,False,-2.428097647793139,-0.4110188652026685,2.5948941357721536,0.0926108056957926,-0.0116004398365127,-1.8635461525933017,-2.0,0.0,1.0,-3.1,-0.153052525332876,0.0740299603952153,-0.3,-0.741872308444019,1
233,1777300683202108798,0.0964419841766357,False,-2.38806240074549,-0.3763912053491413,2.578173980682429,0.1067562716282094,-0.0170896657097865,-1.8868562900217147,-2.0,0.0,1.0,-3.1,-0.1459309192331011,0.0662219557295302,-0.3,-0.7278862259869712,1
234,1777300683304895139,0.1032838821411132,False,-2.3430818441557455,-0.3362722770270296,2.559030062108975,0.1057180062365383,-0.0499906174189549,-1.91719444728256,-2.0,0.0,1.0,-3.1,-0.1057011636425773,0.0417935108866791,-0.3,-0.7096833316304639,1
235,1777300683406200664,0.1011316776275634,False,-2.3057146088985023,-0.301757974861789,2.540773509850417,0.1091921649216796,-0.0385020895713768,-1.9433900586125024,-2.0,0.0,1.0,-3.1,-0.0996946762098423,0.0389627805315158,-0.3,-0.6939659648324986,1
236,1777300683509358472,0.1032469272613525,False,-2.272384316088238,-0.269622475337526,2.522979673452285,0.1077528894319408,-0.0353314219940828,-1.9701103695448956,-2.0,0.0,1.0,-3.1,-0.0889047686227967,0.0347533955557647,-0.3,-0.6779337782730627,1
237,1777300683605499362,0.0961406230926513,False,-2.2432434599819975,-0.2403550033875346,2.5047135016010116,0.1256323363941865,-0.028434837711628,-1.991095511733558,-2.0,0.0,1.0,-3.1,-0.0707307062192831,0.0286468150948696,-0.3,-0.6653426929598654,1
238,1777300683702784465,0.0971832275390625,False,-2.2210667324208777,-0.2176928105959914,2.4890736316270043,0.1335646537665317,-0.044761509124417,-2.015176633972997,-2.0,0.0,1.0,-3.1,-0.0823587907877108,0.0318710208789157,-0.3,-0.6508940196162017,1
239,1777300683805787390,0.1027188301086425,False,-2.1981594207404416,-0.192240763356233,2.4692564162114103,0.1330786239596166,-0.0506558599729399,-2.042700726710458,-2.0,0.0,1.0,-3.1,-0.0601622244981429,0.0276679382208437,-0.3,-0.6343795639737252,1
240,1777300683906841533,0.101262092590332,False,-2.1810086464428564,-0.172295354880173,2.45137822636716,0.1271263118598045,-0.0454415432041226,-2.068658116941597,-2.0,0.0,1.0,-3.1,-0.0665100803695166,0.0296292104952955,-0.3,-0.6188051298350419,1
241,1777300684005535384,0.0986793041229248,False,-2.1683474683443835,-0.1547846559004644,2.43461976763586,0.1183179599994566,-0.042320472132475,-2.0955282263841863,-2.0,0.0,1.0,-3.1,-0.0656225986275469,0.0342488040145079,-0.3,-0.6026830641694882,1
242,1777300684104860081,0.0995614528656005,False,-2.1586199367595356,-0.139543294536408,2.418652004509944,0.132225140445767,-0.0517461506891158,-2.1195891279259387,-2.0,0.0,1.0,-3.1,-0.066606475704072,0.0364705692694818,-0.3,-0.5882465232444368,1
243,1777300684206433121,0.1012403964996337,False,-2.152110983541609,-0.126054084793684,2.4028410058874825,0.1324183377257537,-0.0619347414663339,-2.152938278817613,-2.0,0.0,1.0,-3.1,-0.0693619291858867,0.0405163667279283,-0.3,-0.5682370327094324,1
244,1777300684305594027,0.0991384983062744,False,-2.1472158712860936,-0.1148321352638889,2.38668562837593,0.1030980482132491,-0.0832703539552219,-2.200942114496788,-2.0,0.0,1.0,-3.1,-0.0715507540813997,0.0388077453262042,-0.3,-0.5394347313019272,1
245,1777300684404689723,0.0992553234100341,False,-2.145006576839917,-0.105697846061592,2.372791592845142,0.1153371211894567,-0.0554350933572326,-2.20733745844464,-2.0,0.0,1.0,-3.1,-0.0765444274522508,0.0433087132900039,-0.3,-0.5355975249332161,1
246,1777300684505829515,0.1010899543762207,False,-2.1434237459118077,-0.0965877840627134,2.3559714936752636,0.1125481820146794,-0.0432086888910675,-2.233997966315701,-2.0,0.0,1.0,-3.1,-0.0744503374682266,0.0450773979393137,-0.3,-0.5196012202105795,1
247,1777300684606969627,0.1014192104339599,False,-2.1405479577699973,-0.0857580825162346,2.3362647846674154,0.1067425705818137,-0.0570391995609311,-2.2694103622710116,-2.0,0.0,1.0,-3.1,-0.0636363926876478,0.045569257694053,-0.3,-0.4983537826373931,1
248,1777300684705278442,0.0982336997985839,False,-2.140273887265407,-0.0792755348479647,2.3213202731826,0.1128030059384594,-0.0522783425189127,-2.2927038168804534,-2.0,0.0,1.0,-3.1,-0.0759053413914139,0.0441914690595856,-0.3,-0.4843777098717279,1
249,1777300684805245014,0.0998623371124267,False,-2.140426815985194,-0.0732826102386335,2.3062092323847203,0.1168145368795001,-0.0706248641444119,-2.310825559173463,-2.0,0.0,1.0,-3.1,-0.076299040602243,0.0450489434856047,-0.3,-0.4735046644959222,1
250,1777300684906126461,0.1007490158081054,False,-2.14012609361008,-0.0680108845299503,2.2914715204998677,0.10542611003172,-0.0584265145638481,-2.3437573949817168,-2.0,0.0,1.0,-3.1,-0.0760553680538886,0.0420117179729748,-0.3,-0.4537455630109699,1
251,1777300685009776855,0.1037130355834961,False,-2.1396740932832192,-0.0633035271749801,2.277385460851343,0.1042691844415559,-0.0541278976959446,-2.36448597491119,-2.0,0.0,1.0,-3.1,-0.0759015115541575,0.0404771496958997,-0.3,-0.4413084150532859,1
252,1777300685106204889,0.0966036319732666,False,-2.1389088570054695,-0.0586863980356585,2.2630491233259646,0.0993470204702963,-0.0587669254642995,-2.3836869236471725,-2.0,0.0,1.0,-3.1,-0.0731543237293214,0.0404982500992865,-0.3,-0.4297878458116965,1
253,1777300685206114797,0.0996451377868652,False,-2.1374512197587254,-0.0553535042915118,2.2496118875523927,0.1099187308394063,-0.0673497472693985,-2.408178367613005,-2.0,0.0,1.0,-3.1,-0.0735222284560912,0.035050396028022,-0.3,-0.4150929794321971,1
254,1777300685305770701,0.099825382232666,False,-2.1359126542956797,-0.0488942151099736,2.2335379286692185,0.1030914731981279,-0.0665439605617391,-2.428643338904154,-2.0,0.0,1.0,-3.1,-0.0646794245809702,0.0428059275157261,-0.3,-0.4028139966575073,1
255,1777300685405352329,0.0995535850524902,False,-2.1335782463712927,-0.0451186935741017,2.219607996340041,0.1081247213012106,-0.0771004818510654,-2.4421318211350855,-2.0,0.0,1.0,-3.1,-0.0660485636380154,0.0350613166042258,-0.3,-0.3947209073189487,1
256,1777300685505810653,0.0999038219451904,False,-2.1309559094891632,-0.0393157102563285,2.2040807333484356,0.1030340327502515,-0.0723984610277432,-2.458664746873975,-2.0,0.0,1.0,-3.1,-0.0587329060554875,0.0398344109265157,-0.3,-0.3848011518756151,1
257,1777300685605032389,0.0999670028686523,False,-2.1281335783725264,-0.0368868967023519,2.1917284185888892,0.1059395147239002,-0.0512370746235729,-2.4700289365075254,-2.0,0.0,1.0,-3.1,-0.06279068457136,0.0309456048388344,-0.3,-0.3779826380954847,1
258,1777300685705984297,0.100672960281372,False,-2.1254604245273794,-0.031699027957349,2.1768902800701264,0.115584529903632,-0.0771790525439487,-2.4882372346644455,-2.0,0.0,1.0,-3.1,-0.0556116016580429,0.0380882166991712,-0.3,-0.3670576592013327,1
259,1777300685806850222,0.1005961894989013,False,-2.1227165429711397,-0.0280159762820876,2.1624642443061814,0.0931431905991495,-0.0595555612282991,-2.5076482783545972,-2.0,0.0,1.0,-3.1,-0.0561813808673825,0.0340721620833915,-0.3,-0.3554110329872417,1
260,1777300685905562961,0.0990023612976074,False,-2.1200116317318756,-0.0243573253237452,2.1483535494627466,0.1019047626025669,-0.0711812019800974,-2.525096403661565,-2.0,0.0,1.0,-3.1,-0.0541032819841288,0.0340155419115815,-0.3,-0.344942157803061,1
261,1777300686006045771,0.1003801822662353,False,-2.117435519136791,-0.0192499200336273,2.13205574208962,0.0986000320498195,-0.0873355944563358,-2.5441097330850484,-2.0,0.0,1.0,-3.1,-0.0497994615452517,0.0383784893565656,-0.3,-0.333534160148971,1
262,1777300686111211141,0.105466604232788,False,-2.114852884772529,-0.0163550203764736,2.1174615066083895,0.0875067481240449,-0.0698562968648381,-2.555559425529462,-2.0,0.0,1.0,-3.1,-0.0521656682945614,0.0327343201312996,-0.3,-0.3266643446823228,1
263,1777300686206437244,0.09493088722229,False,-2.1121111150503817,-0.0122498156454952,2.1010378109750873,0.0983359073532631,-0.0730612360912525,-2.5605090417235497,-2.0,0.0,1.0,-3.1,-0.0458968491405716,0.0368688592608751,-0.3,-0.3236945749658702,1
264,1777300686306702423,0.1003181934356689,False,-2.1104345642674947,-0.0097980241360887,2.0867980530002397,0.086390041381036,-0.0766140564729362,-2.585122580321764,-2.0,0.0,1.0,-3.1,-0.0512388002017014,0.0335841789455612,-0.3,-0.3089264518069415,1
265,1777300686407754916,0.1008665561676025,False,-2.107926070537978,-0.0060204751241315,2.071392167093552,0.0868518710378781,-0.073051586334125,-2.599242752982624,-2.0,0.0,1.0,-3.1,-0.0451382882596482,0.0361018106772576,-0.3,-0.3004543482104256,1
266,1777300686515209294,0.1076674461364746,False,-2.1058333041989727,-0.0024183926395531,2.0565284219698383,0.091525941465063,-0.083175903612169,-2.6079036016996544,-2.0,0.0,1.0,-3.1,-0.0452815178821573,0.0367285531753031,-0.3,-0.2952578389802074,1
267,1777300686613528040,0.0983152389526367,False,-2.1035322845252806,0.0012798968140022,2.0409430724637256,0.09070941669734,-0.0828394712250969,-2.619300783255892,-2.0,0.0,1.0,-3.1,-0.0417394280664056,0.0379326372536088,-0.3,-0.2884195300464647,1
268,1777300686714865369,0.1016609668731689,False,-2.101205294402974,0.0047941931687822,2.024022882881134,0.0867461169538065,-0.0827528146122779,-2.635597144011351,-2.0,0.0,1.0,-3.1,-0.0406870555341882,0.0376901533836701,-0.3,-0.2786417135931894,1
269,1777300686825386841,0.1103882789611816,False,-2.09915376253559,0.0072709121507423,2.008394112942171,0.0893098008882481,-0.0829075899238378,-2.644973857668609,-2.0,0.0,1.0,-3.1,-0.0421180703796574,0.0354423498325498,-0.3,-0.2730156853988347,1
270,1777300686922047080,0.0965378284454345,False,-2.097414909945351,0.0096158262233024,1.993594781625901,0.0843044954594213,-0.0841142306723266,-2.6556783872017813,-2.0,0.0,1.0,-3.1,-0.040807602610255,0.0363182715486352,-0.3,-0.2665929676789312,1
271,1777300687025154332,0.1032710075378418,False,-2.0949410300395135,0.0120521909024389,1.976165033871286,0.0846315600875629,-0.0878973653242901,-2.6641586821664576,-2.0,0.0,1.0,-3.1,-0.0376367548060486,0.0355819296604523,-0.3,-0.2615047907001255,1
272,1777300687120551216,0.0950064659118652,False,-2.093469752201522,0.0145316281417889,1.9598870883108412,0.0872432066296795,-0.0860728787236172,-2.6693590774884166,-2.0,0.0,1.0,-3.1,-0.0382791769675242,0.038134156897515,-0.3,-0.25838455350695,1
273,1777300687216486078,0.0960514545440673,False,-2.0916001391767556,0.0165150316134605,1.9438810799484905,0.0856087374335019,-0.0917348087747476,-2.67825404105467,-2.0,0.0,1.0,-3.1,-0.0367442483252032,0.0363597879646278,-0.3,-0.2530475753671984,1
274,1777300687318322862,0.1013729572296142,False,-2.0898272055119604,0.0189682177443572,1.9272249961794088,0.0882102691614939,-0.0888284578545321,-2.686566638741721,-2.0,0.0,1.0,-3.1,-0.0355070750987156,0.0381248878180019,-0.3,-0.2480600167549675,1
275,1777300687416924922,0.0992279052734375,False,-2.0883538634916343,0.0210555641784252,1.9109705368949852,0.0810487232582265,-0.084312036007901,-2.692625998089254,-2.0,0.0,1.0,-3.1,-0.0355232215432064,0.0381424879779262,-0.3,-0.2444244011464476,1
276,1777300687517159775,0.100114107131958,False,-2.0869763217839754,0.0235293559125386,1.8942066779272797,0.0809187917883622,-0.0911652018678457,-2.705082420956261,-2.0,0.0,1.0,-3.1,-0.0344489481218966,0.0398295537930121,-0.3,-0.2369505474262434,1
277,1777300687618242765,0.101130723953247,False,-2.086216800258144,0.025859779639484,1.8773442029751608,0.0832000889880552,-0.0944263315837188,-2.70740305774593,-2.0,0.0,1.0,-3.1,-0.0354507691666294,0.0411615647819651,-0.3,-0.235558165352442,1
278,1777300687715632496,0.0973045825958252,False,-2.083195593852838,0.0353870548940442,1.8519433654221564,0.0902936490796694,-0.0923202120691272,-2.7108235269005747,-2.0,0.0,1.0,-3.1,-0.0157619519941279,0.0629371460141738,-0.3,-0.2335058838596552,1
279,1777300687816410256,0.1007893085479736,False,-2.085235859841505,0.0304330848329871,1.843250075854455,0.0834674860463919,-0.0968852442783558,-2.719680345811053,-2.0,0.0,1.0,-3.1,-0.050757970733954,0.0266357694932647,-0.3,-0.2281917925133682,1
280,1777300687917372521,0.1007139682769775,False,-2.0851954868354152,0.0322740061971587,1.8263060090599157,0.0830801723828471,-0.0903755318842939,-2.7223302123101902,-2.0,0.0,1.0,-3.1,-0.0364648485192159,0.0434561387124995,-0.3,-0.2266018726138859,1
281,1777300688017410391,0.1003117561340332,False,-2.084978243944838,0.0340165432274798,1.8086813478640549,0.083178139861055,-0.0905436935377947,-2.727102542205545,-2.0,0.0,1.0,-3.1,-0.0357564853890683,0.0437237043220271,-0.3,-0.2237384746766731,1
282,1777300688118348820,0.1007227897644043,False,-2.085161194369876,0.0353910656852616,1.7908757129701507,0.0919758593377586,-0.0896562226046317,-2.7306407973238196,-2.0,0.0,1.0,-3.1,-0.0372236692671409,0.0438496876956258,-0.3,-0.2216155216057083,1
283,1777300688218734248,0.1004424095153808,False,-2.085227860817293,0.0364938496054787,1.7728461194205285,0.0816445971059525,-0.0930210084096701,-2.7373809100585422,-2.0,0.0,1.0,-3.1,-0.0372917037153067,0.0433501717502381,-0.3,-0.2175714539648747,1
284,1777300688312985899,0.094447374343872,False,-2.0846749482621982,0.037513296737707,1.7563622312587337,0.0847664905034804,-0.0941886181714016,-2.738865233310542,-2.0,0.0,1.0,-3.1,-0.0350339414418238,0.0429099284473046,-0.3,-0.2166808600136748,1
285,1777300688417890725,0.1046323776245117,False,-2.082374579173643,0.0454492703825712,1.7293468896082678,0.0871116905797295,-0.1017282023264548,-2.745144705655242,-2.0,0.0,1.0,-3.1,-0.020191011565061,0.0626817785705642,-0.3,-0.2129131766068548,1
286,1777300688516592705,0.0990378856658935,False,-2.0839489680093357,0.0393758671697878,1.7193423269796615,0.0709381242402014,-0.0985040523549411,-2.754571733102337,-2.0,0.0,1.0,-3.1,-0.0490869308923464,0.0256525827376713,-0.3,-0.2072569601385978,1
287,1777300688615694502,0.0990216732025146,False,-2.082997463773208,0.0406974333089109,1.7019472812295688,0.0887423508076889,-0.0857419599172886,-2.7509479778513724,-2.0,0.0,1.0,-3.1,-0.0325585210528093,0.0441458984080956,-0.3,-0.2094312132891766,1
288,1777300688720139363,0.1043581962585449,False,-2.0819395256850664,0.0414509820676157,1.684394120673182,0.084107470727517,-0.0870569225426487,-2.753492611395716,-2.0,0.0,1.0,-3.1,-0.0324607487572489,0.042480228079932,-0.3,-0.2079044331625705,1
289,1777300688817973217,0.0978236198425293,False,-2.0808135358856936,0.0429930080625888,1.6671987134388797,0.077666100885293,-0.0820588306322205,-2.761705335141422,-2.0,0.0,1.0,-3.1,-0.0305052127331323,0.0450482717166506,-0.3,-0.2029767989151472,1
290,1777300688916221949,0.0983343124389648,False,-2.078866326220627,0.0446413973125738,1.649948215873941,0.0768209126933285,-0.0905424556903806,-2.7709634482644683,-2.0,0.0,1.0,-3.1,-0.0270465396725473,0.0446412394887316,-0.3,-0.197421931041319,1
291,1777300689017444914,0.1011207103729248,False,-2.076736034925063,0.0463733699044458,1.6329917753480985,0.0732093775855554,-0.0944823735833404,-2.7787937370960045,-2.0,0.0,1.0,-3.1,-0.0254378996148428,0.0449136245967921,-0.3,-0.1927237577423973,1
292,1777300689116051250,0.0985589027404785,False,-2.0748159729149096,0.0484072320069785,1.6165241869151887,0.0719259380738191,-0.0983395679748905,-2.784518429701852,-2.0,0.0,1.0,-3.1,-0.0242664432982927,0.0466602669280758,-0.3,-0.1892889421788887,1
293,1777300689216084934,0.1001019477844238,False,-2.0731801465596984,0.0503300824128908,1.6004467361226404,0.0935777954977201,-0.0918279847516024,-2.767877826169052,-2.0,0.0,1.0,-3.1,-0.0231849343328665,0.0477186544351535,-0.3,-0.1992733042985687,1
294,1777300689318277769,0.1022000312805175,False,-2.0712126514736005,0.0521830462597525,1.5845662129990337,0.0794942560631655,-0.0999157443945355,-2.7836141941828014,-2.0,0.0,1.0,-3.1,-0.021733468681727,0.0473667814176013,-0.3,-0.1898314834903192,1
295,1777300689440984743,0.1228935718536377,False,-2.0692513659029212,0.0539522909895925,1.5693620788745837,0.080916603196452,-0.0987062134598772,-2.786511494133541,-2.0,0.0,1.0,-3.1,-0.0217137091392845,0.0471828166371114,-0.3,-0.1880931035198753,1
296,1777300689520216935,0.0790193080902099,False,-2.067121786191612,0.0556345112034584,1.5536073766939678,0.0735042433128522,-0.102193011248361,-2.7977729250200194,-2.0,0.0,1.0,-3.1,-0.0168992010398011,0.0482900271440175,-0.3,-0.1813362449879884,1
297,1777300689616520603,0.0962536334991455,False,-2.0649975037407833,0.0570376918521867,1.5380780100312443,0.0835465139803214,-0.0967446501576994,-2.786403074101322,-2.0,0.0,1.0,-3.1,-0.0169341618886513,0.0474467611952183,-0.3,-0.1881581555392069,1
298,1777300689718526274,0.10203218460083,False,-2.063578627075042,0.0577855382465489,1.523320365980201,0.0673284937264039,-0.1055351694492377,-2.804996213773135,-2.0,0.0,1.0,-3.1,-0.019891423837255,0.0460224294099496,-0.3,-0.1770022717361191,1
299,1777300689815918825,0.0974457263946533,False,-2.062240970169003,0.0587559950093178,1.5089384335953986,0.0733583487935917,-0.0947756958914882,-2.8005727105556013,-2.0,0.0,1.0,-3.1,-0.0185233087338955,0.0471516462007885,-0.3,-0.1796563736666392,1
300,1777300689915890846,0.1001017093658447,False,-2.0597076731002244,0.0595558800102858,1.4937262715890784,0.0881670383439279,-0.087881605434793,-2.789548494821455,-2.0,0.0,1.0,-3.1,-0.0133527930019086,0.0455272114531466,-0.296235762953447,-0.1862709031071271,1
301,1777300690015517944,0.0993685722351074,False,-2.0574103421958823,0.0628215798273462,1.477290302637135,0.0701455752270625,-0.1125455596704218,-2.8140679606065913,-2.0,0.0,1.0,-3.1,-0.0107504174518578,0.0538746049604336,-0.2863741815822809,-0.1715592236360452,1
302,1777300690117741546,0.1024951934814453,False,-2.05473009587405,0.0616479666917595,1.463636981341902,0.073091244917801,-0.1021165030712798,-2.8035095421548286,-1.0,1.0,2.0,3.1,-0.3,-0.3,0.3,-0.2278054590148542,1
