,recording_time_ns,dt,wind_enabled,pos_x,pos_y,pos_z,pos_roll,pos_pitch,pos_yaw,targetpos_x,targetpos_y,targetpos_z,targetpos_yaw,control_vel_x,control_vel_y,control_vel_z,control_vel_yaw,experiment_id
718,1777301073524708136,1777301073.5240817,False,-0.6918268244139026,0.6066887145597667,0.812606205017846,-0.0238249765725957,0.0387565412519229,-0.0402210881316742,-2.0,0.0,2.0,0.0,-0.75,-0.75,0.7124362769892923,0.0241326528790045,3
719,1777301073639532546,0.1149749755859375,False,-0.694300772361146,0.606137797226479,0.8138230931175543,-0.0281941130920434,0.0608687968180524,-0.030129911440222,-2.0,0.0,2.0,0.0,-0.75,-0.3854871025344608,0.7117061441294674,0.0180779468641332,3
720,1777301073720554993,0.0807671546936035,False,-0.699001241030662,0.6063655130078853,0.8154403277081818,-0.0309135244216614,0.082047099990538,-0.0263266922373406,-2.0,0.0,2.0,0.0,-0.75,-0.3846273937239836,0.710735803375091,0.0157960153424045,3
721,1777301073832646306,0.1123859882354736,False,-0.7029301606425263,0.6058178549940895,0.8160629201906755,-0.0235308915287681,0.0718573113482647,-0.0257708672605544,-2.0,0.0,2.0,0.0,-0.75,-0.3816920987041741,0.7103622478855947,0.0154625203563327,3
722,1777301073921039066,0.0881967544555664,False,-0.705396323618148,0.605869391192185,0.816161701593381,-0.0344144945047614,0.0803579211949118,-0.0184750645413942,-2.0,0.0,2.0,0.0,-0.75,-0.3778298102174606,0.7103029790439714,0.0110850387248364,3
723,1777301074022407329,0.1011719703674316,False,-0.7079797272522158,0.6057116351877385,0.8159440005224768,-0.0431733962051268,0.0720206957063587,-0.0203930736662984,-2.0,0.0,2.0,0.0,-0.75,-0.378535378825334,0.710433599686514,0.0122358441997789,3
724,1777301074139789840,0.1177287101745605,False,-0.7111867159331567,0.6059260693192193,0.8161465004233764,-0.0259608220084742,0.0675952868979985,-0.0234584766834716,-2.0,0.0,2.0,0.0,-0.75,-0.3819486967939223,0.7103120997459742,0.0140750860100829,3
725,1777301074228314973,0.0883204936981201,False,-0.7123482918471873,0.6060697482557124,0.8162626551186926,-0.0311117034310089,0.0740736913129658,-0.0212588900673857,-2.0,0.0,2.0,0.0,-0.75,-0.3803869255751574,0.7102424069287844,0.0127553340404313,3
726,1777301074324225308,0.0962259769439697,False,-0.7147363405049566,0.6064580988784349,0.8167182837044712,-0.0437333529023779,0.0803788385962231,-0.0150809140510224,-2.0,0.0,2.0,0.0,-0.75,-0.3765611439484476,0.7099690297773172,0.0090485484306135,3
727,1777301074436602540,0.1122405529022216,False,-0.7166501064066184,0.6072896177259465,0.8172702543294799,-0.0488105322387342,0.0708336191043586,-0.0252212978665916,-2.0,0.0,2.0,0.0,-0.75,-0.3857692809241387,0.7096378474023121,0.0151327787199549,3
728,1777301074526508071,0.0897064208984375,False,-0.7178062199651779,0.6085355142697949,0.8175906854715006,-0.0473519956753827,0.0690860611046615,-0.0250662402178277,-2.0,0.0,2.0,0.0,-0.75,-0.3883568226337666,0.7094455887170997,0.0150397441306965,3
729,1777301074632602214,0.1060178279876709,False,-0.719481169849987,0.6098403073802579,0.8187043933247997,-0.0379239954349542,0.0661823834658755,-0.0280558467616839,-2.0,0.0,2.0,0.0,-0.75,-0.39087076288004,0.7087773640051201,0.0168335080570104,3
730,1777301074732778461,0.1002352237701416,False,-0.7215562571459895,0.6105382260259031,0.8199334775379854,-0.0289129695537987,0.0638756414323607,-0.0281662490469405,-2.0,0.0,2.0,0.0,-0.75,-0.3896932649343859,0.7080399134772087,0.0168997494281643,3
731,1777301074827123861,0.0946927070617675,False,-0.7229113517215124,0.6119998795655776,0.8205103341404828,-0.0274375939286997,0.0618454584007232,-0.0242992575697345,-2.0,0.0,2.0,0.0,-0.75,-0.3902341272319554,0.7076937995157102,0.0145795545418406,3
732,1777301074931445230,0.1039719581604003,False,-0.7241890148569041,0.6135546085766119,0.8212615507384922,-0.0310199571518486,0.0711565729828807,-0.0260903725899838,-2.0,0.0,2.0,0.0,-0.75,-0.3923653467258304,0.7072430695569046,0.0156542235539902,3
733,1777301075031297589,0.0994765758514404,False,-0.7250637102865418,0.6156754852580856,0.8229245985632009,-0.0265732129180379,0.067683783873624,-0.0306406657642155,-2.0,0.0,2.0,0.0,-0.75,-0.3989794595576956,0.7062452408620795,0.0183843994585291,3
734,1777301075145550653,0.1148216724395752,False,-0.7253266692115314,0.6174090072669141,0.8231193933609113,-0.0365261142425531,0.0601909166375321,-0.0163384302909734,-2.0,0.0,2.0,0.0,-0.75,-0.3874085276653551,0.7061283639834531,0.0098030581745842,3
735,1777301075237596399,0.0919134616851806,False,-0.7272746384169813,0.6184789963215319,0.825038700089503,-0.011347394461132,0.049252005781279,-0.0216469368696124,-2.0,0.0,2.0,0.0,-0.748991872022859,-0.390883469590606,0.7049767799462981,0.0129881621217675,3
736,1777301075331839192,0.0944814682006836,False,-0.7321102484802209,0.6170228665670535,0.8336830008843066,0.0178068737118339,0.0202164947902467,-0.0238281898733341,-2.0,0.0,2.0,0.0,-0.736457572168458,-0.3832457643951278,0.699790199469416,0.0142969139240006,3
737,1777301075442375307,0.1105079650878906,False,-0.7435522614479682,0.6100205348897811,0.8502504588038186,0.0287942644371535,-0.0133181516923599,-0.0205841884689771,-2.0,0.0,2.0,0.0,-0.7155112018215448,-0.3618066609498703,0.6898497247177089,0.0123505130813863,3
738,1777301075548916237,0.1064491271972656,False,-0.7604320747493657,0.5994869682260302,0.8700808007153182,0.0346572222479887,-0.0142903593482464,-0.0225892670545126,-2.0,0.0,2.0,0.0,-0.6885376907770395,-0.345646404342903,0.677951519570809,0.0135535602327076,3
739,1777301075652519332,0.1032211780548095,False,-0.7800164964556902,0.5862563273033474,0.8896799639838561,0.0234776808474642,-0.0213321042799444,-0.0293200023238816,-2.0,0.0,2.0,0.0,-0.6655955228978158,-0.3329560930439461,0.6661920216096864,0.017592001394329,3
740,1777301075749079256,0.0965986251831054,False,-0.8170238767672273,0.563729688798232,0.9221024146483346,0.0545041639028286,-0.0375537461432568,0.0028591008133385,-2.0,0.0,2.0,0.0,-0.5956188881029028,-0.2665764703678797,0.6467385512109992,-0.0017154604880031,3
741,1777301075829621470,0.0809419155120849,False,-0.8521648238902239,0.5393326664343449,0.9498517952773547,0.0078524147831663,-0.000847389361301,-0.018969504017068,-2.0,0.0,2.0,0.0,-0.553932620224949,-0.2437264623594396,0.6300889228335871,0.0113817024102407,3
742,1777301075931534793,0.1015560626983642,False,-0.8941114439717525,0.5152823868658867,0.9788489813477408,-0.017642047029539,-0.0976038845454729,-0.0700968413305359,-2.0,0.0,2.0,0.0,-0.5216181455748848,-0.2753341113078905,0.6126906111913555,0.0420581047983215,3
743,1777301076030292358,0.0987133979797363,False,-0.9436172111298592,0.486745468576632,1.0121293949176575,0.0138369334455808,-0.0288647877232328,-0.0415541156631912,-2.0,0.0,2.0,0.0,-0.4744299012131653,-0.2252239663078028,0.5927223630494055,0.0249324693979146,3
744,1777301076128817908,0.0988471508026123,False,-0.9975737363582317,0.4576411217483822,1.0463599775111578,-0.0199052567425532,0.0113604913685662,-0.0234898262744722,-2.0,0.0,2.0,0.0,-0.4332029013061516,-0.1964824344789263,0.5721840134933053,0.0140938957646832,3
745,1777301076228497215,0.0995502471923828,False,-1.0558902111190849,0.4287076199007124,1.081465228747357,-0.0322382276530228,0.0200273783730342,-0.0336314992095964,-2.0,0.0,2.0,0.0,-0.3847877540545726,-0.183073990313889,0.5511208627515858,0.0201788995257579,3
746,1777301076328813888,0.1005644798278808,False,-1.1175051331438668,0.3996336809646447,1.1162845916663986,-0.0320703123690647,0.018886916154106,-0.0225744775337237,-2.0,0.0,2.0,0.0,-0.3421469447616141,-0.1608120839810124,0.5302292450001608,0.0135446865202342,3
747,1777301076431915935,0.1027362346649169,False,-1.1807490530532692,0.3723389419049804,1.1508504603163023,-0.0412030861152858,0.024711552320054,-0.0221502712983245,-2.0,0.0,2.0,0.0,-0.3036140341238245,-0.1504615111675623,0.5094897238102186,0.0132901627789947,3
748,1777301076530150719,0.098365306854248,False,-1.2464481293307812,0.3466319405041331,1.1859225659017594,-0.0343226499449386,0.0398805527442839,-0.0089315013458393,-2.0,0.0,2.0,0.0,-0.2505910756629046,-0.131819899892646,0.4884464604589443,0.0053589008075037,3
749,1777301076630667320,0.1004037857055664,False,-1.3111252233798996,0.3232782986692224,1.219914981695144,-0.0385769215432997,0.0541925575169269,-0.0156069822661616,-2.0,0.0,2.0,0.0,-0.218108983264735,-0.1276072376799638,0.4680510109829136,0.009364189359697,3
750,1777301076730020354,0.0987305641174316,False,-1.3732394285113996,0.3023627002912602,1.2531446478651649,-0.0450311578656245,0.0591054800160089,-0.0138958615724682,-2.0,0.0,2.0,0.0,-0.1856619582420262,-0.1204555325924247,0.448113211280901,0.0083375169434809,3
751,1777301076831565109,0.1015312671661377,False,-1.4332815841536146,0.28412222003322,1.2862944835981174,-0.0520712259884592,0.0617481478275608,-0.0218650969150845,-2.0,0.0,2.0,0.0,-0.1600335613569497,-0.120104764613987,0.4282233098411295,0.0131190581490506,3
752,1777301076929495264,0.0983901023864746,False,-1.4906098072993152,0.2682072882728707,1.3189081518741792,-0.0485280257496755,0.0691627988817061,-0.0235404878986891,-2.0,0.0,2.0,0.0,-0.1281534476075888,-0.1154468608219506,0.4086551088754924,0.0141242927392134,3
753,1777301077031872708,0.1026885509490966,False,-1.5467571091122478,0.2561955659534603,1.3528911965275434,-0.0449997124915756,0.0955112826782103,-0.0237349648994063,-2.0,0.0,2.0,0.0,-0.1050682023302383,-0.1211533112007163,0.3882652820834739,0.0142409789396437,3
754,1777301077131479839,0.0995466709136962,False,-1.5956587585012836,0.2444797887505204,1.3836165541178036,-0.0439824816487804,0.0517139777212711,-0.0068815544971075,-2.0,0.0,2.0,0.0,-0.0944629922164942,-0.11203318276963,0.3698300675293178,0.0041289326982646,3
755,1777301077233390675,0.1018404960632324,False,-1.6409478181817267,0.2342673873162969,1.4124288427835958,-0.0395593608379205,0.0816765718786182,-0.0142162447818013,-2.0,0.0,2.0,0.0,-0.080440765939074,-0.1116317214433474,0.3525426943298425,0.0085297468690807,3
756,1777301077333765728,0.1005275249481201,False,-1.6819146120882482,0.2262188363514842,1.4397232485250029,-0.0467776420534679,0.088748318977269,-0.0209414038569771,-2.0,0.0,2.0,0.0,-0.0662414959633455,-0.1131242473676716,0.3361660508849984,0.0125648423141863,3
757,1777301077431083001,0.0972845554351806,False,-1.7169290213577757,0.2165014395602991,1.4635638872924586,-0.0403268223746734,0.0876613427404425,-0.0249621933204067,-2.0,0.0,2.0,0.0,-0.0593537407170254,-0.1014480167610998,0.3218616676245248,0.014977315992244,3
758,1777301077534007839,0.1029348373413086,False,-1.749664411644897,0.209774567748235,1.4867497506052996,-0.038838605726327,0.0758592712741832,-0.0233090715670881,-2.0,0.0,2.0,0.0,-0.0523037266558578,-0.1075077516942512,0.3079501496368202,0.0139854429402528,3
759,1777301077630795344,0.0967242717742919,False,-1.779333643964037,0.2033671371285062,1.5090387597027315,-0.0384154274732013,0.0772610021313341,-0.0293869869470269,-2.0,0.0,2.0,0.0,-0.0373589289366255,-0.1032893007529166,0.2945767441783609,0.0176321921682161,3
760,1777301077736613249,0.1056764125823974,False,-1.8046189694038963,0.1963892379673175,1.529193328262892,-0.0337648789375123,0.0856526906338627,-0.0289029521078196,-2.0,0.0,2.0,0.0,-0.0425954699911946,-0.0992967354887928,0.2824840030422648,0.0173417712646918,3
761,1777301077839682701,0.1031703948974609,False,-1.8299911391751191,0.190125943713331,1.550463097948168,-0.0340740975028091,0.0914788858767006,-0.0230149852730471,-2.0,0.0,2.0,0.0,-0.0260142758703588,-0.096487309209186,0.2697221412310992,0.0138089911638282,3
762,1777301077932013771,0.0924034118652343,False,-1.8479588860616811,0.1851115783001445,1.5664222541449058,-0.0359866429972071,0.0723720992060076,-0.0241634631415721,-2.0,0.0,2.0,0.0,-0.0305902177991117,-0.0955541289763582,0.2601466475130565,0.0144980778849434,3
763,1777301078037861230,0.1060113906860351,False,-1.8677289181031411,0.1791600251708776,1.5853672476545413,-0.0396724668428055,0.0760738912787898,-0.0312906542475204,-1.0,1.0,3.0,-1.5,0.75,0.75,0.75,-0.8812256074514877,3
764,1777301078132889222,0.0949916839599609,False,-1.8817206427937831,0.1747157228626318,1.5997530147982613,-0.0368191294429445,0.076322969733644,-0.0296271805899173,-1.0,1.0,3.0,-1.5,0.5578849440507058,0.5259633943738626,0.75,-0.8822236916460496,3
765,1777301078231085520,0.0982558727264404,False,-1.893939785332409,0.1723833817422752,1.617631153304756,-0.0674653598360301,0.1143026245300482,-0.0714683527603908,-1.0,1.0,3.0,-1.5,0.5362402006433404,0.5433698863432951,0.75,-0.8571189883437655,3
766,1777301078337999670,0.1069750785827636,False,-1.9008624772403504,0.1757758075911725,1.642186471200501,-0.1074793284916621,0.1574058294122566,-0.1250919936981193,-1.0,1.0,3.0,-1.5,0.4950421163988341,0.5510913755504327,0.75,-0.8249448037811283,3
767,1777301078438047928,0.1000070571899414,False,-1.899508515972592,0.1853645038585155,1.6665675157859976,-0.0974930468554692,0.1555766463983498,-0.180202469104889,-1.0,1.0,3.0,-1.5,0.444521741650464,0.5485711016825031,0.75,-0.7918785185370665,3
768,1777301078539405328,0.1012594699859619,False,-1.889030268649117,0.2018135849674488,1.6940154250493835,-0.0926900346230792,0.1684104996966231,-0.2246449570693938,-1.0,1.0,3.0,-1.5,0.3939247265578912,0.5312784580298208,0.75,-0.7652130257583637,3
769,1777301078633256594,0.0935895442962646,False,-1.8709530512236008,0.2238369749667442,1.7210626765123205,-0.0763909564363361,0.1702729676972879,-0.2912240580398957,-1.0,1.0,3.0,-1.5,0.331617947942855,0.5118712216490666,0.75,-0.7252655651760626,3
770,1777301078732853765,0.0998682975769043,False,-1.8447960949507909,0.2521126431922095,1.7518297900275612,-0.0739229163439551,0.1665975453487486,-0.3350077779604133,-1.0,1.0,3.0,-1.5,0.2848861871688774,0.4843855099526119,0.7489021259834633,-0.6989953332237521,3
771,1777301078839499769,0.1067454814910888,False,-1.805083821274056,0.2904228795928469,1.7864164887912184,-0.0723311619678968,0.1763518290568353,-0.3816023250123133,-1.0,1.0,3.0,-1.5,0.2262689322271971,0.4335266062667388,0.7281501067252689,-0.6710386049926121,3
772,1777301078943786399,0.1041862964630127,False,-1.7603869454612338,0.3307317555723157,1.819487358918327,-0.0697125867468555,0.1717092056984414,-0.4319174469345736,-1.0,1.0,3.0,-1.5,0.1779395048132914,0.3963829612823832,0.7083075846490038,-0.6408495318392557,3
773,1777301079038915064,0.0947153568267822,False,-1.7087495494619434,0.3753728138986104,1.852006565288887,-0.0617442623949968,0.1745316868260567,-0.4735679313639394,-1.0,1.0,3.0,-1.5,0.1264571884003546,0.3270459964473133,0.6887960608266678,-0.6158592411816364,3
774,1777301079140392127,0.101630687713623,False,-1.6497702455410184,0.4250604545976679,1.8850165800107312,-0.0760177519771748,0.1582653199268021,-0.5169791990458102,-1.0,1.0,3.0,-1.5,0.0895591258256092,0.2790212855910397,0.6689900519935612,-0.5898124805725139,3
775,1777301079234232329,0.0940573215484619,False,-1.5938849034749152,0.4717543774294777,1.913234342350852,-0.0565564444346682,0.1303644791717527,-0.5327650657039398,-1.0,1.0,3.0,-1.5,0.0680633208416399,0.2351801300246116,0.6520593945894889,-0.5803409605776363,3
776,1777301079340224398,0.1058533191680908,False,-1.5210902267044817,0.5319104487593631,1.9469480116254616,-0.0064668313542395,0.0686765129273526,-0.5670965625666341,-1.0,1.0,3.0,-1.5,0.0304126838301677,0.1502162465604636,0.6318311930247229,-0.5597420624600196,3
777,1777301079438510330,0.0981867313385009,False,-1.4586357013801106,0.587293165506297,1.978461085258497,0.0078957442396279,0.0506168414984642,-0.5941703809149623,-1.0,1.0,3.0,-1.5,0.0260056423440211,0.1121948289348138,0.6129233488449018,-0.5434977714510226,3
778,1777301079542032361,0.1036806106567382,False,-1.3975568164622345,0.6398053680920728,2.008289654976572,0.0368268753551666,0.0380271513778007,-0.6245477732800996,-1.0,1.0,3.0,-1.5,0.0126119896962985,0.0881962783606584,0.5950262070140567,-0.5252713360319402,3
779,1777301079644464086,0.1026885509490966,False,-1.3397068836053907,0.6887467339490426,2.035782006181468,0.0344983260200648,0.035277338923288,-0.6751401332360258,-1.0,1.0,3.0,-1.5,-0.0001780465992365,0.055930807641641,0.5785307962911191,-0.4949159200583846,3
780,1777301079743426149,0.0987074375152587,False,-1.289355829812043,0.7346737731525036,2.0653253659459714,0.0502147550683664,0.0351132895440353,-0.6983869923854509,-1.0,1.0,3.0,-1.5,0.0031544374804623,0.0282532926955212,0.5608047804324171,-0.4809678045687294,3
781,1777301079840714861,0.0972728729248046,False,-1.2499447365303895,0.7719819983556209,2.09131361278,0.0512612253991759,0.0227108490140062,-0.7229413822457529,-1.0,1.0,3.0,-1.5,0.0069217247661473,0.0351098657167673,0.545211832332,-0.4662351706525482,3
782,1777301079947853786,0.1069920063018798,False,-1.2117693045348374,0.8091138289457279,2.120769666272301,0.0622284756366438,0.0314878390886477,-0.7443339642623211,-1.0,1.0,3.0,-1.5,0.0076686046170633,0.0212243321679601,0.5275382002366197,-0.4533996214426072,3
783,1777301080047804189,0.1002402305603027,False,-1.1761408854604545,0.8444752044360919,2.1526768149256332,0.0425265426460579,0.0277702751270426,-0.7849506805877393,-1.0,1.0,3.0,-1.5,0.0081772791264352,-0.0095210230173047,0.5083939110446201,-0.4290295916473564,3
784,1777301080146496481,0.0988144874572753,False,-1.1502056044465765,0.8718114672738994,2.181763716832916,0.062971598386006,0.03402629914971,-0.790040863138267,-1.0,1.0,3.0,-1.5,0.0123310919132432,0.0038081367486626,0.4909417699002505,-0.4259754821170398,3
785,1777301080254847418,0.1082558631896972,False,-1.1281942656064374,0.8955642157389604,2.2112451729303744,0.0600422346975673,0.0379368975902992,-0.8140462339099142,-1.0,1.0,3.0,-1.5,0.0132283345389075,0.0094026405983047,0.4732528962417753,-0.4115722596540516,3
786,1777301080365867308,0.1111102104187011,False,-1.1069745941267413,0.9191483125940556,2.2461661218080846,0.0551002354783198,0.0419688608546029,-0.8435697353889267,-1.0,1.0,3.0,-1.5,0.0159110018723695,-0.0049348829321223,0.4523003269151492,-0.393858158766644,3
787,1777301080439333856,0.0728423595428466,False,-1.0953664025574588,0.932827768471793,2.270147789188532,0.0406498421547527,0.0420087297284965,-0.8568243128863426,-1.0,1.0,3.0,-1.5,0.0182820890699386,-0.003387491530167,0.4379113264868808,-0.3859054122681944,3
788,1777301080540145203,0.1011650562286377,False,-1.0835461032103304,0.9478934695013904,2.299592725298872,0.0557476927215656,0.0258609067227087,-0.8695285334903544,-1.0,1.0,3.0,-1.5,0.0199739039193188,0.0028641027483432,0.4202443648206767,-0.3782828799057873,3
789,1777301080639133151,0.0988466739654541,False,-1.0739413329016592,0.9614250399495252,2.330319122304826,0.039076988174771,0.0531249771618369,-0.8929482318577763,-1.0,1.0,3.0,-1.5,0.0235021157691928,0.0006106902846474,0.4018085266171043,-0.3642310608853343,3
790,1777301080742086156,0.1030435562133789,False,-1.0657980929565185,0.9729159930436522,2.3612256383596866,0.0483217422952872,0.0523487360554535,-0.905393307644134,-1.0,1.0,3.0,-1.5,0.0232704882989345,0.0017848196384661,0.383264616984188,-0.3567640154135194,3
791,1777301080843437463,0.1011817455291748,False,-1.0597570776429948,0.9836571202434164,2.3908968768362273,0.0301088284125247,0.0559898039198604,-0.9200640440149996,-1.0,1.0,3.0,-1.5,0.0284061879946155,0.0009241281863716,0.3654618738982636,-0.3479615735910002,3
792,1777301080939072220,0.0960340499877929,False,-1.0552817629089162,0.993128822244624,2.419886389583705,0.0553448313729972,0.0393722253089615,-0.9326982854209858,-1.0,1.0,3.0,-1.5,0.0318850374169523,0.0002436855795372,0.3480681662497771,-0.3403810287474085,3
793,1777301081039743741,0.1006295680999755,False,-1.0539354429863657,0.99969455095789,2.4472257306797705,0.0735345827350533,0.0301979982868824,-0.9455125914902728,-1.0,1.0,3.0,-1.5,0.0323145218080718,0.0116342323900788,0.3316645615921377,-0.3326924451058364,3
794,1777301081141657667,0.101945161819458,False,-1.0542990038842754,1.0043542691981628,2.4737072315714377,0.0626117960157693,0.0312671803386166,-0.9512158059454136,-1.0,1.0,3.0,-1.5,0.0328304550122416,0.0179148010329581,0.3157756610571374,-0.3292705164327517,3
795,1777301081240181998,0.0982449054718017,False,-1.057201078263246,1.0075868454023216,2.499009505264556,0.0361365958807857,0.0465813043473452,-0.9729520341768008,-1.0,1.0,3.0,-1.5,0.0362271428730395,0.0275742496656052,0.3005942968412664,-0.3162287794939195,3
796,1777301081349351610,0.1092691421508789,False,-1.0670468478629829,1.0013100277478264,2.5342797212411288,0.0770230324135363,0.0548424213773051,-0.9813028383516598,-1.0,1.0,3.0,-1.5,0.0237212459318899,0.065051448420263,0.2794321672553227,-0.3112182969890043,3
797,1777301081447134257,0.0977263450622558,False,-1.0711286074531037,1.0029777809746976,2.5532096399820916,0.0626270843704024,0.0422982347075132,-0.9952969475616532,-3.0,-1.0,3.0,-1.5,0.75,-0.75,0.268074216010745,-0.302821831463008,3
798,1777301081541804358,0.0949277877807617,False,-1.0762263441219022,1.00534805499896,2.5728072560622404,0.0646402661650167,0.0442386760974468,-1.0041971418871491,-3.0,-1.0,3.0,-1.5,0.4105831060197181,-0.75,0.2563156463626557,-0.2974817148677105,3
799,1777301081649562006,0.1076869964599609,False,-1.0759779032288843,1.0147628149348358,2.5807656079512635,0.0550958599952123,0.0516846506456372,-1.022022724086082,-3.0,-1.0,3.0,-1.5,0.4511811949590671,-0.75,0.2515406352292418,-0.2867863655483508,3
800,1777301081750742386,0.1011016368865966,False,-1.0835508847715007,1.0118449121383295,2.5967779421032393,0.1351633408435318,0.0105994982166324,-1.0057040837963735,-3.0,-1.0,3.0,-1.5,0.4084222590009316,-0.75,0.2419332347380564,-0.2965775497221758,3
801,1777301081840677013,0.0894918441772461,False,-1.090424362112652,0.9998963142773144,2.6083993401016077,0.2002713444902436,0.0213505108922011,-1.0298813651327756,-3.0,-1.0,3.0,-1.5,0.4161924523009838,-0.75,0.2349603959390354,-0.2820711809203346,3
802,1777301081951479044,0.1111154556274414,False,-1.1101891311790413,0.9686457924972296,2.6339464838419775,0.2100266864585932,0.0027587667327591,-1.0379687516109162,-3.0,-1.0,3.0,-1.5,0.3958928988568818,-0.75,0.2196321096948135,-0.2772187490334504,3
803,1777301082050028690,0.0980391502380371,False,-1.126931031130629,0.9431744123937256,2.6461533031720355,0.1940863701829849,-0.1314369741959089,-0.993577458140306,-3.0,-1.0,3.0,-1.5,0.3263753149480528,-0.75,0.2123080180967787,-0.3038535251158162,3
804,1777301082150386256,0.1011414527893066,False,-1.1387497104791158,0.8935116640528206,2.6506787275973855,0.197875978009078,0.0025104640343616,-1.054647663365904,-3.0,-1.0,3.0,-1.5,0.3261325028466175,-0.75,0.2095927634415686,-0.2672114019804575,3
805,1777301082249016234,0.0984556674957275,False,-1.1711792870311084,0.8379514240431786,2.668886445019475,0.2002741246218881,-0.0126816706445628,-1.0636544283749845,-3.0,-1.0,3.0,-1.5,0.3310433645947025,-0.75,0.1986681329883149,-0.2618073429750095,3
806,1777301082351113756,0.1021840572357177,False,-1.2015689230300814,0.7695004007061693,2.6811960313554093,0.1831927575659863,-0.0175953523508141,-1.076981910406535,-3.0,-1.0,3.0,-1.5,0.2887337240150068,-0.75,0.1912823811867544,-0.253810853756079,3
807,1777301082441835301,0.0907280445098877,False,-1.231127268476457,0.7026876877280209,2.690938033639819,0.1874063579801564,-0.0178874333027023,-1.077748587058427,-3.0,-1.0,3.0,-1.5,0.2492461392799925,-0.75,0.1854371798161086,-0.2533508477649438,3
808,1777301082549324967,0.1073400974273681,False,-1.2736908340954534,0.6145666067609356,2.7020917646109557,0.1418255803265609,-0.0243192716450227,-1.1124432275564644,-3.0,-1.0,3.0,-1.5,0.2422144680724051,-0.75,0.1787449412334265,-0.2325340634661215,3
809,1777301082648872574,0.0997471809387207,False,-1.3174588991686087,0.5298055189292069,2.711357426583988,0.106639442819096,-0.0312664312038983,-1.1173303734899689,-3.0,-1.0,3.0,-1.5,0.2113649780863336,-0.75,0.1731855440496071,-0.2296017759060188,3
810,1777301082749036929,0.100107192993164,False,-1.365221467152252,0.4446350614749955,2.719490415088725,0.0888587699026425,-0.0365485778398918,-1.1206434444631377,-3.0,-1.0,3.0,-1.5,0.1861214498799315,-0.75,0.1683057509467649,-0.2276139333221173,3
811,1777301082849982106,0.1009783744812011,False,-1.4190912257489603,0.35930372503121,2.7276025120304404,0.0886891119512943,-0.0240036432265776,-1.140274444332811,-3.0,-1.0,3.0,-1.5,0.1817013161506624,-0.75,0.1634384927817357,-0.2158353334003132,3
812,1777301082949019795,0.0990138053894043,False,-1.4762788855214724,0.2770840776574637,2.734670702504088,0.0799115986120761,-0.0260196306990996,-1.1492544992061773,-3.0,-1.0,3.0,-1.5,0.1686869953391781,-0.75,0.1591975784975471,-0.2104473004762936,3
813,1777301083044059563,0.0949621200561523,False,-1.5310507731128948,0.2054399473848413,2.7402360633987777,0.0716363512171619,-0.0270693734897544,-1.1656808894327062,-3.0,-1.0,3.0,-1.5,0.1775330253686196,-0.75,0.1558583619607333,-0.2005914663403762,3
814,1777301083143629620,0.0996468067169189,False,-1.595677597865246,0.1295769249507868,2.7456259122673217,0.0663868652035151,-0.0322110681975037,-1.1759336905009088,-3.0,-1.0,3.0,-1.5,0.165489173444761,-0.75,0.152624452639607,-0.1944397856994548,3
815,1777301083245248103,0.1016933917999267,False,-1.6638931754999868,0.0574044115054305,2.750468089437514,0.0684202089252422,-0.0312499084828143,-1.1806928459581298,-3.0,-1.0,3.0,-1.5,0.1615286891645061,-0.7156163866976281,0.1497191463374916,-0.1915842924251221,3
816,1777301083351337423,0.1058096885681152,False,-1.7424852458732405,-0.0170715950222302,2.756435328278762,0.0724621966523304,-0.0210880820757443,-1.1893290621102268,-3.0,-1.0,3.0,-1.5,0.15344836152652,-0.6344060511686698,0.1461388030327427,-0.1864025627338637,3
817,1777301083444555493,0.09332275390625,False,-1.8097965596804593,-0.0750349016321183,2.762065325836527,0.0709735665453904,-0.0289862418087892,-1.2043815640182662,-3.0,-1.0,3.0,-1.5,0.1658502339457712,-0.5967741535124004,0.1427608044980838,-0.1773710615890401,3
818,1777301083550707441,0.1061785221099853,False,-1.894425307306406,-0.1422041076837266,2.7686631421765533,0.0746923983419252,-0.0240837198294015,-1.2084261782038517,-3.0,-1.0,3.0,-1.5,0.1534099790546527,-0.5118549693711193,0.138802114694068,-0.1749442930776888,3
819,1777301083651975947,0.1013216972351074,False,-1.972187312620219,-0.1984926667899585,2.772501885200543,0.0742306151002575,-0.0015357059522669,-1.2089840426555831,-3.0,-1.0,3.0,-1.5,0.1571067786090826,-0.4726570593071124,0.136498868879674,-0.1746095744066501,3
820,1777301083749919051,0.0978658199310302,False,-2.0550861623797116,-0.2549298116290102,2.7800037863341456,0.075009743052598,-0.0117115121442441,-1.219878970928422,-3.0,-1.0,3.0,-1.5,0.1498002549332295,-0.3879672142923827,0.1319977281995126,-0.1680726174429467,3
821,1777301083864353520,0.1144709587097168,False,-2.130965547997667,-0.3039535216861858,2.7860561195895555,0.0857165154537746,-0.0346856633441454,-1.223869184645072,-3.0,-1.0,3.0,-1.5,0.1622485944803993,-0.4016555546103322,0.1283663282462667,-0.1656784892129566,3
822,1777301083948994675,0.0845921039581298,False,-2.2222610763374324,-0.3601304710927891,2.790030431107714,0.0771160041280681,-0.0102060098134629,-1.232806691632634,-3.0,-1.0,3.0,-1.5,0.1268702122843735,-0.1960299120112444,0.1259817413353714,-0.1603159850204196,3
823,1777301084047032222,0.0980670452117919,False,-2.28966669090626,-0.399169298813071,2.793220371516497,0.0726550597996155,0.0131946115910209,-1.2317434286551032,-3.0,-1.0,3.0,-1.5,0.154179407275158,-0.2876525252133547,0.1240677770901018,-0.160953942806938,3
824,1777301084148717461,0.1019010543823242,False,-2.389212955929159,-0.4550655017022246,2.799125465562184,0.0556753225175798,0.0345039831519615,-1.2506106238064847,-3.0,-1.0,3.0,-1.5,0.1310431530289976,-0.1207885327742265,0.1205247206626896,-0.1496336257161092,3
825,1777301084250856523,0.1020498275756836,False,-2.4681699891650677,-0.4975886702485451,2.8020024044877383,0.0626602437360383,0.0513250201923676,-1.2513228359795925,-3.0,-1.0,3.0,-1.5,0.1401929915285799,-0.1379973210484302,0.118798557307357,-0.1492062984122446,3
826,1777301084350539169,0.0995550155639648,False,-2.5422327009572165,-0.5368822986928647,2.804913762033461,0.0733726555250891,0.0656423856663229,-1.255906284913347,-3.0,-1.0,3.0,-1.5,0.135678423755897,-0.0983354587677312,0.1170517427799232,-0.1464562290519917,3
827,1777301084457413427,0.1070015430450439,False,-2.6038606884134663,-0.568891652337284,2.8069885339110603,0.0602148200100373,0.0691555653349977,-1.2641131483500556,-3.0,-1.0,3.0,-1.5,0.1414462597269959,-0.11286601711703,0.1158068796533638,-0.1415321109899665,3
828,1777301084555296084,0.0977516174316406,False,-2.6717994097478757,-0.6044709382260746,2.8096110278211617,0.070335175809663,0.0814818713228544,-1.2674853722331465,-3.0,-1.0,3.0,-1.5,0.125735842465369,-0.0272134259580194,0.1142333833073029,-0.1395087766601122,3
829,1777301084657623866,0.102452278137207,False,-2.7260897654215746,-0.6333551674013036,2.8114652594283993,0.0726974504213323,0.0817651940956984,-1.27138574661286,-3.0,-1.0,3.0,-1.5,0.1277991081894494,-0.0450740974730247,0.1131208443429604,-0.137168552032284,3
830,1777301084765048772,0.107490062713623,False,-2.767876259260573,-0.6520134032519721,2.8082112651908115,0.0645488746993639,0.0942349931968601,-1.2680801735702916,-2.0,0.0,1.0,-3.1,-0.75,0.75,-0.75,-1.099151895857825,3
831,1777301084858636459,0.0932149887084961,False,-2.816476059689177,-0.6793646547445118,2.8104925826576324,0.0665688734774703,0.0880342704882528,-1.277455676093497,-2.0,0.0,1.0,-3.1,-0.2875946978420268,0.75,-0.75,-1.093526594343902,3
832,1777301084989326869,0.1307597160339355,False,-2.8495792650439435,-0.6994685634035804,2.8137828145263275,0.0177825036050293,0.1045922421592799,-1.3183348059730042,-2.0,0.0,1.0,-3.1,-0.3047395455204352,0.6834821203171123,-0.75,-1.0689991164161974,3
833,1777301085061588825,0.0722885131835937,False,-2.8708366542201698,-0.7080505459541537,2.806304010849511,-0.032976294291345,0.1336124586575122,-1.362278195009494,-2.0,0.0,1.0,-3.1,-0.3240464780555077,0.6928090294517245,-0.75,-1.0426330829943036,3
834,1777301085166083251,0.1044707298278808,False,-2.8867485615123267,-0.7096297986689951,2.7886184491100363,-0.0162321218985171,0.1259722301902839,-1.4179534116720238,-2.0,0.0,1.0,-3.1,-0.3373360354949032,0.636521374739557,-0.75,-1.0092279529967858,3
835,1777301085269626389,0.1034224033355712,False,-2.8902654030992267,-0.70025827154061,2.767200901484658,-0.0156859449151489,0.1376623290110467,-1.465591513616365,-2.0,0.0,1.0,-3.1,-0.3336342562643012,0.5826170969345004,-0.75,-0.980645091830181,3
836,1777301085350801050,0.0813329219818115,False,-2.88401521054504,-0.6840052784795468,2.7442731501427913,-0.0077609756754726,0.1341387795833326,-1.510266132517334,-2.0,0.0,1.0,-3.1,-0.3191199334730116,0.5276259093255481,-0.75,-0.9538403204895995,3
837,1777301085473756594,0.1231670379638671,False,-2.8623689609601644,-0.6512147706724073,2.709419481917887,-0.0221509479961553,0.1397932074225489,-1.5759277983551787,-2.0,0.0,1.0,-3.1,-0.3132409553949531,0.4630959640567544,-0.75,-0.9144433209868928,3
838,1777301085552457809,0.0785038471221923,False,-2.8400330710472894,-0.6232315594233108,2.6840598720215696,-0.0125319037315641,0.1704698539469465,-1.6050530775488212,-2.0,0.0,1.0,-3.1,-0.2811845775717336,0.4092734736326854,-0.75,-0.8969681534707074,3
839,1777301085679057699,0.1266989707946777,False,-2.799562386606784,-0.5783446506380258,2.6490802761129815,0.0059725859533589,0.1420073771659671,-1.6725071841112908,-2.0,0.0,1.0,-3.1,-0.2784592689011303,0.3574842379165832,-0.75,-0.8564956895332255,3
840,1777301085759240624,0.0800714492797851,False,-2.7518955313205677,-0.5320322285023742,2.615060632511168,0.0505372981269691,0.1326259595064003,-1.7142530873037385,-2.0,0.0,1.0,-3.1,-0.1831706379248488,0.2489160213261917,-0.75,-0.8314481476177571,3
841,1777301085861742175,0.1026556491851806,False,-2.69674022385666,-0.4827679911237787,2.581421054502008,0.055032766313865,0.1148241827058173,-1.776683416284571,-2.0,0.0,1.0,-3.1,-0.1951254717991388,0.2216493698846117,-0.75,-0.7939899502292574,3
842,1777301085965150137,0.1034848690032959,False,-2.6420078098932467,-0.4376352866150686,2.5504185881295767,0.0833067012665857,0.0567593894756377,-1.813079725313819,-2.0,0.0,1.0,-3.1,-0.1822454634120618,0.1883125954633585,-0.75,-0.7721521648117088,3
843,1777301086060038017,0.0948448181152343,False,-2.5723487729500927,-0.3838150076776965,2.512812189415358,0.1130488265883521,0.0070056313012179,-1.860944357728257,-2.0,0.0,1.0,-3.1,-0.0927526423212796,0.1007485960310756,-0.75,-0.7434333853630458,3
844,1777301086158851536,0.0987896919250488,False,-2.5095505164135408,-0.3366495976091748,2.477936297054374,0.1013389239435454,-0.0290090318586841,-1.9123453808264577,-2.0,0.0,1.0,-3.1,-0.0938939562343428,0.0887016191269257,-0.75,-0.7125927715041255,3
845,1777301086253326611,0.0945630073547363,False,-2.456902982774472,-0.2971447835405142,2.4474199635449203,0.1046545616111021,-0.0591540374219079,-1.9617706310692156,-2.0,0.0,1.0,-3.1,-0.0897835730326639,0.0788529433033639,-0.75,-0.6829376213584707,3
846,1777301086360981428,0.1075942516326904,False,-2.3988354308481945,-0.2525239564555249,2.410888984738462,0.1331869462583882,-0.0488476280314812,-1.986248450189936,-2.0,0.0,1.0,-3.1,-0.056031500470343,0.0598728613413437,-0.75,-0.6682509298860383,3
847,1777301086458042390,0.0970411300659179,False,-2.352361587308258,-0.2152214618940934,2.376877020781373,0.1389432994782693,-0.0609301798518216,-2.017103457397884,-2.0,0.0,1.0,-3.1,-0.0417011756886268,0.0551462823974014,-0.75,-0.6497379255612695,3
848,1777301086562173889,0.1042499542236328,False,-2.3122627675240945,-0.1806903451048862,2.3425044241950697,0.131913698646661,-0.0557557295242552,-2.0601853915628245,-2.0,0.0,1.0,-3.1,-0.0418124001510043,0.0592665637722832,-0.75,-0.6238887650623053,3
849,1777301086653105529,0.0907564163208007,False,-2.279420624247931,-0.1517142494328966,2.3101361666792504,0.1232279874970311,-0.0756915344601058,-2.105676081811133,-2.0,0.0,1.0,-3.1,-0.0260313815089001,0.0532607389639674,-0.75,-0.5965943509133204,3
850,1777301086759780019,0.106849193572998,False,-2.2496194825744387,-0.1209252733064405,2.273178665322229,0.1312219415808364,-0.0815083095978346,-2.14748621684534,-2.0,0.0,1.0,-3.1,-0.0243963500126221,0.0629831253484711,-0.75,-0.5715082698927959,3
851,1777301086874499560,0.1147193908691406,False,-2.2267337471301403,-0.0942088443911077,2.2367173057333045,0.1303015301271587,-0.0855960376783998,-2.1886860293268677,-2.0,0.0,1.0,-3.1,-0.0332658056334598,0.0698327512660272,-0.7420303834399827,-0.5467883824038794,3
852,1777301086958830185,0.0841655731201171,False,-2.2126823197666914,-0.074546675138197,2.207097066963503,0.1324123726540289,-0.0784137847394716,-2.218303903694661,-2.0,0.0,1.0,-3.1,-0.0265391798930906,0.0771273783833729,-0.7242582401781017,-0.5290176577832036,3
853,1777301087062623443,0.1036353111267089,False,-2.2003595898984947,-0.0553028989599312,2.17459856179058,0.1233890787957971,-0.0717826080975524,-2.2553621281225564,-2.0,0.0,1.0,-3.1,-0.0360109002755171,0.0797390236657097,-0.7047591370743479,-0.5067827231264662,3
854,1777301087162083455,0.0996208190917968,False,-2.191161520425685,-0.0383843671268721,2.142753755308186,0.1218485162035862,-0.0611368718555591,-2.28666797335035,-2.0,0.0,1.0,-3.1,-0.0360295739048379,0.0839636162829158,-0.6856522531849116,-0.4879992159897899,3
855,1777301087261099733,0.09898042678833,False,-2.1839637513758725,-0.0234306985010995,2.111659394982394,0.1113501219516763,-0.072828835791705,-2.325643583544698,-2.0,0.0,1.0,-3.1,-0.037908580958283,0.085928688821831,-0.6669956369894363,-0.4646138498731816,3
856,1777301087357966282,0.0971782207489013,False,-2.178754024402534,-0.0097415745045078,2.0811394822139833,0.1029975053837949,-0.0632837074592374,-2.358217044958588,-2.0,0.0,1.0,-3.1,-0.038899665003966,0.0901372411440773,-0.6486836893283899,-0.4450697730248471,3
857,1777301087455682947,0.0974335670471191,False,-2.174468001350033,0.0021408435885805,2.054243036935647,0.1056448764781422,-0.059717421779419,-2.378952216844269,-2.0,0.0,1.0,-3.1,-0.0399819444198967,0.0905812688723597,-0.6325458221613882,-0.4326286698934385,3
858,1777301087561631903,0.106027603149414,False,-2.1699753763991967,0.0148847862494208,2.0218840215045137,0.0972407048425842,-0.0559958551443725,-2.4174324500053053,-2.0,0.0,1.0,-3.1,-0.0370652284997437,0.0928437903092384,-0.6131304129027082,-0.4095405299968169,3
859,1777301087658136875,0.0965251922607421,False,-2.166561750246406,0.0251558911889588,1.993544886986485,0.1022997756395879,-0.0613745449784063,-2.4400760013513114,-2.0,0.0,1.0,-3.1,-0.0378909870172239,0.0935638319381866,-0.596126932191891,-0.3959543991892132,3
860,1777301087759090149,0.1008594036102294,False,-2.163389042327161,0.0358188121106783,1.9647384096288216,0.1035496250718039,-0.0703671539319819,-2.46753417606564,-2.0,0.0,1.0,-3.1,-0.036009837328661,0.0968692432714301,-0.5788430457772928,-0.379479494360616,3
861,1777301087857989302,0.0988757610321044,False,-2.160075955994466,0.0453122937028745,1.9354698562890504,0.1111050353828555,-0.065718475604404,-2.4889126904137835,-2.0,0.0,1.0,-3.1,-0.0343134387843714,0.0967083292385406,-0.5612819137734303,-0.3666523857517299,3
862,1777301087959337264,0.1004853248596191,False,-2.1569204309606493,0.0535011459933434,1.9060077904460069,0.1094622020919819,-0.0737350176576312,-2.5116259540193684,-2.0,0.0,1.0,-3.1,-0.0351531831696494,0.0956107111173365,-0.543604674267604,-0.353024427588379,3
863,1777301088063728699,0.1053717136383056,False,-2.154110746176814,0.0594965766280803,1.8797004400071928,0.1068853433131158,-0.0743557306875971,-2.53259176195475,-2.0,0.0,1.0,-3.1,-0.0390961448247072,0.091600064217392,-0.5278202640043157,-0.34044494282715,3
864,1777301088157856769,0.0941221714019775,False,-2.150493507617033,0.0652953634969011,1.8472911109116417,0.1043030490503476,-0.0784714048290772,-2.5555790062666244,-2.0,0.0,1.0,-3.1,-0.0337361292761849,0.0916009805144948,-0.5083746665469848,-0.3266525962400254,3
865,1777301088258408472,0.1003327369689941,False,-2.1468567099270253,0.068785519517465,1.8179791442330957,0.1079023311083251,-0.0728244695258004,-2.571740815004518,-2.0,0.0,1.0,-3.1,-0.0371381161592699,0.085207799361198,-0.4907874865398572,-0.3169555109972893,3
866,1777301088361496697,0.1032075881958007,False,-2.1431132022867834,0.0715160645029302,1.7883530062568418,0.1018333072806275,-0.0698311533107445,-2.5905651820421025,-2.0,0.0,1.0,-3.1,-0.0372660288476427,0.0825808301958035,-0.473011803754105,-0.3056608907747385,3
867,1777301088460235394,0.0986342430114746,False,-2.13890633040975,0.0733560013862121,1.758862948354195,0.0838117295462017,-0.077330897604585,-2.611270630708474,-2.0,0.0,1.0,-3.1,-0.0357649834212817,0.0784798271371207,-0.4553177690125172,-0.2932376215749155,3
868,1777301088560437905,0.1004095077514648,False,-2.1344360284168222,0.074340397651546,1.729329695898322,0.1076764773016764,-0.0728766329466191,-2.6181289216467203,-2.0,0.0,1.0,-3.1,-0.0345256044022805,0.0748235507738445,-0.4375978175389932,-0.2891226470119679,3
869,1777301088658148323,0.0976068973541259,False,-2.129543834566445,0.0747861497615837,1.6992673031601209,0.0807257741144759,-0.0914057402029104,-2.643779427603363,-2.0,0.0,1.0,-3.1,-0.0330004663257504,0.0705640730467511,-0.4195603818960725,-0.2737323434379823,3
870,1777301088760329488,0.1020650863647461,False,-2.125069580172111,0.0750333873545436,1.6694922623001356,0.1007069524250805,-0.0727403493412621,-2.645629873887268,-2.0,0.0,1.0,-3.1,-0.0326635366338474,0.0696871569648096,-0.4016953573800813,-0.2726220756676393,3
871,1777301088872298839,0.112011432647705,False,-2.119879640860975,0.0754174066875382,1.6367249433198146,0.0744866659635592,-0.0965433112128981,-2.670100579328132,-2.0,0.0,1.0,-3.1,-0.030675633061344,0.0675865959523527,-0.3820349659918887,-0.2579396524031209,3
872,1777301088962924560,0.0907549858093261,False,-2.1165260593806137,0.0760945010000019,1.6106612737049275,0.1097459126630464,-0.0722391051344349,-2.6610279969724613,-2.0,0.0,1.0,-3.1,-0.0300257306484156,0.0696659841237315,-0.3663967642229566,-0.2633832018165232,3
873,1777301089059838124,0.0969965457916259,False,-2.1125055217213715,0.0765447700854726,1.5843928354951924,0.072006814817939,-0.0976598883085874,-2.6942320875668417,-2.0,0.0,1.0,-3.1,-0.0291792503786048,0.0664846951356528,-0.3506357012971154,-0.243460747459895,3
874,1777301089162680630,0.1028873920440673,False,-2.1078683706690047,0.077735940885896,1.5535067946700516,0.0732986155716193,-0.1037569872759148,-2.6960409706387423,-2.0,0.0,1.0,-3.1,-0.0246042191559989,0.0672871617174469,-0.3321040768020309,-0.2423754176167546,3
875,1777301089265299186,0.1021366119384765,False,-2.104095604431136,0.0800275585694044,1.527595642669438,0.082600086722971,-0.0902000264121807,-2.707372808587865,-2.0,0.0,1.0,-3.1,-0.0235756250355372,0.0712808725370156,-0.3165573856016628,-0.235576314847281,3
876,1777301089369388725,0.1043529510498046,False,-2.1001722536300473,0.0823631010817976,1.5029968581543316,0.0583015952868298,-0.1007774173655389,-2.7305133581706738,-2.0,0.0,1.0,-3.1,-0.0223263520799536,0.0709659723032074,-0.3017981148925989,-0.2216919850975958,3
877,1777301089467416469,0.0980153083801269,False,-2.0957390861472587,0.084909618816106,1.480196529393358,0.0682110661526809,-0.101771848119796,-2.7349030168304203,-2.0,0.0,1.0,-3.1,-0.017060173748003,0.0713044523349299,-0.2881179176360148,-0.2190581899017478,3
878,1777301089579308424,0.1119050979614257,False,-2.090991393527854,0.0888653041208916,1.4571442276999766,0.0649547398080154,-0.1018246038389175,-2.747234517198199,-1.0,1.0,2.0,3.1,-0.75,-0.75,0.325713463380014,-0.2615704739888322,3
879,1777301089683984696,0.1046063899993896,False,-2.0827768549390404,0.0939352327781331,1.4332416701364823,0.0758939159801674,-0.0870474612031743,-2.7450113629056467,-1.0,1.0,2.0,3.1,-0.75,-0.2461889667545986,0.3400549979181105,-0.2629043665643639,3
880,1777301089775293102,0.0913331508636474,False,-2.0770828545460933,0.1007942703442022,1.4196448421052037,0.0249072786216252,-0.0781465334384405,-2.760703269219858,-1.0,1.0,2.0,3.1,-0.75,-0.2466548710360693,0.3482130947368778,-0.2534892227758369,3
881,1777301089871018090,0.0959627628326416,False,-2.0714725325215624,0.1112018502733593,1.4178187038279169,0.0249618979778594,-0.0344160506352079,-2.7505000793470997,-1.0,1.0,2.0,3.1,-0.75,-0.2245525663967584,0.3493087777032498,-0.2596111366994918,3
882,1777301089966357508,0.0951988697052002,False,-2.0578523523795424,0.1269928691343989,1.4155921908493936,-0.0205606458681336,-0.0252385440613158,-2.793510038466807,-1.0,1.0,2.0,3.1,-0.7179934679388373,-0.2437557553369413,0.3506446854903638,-0.2338051612276672,3
883,1777301090080793083,0.114570140838623,False,-2.0329280946429575,0.1591982836068434,1.427467572960251,0.0053244603101934,-0.0270125502988833,-2.790915978404897,-1.0,1.0,2.0,3.1,-0.665083042867832,-0.2040945647205559,0.3435194562238493,-0.2353615972648128,3
884,1777301090163984661,0.0829074382781982,False,-2.0123068026865107,0.1853717480499037,1.4390458297065574,0.0142124640532935,-0.0251216534458031,-2.7929563034460987,-1.0,1.0,2.0,3.1,-0.6353348569095271,-0.1883593769459905,0.3365725021760655,-0.2341374022400927,3
885,1777301090263499454,0.0992262363433837,False,-1.9806413046099969,0.2230411188260699,1.4581970051685444,0.0032603651045401,-0.0204612331742659,-2.8136883146757734,-1.0,1.0,2.0,3.1,-0.5798560585406466,-0.1748540303339983,0.3250817968988733,-0.2216981955022873,3
886,1777301090365093705,0.1019690036773681,False,-1.942490210467132,0.2638373384318207,1.4802286855189917,0.0190258304027087,-0.0153659505024778,-2.813902969238692,-1.0,1.0,2.0,3.1,-0.5326650421967916,-0.1586738085207713,0.311862788688605,-0.2215694027645369,3
887,1777301090470080786,0.1050381660461425,False,-1.894511173952956,0.3128085129340303,1.5077648740535554,0.0444788281664003,-0.0231746876536224,-2.816896306185108,-1.0,1.0,2.0,3.1,-0.4657063330956026,-0.1307077729804277,0.2953410755678667,-0.2197734005966864,3
888,1777301090570007522,0.0999915599822998,False,-1.8458873741417352,0.3595307188335091,1.533935310595817,0.0545966609717922,-0.0201191695314388,-2.822233606823669,-1.0,1.0,2.0,3.1,-0.4200007597133413,-0.1182179605746515,0.27963881364251,-0.2165710202135503,3
889,1777301090671887820,0.1018216609954834,False,-1.792804218099214,0.4067828875931314,1.558955823707421,0.0397408906231406,-0.0278725647862079,-2.8271921896268797,-1.0,1.0,2.0,3.1,-0.3706483076455435,-0.1073503415605518,0.2646265057755473,-0.2135958705316241,3
890,1777301090765528762,0.0935666561126709,False,-1.7428013161497036,0.4505362921318869,1.5826678439580468,0.0958514146127989,-0.0102160973993035,-2.814365062479555,-1.0,1.0,2.0,3.1,-0.3310905363732402,-0.0876237722184768,0.2503992936251719,-0.2212921468200193,3
891,1777301090869334076,0.1039009094238281,False,-1.6767805161162233,0.5010766390119386,1.6079112023551114,0.056693787998133,-0.0318741445876114,-2.843406697195208,-1.0,1.0,2.0,3.1,-0.2510091999761522,-0.0833609869814349,0.2352532785869331,-0.203867165990627,3
892,1777301090970137769,0.1008069515228271,False,-1.6179884723310525,0.5472539910481649,1.633020352341802,0.0201306907147026,-0.0223643259229267,-2.891123697149503,-1.0,1.0,2.0,3.1,-0.2229868979888179,-0.0814983832047692,0.2201877885949188,-0.1752369660180502,3
893,1777301091068645237,0.098339557647705,False,-1.5540253769727357,0.5892200038854579,1.6510108156103187,0.0687511500038024,-0.0650553588750784,-2.852133236050757,-1.0,1.0,2.0,3.1,-0.1653826264697288,-0.0743306235560976,0.2093935106338087,-0.1986312426772972,3
894,1777301091173865690,0.1054446697235107,False,-1.5018044373738897,0.6320613033740251,1.6746787254846232,0.0701383486612054,-0.0786189780133456,-2.8537112628286434,-1.0,1.0,2.0,3.1,-0.1743059811506146,-0.0515060894307463,0.1951927647092261,-0.1976844266105651,3
895,1777301091271923153,0.0980074405670166,False,-1.4434110799756026,0.6696881530411604,1.69146543892362,0.0681619981920956,-0.0904753270718214,-2.856356905269919,-1.0,1.0,2.0,3.1,-0.1071356278532453,-0.0550913486659902,0.185120736645828,-0.1960970411458003,3
896,1777301091372173405,0.1001238822937011,False,-1.3893104626672756,0.7042605686520498,1.7064644837258949,0.0765138399161488,-0.1057440922706699,-2.85824475743781,-1.0,1.0,2.0,3.1,-0.0892824435375865,-0.0509245275081386,0.176121309764463,-0.1949643298450652,3
897,1777301091468344246,0.0963046550750732,False,-1.3387493222288829,0.736756875332521,1.7210641990395954,0.0730209893939493,-0.1134256385103344,-2.86170440734391,-1.0,1.0,2.0,3.1,-0.0596334677258593,-0.0418719176729203,0.1673614805762427,-0.1928885399014053,3
898,1777301091568544965,0.1003234386444091,False,-1.2940532375010716,0.7644958218695828,1.7342416164283705,0.0794001312118019,-0.122531732331497,-2.8662702681865695,-1.0,1.0,2.0,3.1,-0.0570288798400179,-0.0445272463991977,0.1594550301429778,-0.19014902339581,3
899,1777301091670148246,0.1013760566711425,False,-1.251772855832036,0.7912226591773598,1.7459026032590612,0.0682816053755876,-0.1407765384018026,-2.9033174458242836,-3.0,-1.0,3.0,1.5,0.75,0.75,0.75,-1.1279207168131815,3
900,1777301091770396144,0.1002969741821289,False,-1.2179550076955337,0.8155340165790841,1.7569647816245375,0.0837683680933088,-0.1204369991839014,-2.87611221755012,-3.0,-1.0,3.0,1.5,0.75,0.75,0.7458211310252775,-1.1442438537776796,3
901,1777301091868462907,0.0981831550598144,False,-1.1882634415808069,0.8341155033001679,1.7702838597262485,0.1216013402844989,-0.1441236464786412,-2.9125290800955854,-3.0,-1.0,3.0,1.5,0.75,0.75,0.7378296841642509,-1.1223937362504004,3
902,1777301091969638686,0.101186990737915,False,-1.1645505552850202,0.8458680483540619,1.787440213402092,0.1614372538871083,-0.1764183954604627,-2.9517723468214503,-3.0,-1.0,3.0,1.5,0.75,0.75,0.7275358719587447,-1.0988477762148818,3
903,1777301092069959335,0.1000139713287353,False,-1.149873545642066,0.8481040542823619,1.8082753693729725,0.1499936487740596,-0.1812619394751333,-3.0035686882401893,-3.0,-1.0,3.0,1.5,0.75,0.75,0.7150347783762167,-1.067769971363638,3
904,1777301092182448076,0.1126642227172851,False,-1.1440085391095005,0.8392851266181623,1.834753545487044,0.175637306519202,-0.1511709390732611,-3.05366240080714,-3.0,-1.0,3.0,1.5,0.75,0.75,0.6991478727077737,-1.037713743823468,3
905,1777301092275490977,0.0931499004364013,False,-1.144603988872719,0.8229094952516172,1.8570077285217483,0.1445872788541652,-0.2187509088113998,-3.1145091857105225,-3.0,-1.0,3.0,1.5,0.75,0.75,0.685795362886951,-1.0012056728814382,3
906,1777301092367122274,0.0918474197387695,False,-1.1575396590005995,0.7982305288962167,1.8870516908981207,0.1033631542949361,-0.2195705920687721,3.0930962275680876,-3.0,-1.0,3.0,1.5,0.75,0.75,0.6677689854611275,-0.9558577365408524,3
907,1777301092468194129,0.100738525390625,False,-1.179356870178105,0.7637263083120844,1.9184736410296204,0.0981452614022151,-0.2116537502047313,3.039225643275816,-3.0,-1.0,3.0,1.5,0.75,0.75,0.6489158153822278,-0.9235353859654896,3
908,1777301092568310705,0.1000230312347412,False,-1.2101247391127614,0.7238593272116468,1.950963764736469,0.100857796286267,-0.2149874135902999,2.9931877980770754,-3.0,-1.0,3.0,1.5,0.75,0.75,0.6294217411581186,-0.8959126788462451,3
909,1777301092670293975,0.1019794940948486,False,-1.2502047070717897,0.6789662646182522,1.9836479804989284,0.1008315071428566,-0.2272146166883061,2.947071117802652,-3.0,-1.0,3.0,1.5,0.7451986608730786,0.75,0.6098112117006429,-0.8682426706815911,3
910,1777301092770281411,0.1000356674194336,False,-1.2990524029959645,0.628797089571518,2.016491277411294,0.0886423897329956,-0.2406402404599542,2.8903207229533354,-3.0,-1.0,3.0,1.5,0.6410505880651325,0.75,0.5901052335532234,-0.8341924337720013,3
911,1777301092868607688,0.0981640815734863,False,-1.356851978214878,0.5752524586197805,2.0473021622706087,0.0661103242784028,-0.2423103872858839,2.8336356321566867,-3.0,-1.0,3.0,1.5,0.5342895255853193,0.75,0.5716187026376348,-0.800181379294012,3
912,1777301092980511882,0.1118288040161132,False,-1.4305612177031113,0.5126323329736348,2.0815257297448357,0.0640856532779792,-0.2539720901356355,2.7884583227591535,-3.0,-1.0,3.0,1.5,0.4422402318275496,0.75,0.5510845621530985,-0.773074993655492,3
913,1777301093078518625,0.0983567237854003,False,-1.5063216793851046,0.4539681925547894,2.111659912138584,0.0476906427046916,-0.2483700108098248,2.7385670560828586,-3.0,-1.0,3.0,1.5,0.3398646464084185,0.75,0.5330040527168495,-0.7431402336497152,3
914,1777301093182590615,0.1039025783538818,False,-1.5895629812344552,0.3949855891562727,2.1412739313412006,0.0423216094061142,-0.2578243075838603,2.7019829005610463,-3.0,-1.0,3.0,1.5,0.2645718899633001,0.75,0.5152356411952796,-0.7211897403366277,3
915,1777301093281716035,0.0993275642395019,False,-1.685248273578407,0.3328101732742216,2.1740776802231188,0.0363901147758357,-0.2629765115387319,2.650323934914601,-3.0,-1.0,3.0,1.5,0.15207751755024,0.75,0.4955533918661287,-0.6901943609487606,3
916,1777301093380787095,0.0991368293762207,False,-1.7807447535187249,0.2738765728928578,2.2008214786906124,0.0237746458327084,-0.240334848221448,2.604995938244733,-3.0,-1.0,3.0,1.5,0.0808035819801541,0.7298751032857798,0.4795071127856325,-0.6629975629468399,3
917,1777301093483641388,0.1022229194641113,False,-1.8729175384294732,0.216298583229344,2.2260301029650247,0.0222920076062356,-0.1994265024444301,2.565390795788264,-3.0,-1.0,3.0,1.5,0.0346832733512673,0.6913202499114869,0.4643819382209851,-0.6392344774729584,3
918,1777301093577967984,0.094712495803833,False,-1.9717300473334112,0.1614455809331092,2.2506214228728134,0.0304813753583827,-0.1700350053228839,2.52990534446139,-3.0,-1.0,3.0,1.5,-0.0515438082195447,0.6028269427429515,0.4496271462763119,-0.6179432066768339,3
919,1777301093679085862,0.1012463569641113,False,-2.08016137878315,0.0965863793098752,2.2831340081109133,0.03476788773575,-0.1468274697126274,2.5017302633020333,-3.0,-1.0,3.0,1.5,-0.093110874911097,0.5113259450427022,0.430119595133452,-0.60103815798122,3
920,1777301093778391502,0.0992679595947265,False,-2.176033845479405,0.0365722364389392,2.309937386438033,0.0304205772864032,-0.1488035708661685,2.465142872168277,-3.0,-1.0,3.0,1.5,-0.1162320800048127,0.4716703459396437,0.4140375681371803,-0.5790857233009661,3
921,1777301093874062674,0.0957076549530029,False,-2.258271761058925,-0.018847591778674,2.3325996563240774,0.0306442199048182,-0.1338388031312235,2.436918924222411,-3.0,-1.0,3.0,1.5,-0.1261572242982579,0.437441110645124,0.4004402062055535,-0.5621513545334466,3
922,1777301093979052340,0.1050653457641601,False,-2.3456574176578786,-0.0820082147709383,2.3574867778111064,0.0319732227305327,-0.1282400535755159,2.401745920940374,-3.0,-1.0,3.0,1.5,-0.1440665082941458,0.3700687620720322,0.3855079333133361,-0.5410475525642245,3
923,1777301094080386758,0.1014397144317627,False,-2.428446833378453,-0.1478173515361354,2.3815044402685253,0.0278879704912688,-0.1241354404816429,2.3772359446191844,-3.0,-1.0,3.0,1.5,-0.1483654006806111,0.296475969517595,0.3710973358388848,-0.5263415667715107,3
924,1777301094178615558,0.0980837345123291,False,-2.5133277547569706,-0.2218176763838323,2.406443604196075,0.0135098015105064,-0.1068892762434614,2.346635943475889,-3.0,-1.0,3.0,1.5,-0.1490475598363084,0.1915936979558496,0.3561338374823551,-0.5079815660855334,3
925,1777301094282425297,0.1037561893463134,False,-2.5845363230328817,-0.2900991357875459,2.4275380476624187,-0.010733028029609,-0.0936771076285743,2.3175133794369978,-3.0,-1.0,3.0,1.5,-0.1382407601255314,0.1870549576157854,0.3434771714025488,-0.4905080276621986,3
926,1777301094383183116,0.1008481979370117,False,-2.642763855299233,-0.3510208093157938,2.446127341433302,-0.0248289411718442,-0.0743706172680605,2.2942206572244643,-3.0,-1.0,3.0,1.5,-0.1287996157432137,0.1686198108787811,0.3323235951400189,-0.4765323943346786,3
927,1777301094482349948,0.0989742279052734,False,-2.700558329269767,-0.4164192417272672,2.465536703497277,-0.0450038695929946,-0.0641083664382721,2.269353700396314,-3.0,-1.0,3.0,1.5,-0.1134516012602148,0.1011358820480467,0.3206779779016337,-0.4616122202377883,3
928,1777301094586022365,0.1038727760314941,False,-2.7552852460994575,-0.4842100844254939,2.4861656533795267,-0.0716081121102811,-0.0683103984191189,2.2446087713376546,-3.0,-1.0,3.0,1.5,-0.0958456971381351,0.0621591900314305,0.308300607972284,-0.4467652628025927,3
929,1777301094697419542,0.1113770008087158,False,-2.800028908945429,-0.5481219596193999,2.5059953721248056,-0.0814504842392843,-0.0692619403299545,2.2122521227326852,-3.0,-1.0,3.0,1.5,-0.0796238910014514,0.0587938330836101,0.2964027767251166,-0.4273512736396111,3
930,1777301094801301141,0.1034839153289794,False,-2.8368878401328392,-0.6051418949428117,2.5241782859522206,-0.0934537227952228,-0.058192086864531,2.1892248396402656,-3.0,-1.0,3.0,1.5,-0.0635605505369813,0.0341962530362442,0.2854930284286676,-0.4135349037841593,3
931,1777301094897747492,0.096696138381958,False,-2.8579281057222308,-0.6432590037716867,2.537116426488861,-0.0928565889906348,-0.0470148738955536,2.1867075168567136,-3.0,-1.0,3.0,1.5,-0.0666510031664824,0.0716328352901873,0.2777301441066835,-0.4120245101140281,3
932,1777301094973359168,0.0756170749664306,False,-2.877539193421416,-0.6808172392350266,2.5506543540399074,-0.0994222103283944,-0.0486680282129884,2.1709430955980267,-3.0,-1.0,3.0,1.5,-0.0375196031943986,0.0204325119739379,0.2696073875760555,-0.402565857358816,3
933,1777301095079246149,0.1056649684906005,False,-2.8947334409400662,-0.7144331515968608,2.5601093312684644,-0.0943042534666589,-0.0643692375352776,2.134011075536883,-3.0,-1.0,3.0,1.5,-0.056518283731563,0.052650410580205,0.2639344012389213,-0.3804066453221298,3
934,1777301095179003472,0.0998702049255371,False,-2.9062055821819457,-0.7449922819494449,2.5735410223866504,-0.0929839037134474,-0.0647271446367672,2.1196755121541666,-3.0,-1.0,3.0,1.5,-0.0408353949013989,0.0505451981268622,0.2558753865680097,-0.3718053072924999,3
935,1777301095280807913,0.1019959449768066,False,-2.913612433845836,-0.7704497593470087,2.5862869363038232,-0.0887355464720733,-0.0667494398222832,2.1060760120751008,-3.0,-1.0,3.0,1.5,-0.0387345121558243,0.0579038171063161,0.248227838217706,-0.3636456072450604,3
