,recording_time_ns,dt,wind_enabled,pos_x,pos_y,pos_z,pos_roll,pos_pitch,pos_yaw,targetpos_x,targetpos_y,targetpos_z,targetpos_yaw,control_vel_x,control_vel_y,control_vel_z,control_vel_yaw,experiment_id
936,1777301151709267182,1777301151.708684,False,-1.0457282060912054,0.8136736874101684,0.8393051889198512,-0.025797334410458,0.0647613307627091,-0.0196767126619573,-2.0,0.0,2.0,0.0,-0.75,-0.75,0.6964168866480892,0.0118060275971744,4
937,1777301151808506139,0.0989453792572021,False,-1.045423387994228,0.8114423844110402,0.8374453733782201,-0.0296293574033863,0.0672834277330066,-0.0197719775835363,-2.0,0.0,2.0,0.0,-0.564066127809941,-0.4913481885547895,0.697532775973068,0.0118631865501217,4
938,1777301151909498765,0.1011874675750732,False,-1.044446809326001,0.8100008792081849,0.8355399699021805,-0.033660664766563,0.0786639071161266,-0.0217282381640276,-2.0,0.0,2.0,0.0,-0.5656250010000008,-0.4941324686194983,0.6986760180586916,0.0130369428984165,4
939,1777301152010252451,0.0999934673309326,False,-1.0438053349669802,0.8086349404346689,0.8330640434274015,-0.0378940445216418,0.065554069607852,-0.0226027477345329,-2.0,0.0,2.0,0.0,-0.5646214419153363,-0.4939699649750734,0.700161573943559,0.0135616486407197,4
940,1777301152108210343,0.0986545085906982,False,-1.042920480162265,0.8070266440709772,0.8319888748920712,-0.0304002707303656,0.0609325156381382,-0.0221881565563418,-2.0,0.0,2.0,0.0,-0.5661619966525409,-0.4920074599753035,0.7008066750647572,0.0133128939338051,4
941,1777301152211053139,0.1025538444519043,False,-1.0411646685647349,0.8051832092917881,0.8313026148138338,-0.039890316988946,0.0639747464300569,-0.0229781316734067,-2.0,0.0,2.0,0.0,-0.569308148349104,-0.4909274237476232,0.7012184311116997,0.0137868790040439,4
942,1777301152308175951,0.0976691246032714,False,-1.0391422632009513,0.803723257053888,0.8307433540322282,-0.0286185575627228,0.0610500082442541,-0.0234809426994953,-2.0,0.0,2.0,0.0,-0.5713490357344387,-0.4912995872898238,0.701553987580663,0.0140885656196973,4
943,1777301152409818625,0.1014325618743896,False,-1.037141886142856,0.8018317068023818,0.8304279135085958,-0.0264862796122541,0.0738929199578674,-0.0205031352058569,-2.0,0.0,2.0,0.0,-0.573759924646918,-0.4873700075620538,0.7017432518948425,0.0123018811235141,4
944,1777301152508541997,0.0987234115600586,False,-1.034734452288512,0.7999914831744305,0.8308268336510678,-0.0348581935464176,0.0674795787977352,-0.0213291981871019,-2.0,0.0,2.0,0.0,-0.5762237578085194,-0.4868030179064875,0.7015038998093593,0.0127975189122611,4
945,1777301152608481633,0.100029706954956,False,-1.0314940286654737,0.798863378353473,0.8302977914150902,-0.0143925500804978,0.0732073610870231,-0.0226451380993437,-2.0,0.0,2.0,0.0,-0.579893799381471,-0.4891907942093541,0.7018213251509459,0.0135870828596062,4
946,1777301152709735169,0.1011350154876709,False,-1.0282942989663797,0.797051305968814,0.8315532138270748,-0.0366124658536219,0.0742423338190428,-0.0206892978991551,-2.0,0.0,2.0,0.0,-0.5826057206292125,-0.4850122195938767,0.7010680717037552,0.012413578739493,4
947,1777301152808818952,0.0990631580352783,False,-1.0253995817643358,0.7950689262933287,0.831840033017018,-0.0355853443869697,0.07009341452058,-0.0212239456397954,-2.0,0.0,2.0,0.0,-0.5833963211531996,-0.4835279166997253,0.700895980189789,0.0127343673838772,4
948,1777301152908513499,0.0996427536010742,False,-1.0223664323135726,0.7937401582826338,0.8327846479676736,-0.047820318408132,0.0506939760677221,-0.0257147259123632,-2.0,0.0,2.0,0.0,-0.5833729934591588,-0.4874042608342612,0.7003292112193958,0.015428835547418,4
949,1777301153008708740,0.0999484062194824,False,-1.0202162493339637,0.7928041264372231,0.8327463028661428,-0.0339976030806482,0.0576504779739299,-0.0207311905326062,-2.0,0.0,2.0,0.0,-0.5843939020961348,-0.4850914824333121,0.7003522182803142,0.0124387143195637,4
950,1777301153108768425,0.1005146503448486,False,-1.0213856818266802,0.7896329555615662,0.8389270933044425,0.0171121356279379,0.0031288175055905,-0.0196917671884545,-2.0,0.0,2.0,0.0,-0.5744225034713004,-0.475717865091868,0.6966437440173345,0.0118150603130726,4
951,1777301153211456888,0.102543830871582,False,-1.0300120780785664,0.7843615146161741,0.8617889766899509,0.2843510849825367,-0.1883641131217883,0.0126413657501447,-2.0,0.0,2.0,0.0,-0.562465202591225,-0.4481205621674309,0.6829266139860294,-0.0075848194500868,4
952,1777301153310187572,0.0987567901611328,False,-1.0451930885144394,0.7682374644337779,0.8855211517299472,0.050425543562658,-0.038799699843577,-0.0202034090254962,-2.0,0.0,2.0,0.0,-0.5183378304708116,-0.4225190977137216,0.6686873089620318,0.0121220454152976,4
953,1777301153418532161,0.1084918975830078,False,-1.0710458061015224,0.753912516067039,0.918495123548995,0.0476699800224885,-0.0296124080850312,-0.026319317123141,-2.0,0.0,2.0,0.0,-0.4748550452303819,-0.4253801404101042,0.6489029258706029,0.0157915902738846,4
954,1777301153518487659,0.0998952388763427,False,-1.119854188350611,0.7235374897268143,0.966435837546722,-0.1604839157481885,-0.2118397073870413,0.0150850480593681,-2.0,0.0,2.0,0.0,-0.3866378704744734,-0.337107976583842,0.6201384974719668,-0.0090510288356208,4
955,1777301153610330176,0.0917742252349853,False,-1.1486430305048811,0.6900384926936705,1.0152696322875157,0.0340661284084128,-0.0113899380222938,-0.0269383703240205,-2.0,0.0,2.0,0.0,-0.4083531476146528,-0.3156320576624779,0.5908382206274906,0.0161630221944124,4
956,1777301153718704331,0.1083707809448242,False,-1.2027530098194117,0.6426544920589519,1.0806824698207806,0.0131398057084899,0.0055024383186276,-0.0270105452513479,-2.0,0.0,2.0,0.0,-0.3215658984679054,-0.2632014251229623,0.5515905181075316,0.0162063271508086,4
957,1777301153810990359,0.0922713279724121,False,-1.2502845603149353,0.604079819590139,1.1325950751141156,0.0020377601560455,0.0195167208531747,-0.0281134482718954,-2.0,0.0,2.0,0.0,-0.2885112831991487,-0.2452376845539129,0.5204429549315306,0.0168680689631372,4
958,1777301153920379558,0.1094133853912353,False,-1.309905426572102,0.5560218526531219,1.1943529379715558,-0.0164676829170867,0.0338674314922019,-0.0250262293832723,-2.0,0.0,2.0,0.0,-0.2454532819993673,-0.2080504964547334,0.4833882372170665,0.0150157376299634,4
959,1777301154018640405,0.0984213352203369,False,-1.3649635577789805,0.5128158743750187,1.248080291513765,-0.0120151165260936,0.0613333215208226,-0.0128425001898485,-2.0,0.0,2.0,0.0,-0.210920393823471,-0.1787159441428692,0.451151825091741,0.0077055001139092,4
960,1777301154118106288,0.0993435382843017,False,-1.4170228268191154,0.4711631870549408,1.2970590096493668,-0.0297597925435736,0.0497116695304669,-0.0254415867239075,-2.0,0.0,2.0,0.0,-0.1885224391634278,-0.161762269923707,0.4217645942103799,0.0152649520343445,4
961,1777301154218637067,0.1005456447601318,False,-1.4690837947016753,0.4327708574304405,1.344550040070115,-0.0338294594823965,0.0535853388283312,-0.0109920881857812,-2.0,0.0,2.0,0.0,-0.1616095023320078,-0.1468958367124866,0.393269975957931,0.0065952529114687,4
962,1777301154318607678,0.1000013351440429,False,-1.5135711028918943,0.3938749826315803,1.3846365277477382,-0.036543415161719,0.053503120987075,-0.0231419012856221,-2.0,0.0,2.0,0.0,-0.155586357824473,-0.1232721734581776,0.3692180833513571,0.0138851407713731,4
963,1777301154416476360,0.0978708267211914,False,-1.5504962331009138,0.3677101825233603,1.416436114111417,-0.0530392479660285,0.070073478888453,-0.0202772659816294,-2.0,0.0,2.0,0.0,-0.1536375609992096,-0.1435687193593897,0.3501383315331497,0.0121663595889775,4
964,1777301154518318856,0.1017179489135742,False,-1.5979381621922764,0.3291859873891032,1.4568812028071587,-0.0423987385711782,0.0882739716431007,-0.015531640244668,-2.0,0.0,2.0,0.0,-0.0999999722052789,-0.0854543596930473,0.3258712783157048,0.0093189841468008,4
965,1777301154620018797,0.1018886566162109,False,-1.6334250194858806,0.2994294807677523,1.485774123115069,-0.0535808921986963,0.0698101184092749,-0.0280011822482531,-2.0,0.0,2.0,0.0,-0.1128355863715264,-0.0952393623874705,0.3085355261309586,0.0168007093489518,4
966,1777301154712227906,0.09208345413208,False,-1.6606606003961255,0.2735252308201977,1.5080168030067769,-0.0369832243562323,0.0864892627390677,-0.0244366095034759,-2.0,0.0,2.0,0.0,-0.1128902309184693,-0.0825043250822928,0.2951899181959339,0.0146619657020854,4
967,1777301154812312958,0.1000027656555175,False,-1.6840448630472749,0.2533798419498815,1.5269705978542396,-0.0520480917744808,0.0805572785235808,-0.0333392092078659,-2.0,0.0,2.0,0.0,-0.1163027852200725,-0.095523216846447,0.2838176412874562,0.0200035255247195,4
968,1777301154919852774,0.1075820922851562,False,-1.717883565967962,0.223762540970114,1.5539512429281968,-0.0426706958521115,0.0729572642379576,-0.0299575433028579,-2.0,0.0,2.0,0.0,-0.0733271143933159,-0.0538882122399722,0.2676292542430819,0.0179745259817146,4
969,1777301155020208531,0.1002478599548339,False,-1.7408953349105265,0.2033075742368714,1.5727021829646672,-0.0426115585033797,0.0805901620013929,-0.0260677836183624,-2.0,0.0,2.0,0.0,-0.0849847632600973,-0.0630078874649968,0.2563786902211996,0.0156406701710174,4
970,1777301155117851119,0.0979344844818115,False,-1.760777496045465,0.1853597757558241,1.5895830200650918,-0.0453334086598512,0.0748604836329371,-0.0308540684297524,-2.0,0.0,2.0,0.0,-0.0808548394280757,-0.0587591416422956,0.2462501879609449,0.0185124410578516,4
971,1777301155216320917,0.097832441329956,False,-1.7756579092180325,0.1720922496129437,1.6022937767680516,-0.0372979618968182,0.0779040410915445,-0.0236309622454322,-2.0,0.0,2.0,0.0,-0.0874716364595531,-0.0646558106367688,0.238623733939169,0.0141785773472592,4
972,1777301155316210058,0.1005825996398925,False,-1.793228354503443,0.1548987092680344,1.6182381939127275,-0.0449367988060901,0.0781467805919282,-0.0292738560435846,-1.0,1.0,3.0,-1.5,0.75,0.75,0.75,-0.8824356863738493,4
973,1777301155426299090,0.1101508140563964,False,-1.805908956747274,0.1418363621214352,1.630015001083059,-0.0414673654955052,0.0709005794121817,-0.0296427876743828,-1.0,1.0,3.0,-1.5,0.5015386893122208,0.5655872889508579,0.75,-0.8822143273953703,4
974,1777301155516130128,0.0898530483245849,False,-1.8153282402949271,0.1333490192686338,1.6493679770266385,-0.0986523148020638,0.1454872277088887,-0.076775114901875,-1.0,1.0,3.0,-1.5,0.477055606681437,0.5866461484151172,0.75,-0.853934931058875,4
975,1777301155625979566,0.1096224784851074,False,-1.8140357246323424,0.1335969079323767,1.6828839371904576,-0.1677954149085,0.2330695338927927,-0.1323900945864605,-1.0,1.0,3.0,-1.5,0.4121096420208675,0.5786268976310338,0.75,-0.8205659432481237,4
976,1777301155720843516,0.0949482917785644,False,-1.7961575276963682,0.1487911672517017,1.7277493976704303,-0.1674676941310842,0.2295666401337324,-0.1996874593244688,-1.0,1.0,3.0,-1.5,0.3210503604990356,0.5370742181922914,0.75,-0.7801875244053187,4
977,1777301155820987341,0.1002337932586669,False,-1.7631705646231697,0.1774302466797826,1.7790048576099464,-0.146231948759401,0.2175479239745921,-0.255971647246176,-1.0,1.0,3.0,-1.5,0.2442142444118739,0.485474373212624,0.7325970854340321,-0.7464170116522945,4
978,1777301155925364174,0.1042149066925048,False,-1.7221017575375444,0.2136568697236868,1.8322095775991525,-0.1362180803298645,0.1757100690302288,-0.298181216251736,-1.0,1.0,3.0,-1.5,0.1931645209860257,0.4438560961791629,0.7006742534405086,-0.7210912702489584,4
979,1777301156026907932,0.1014585494995117,False,-1.661079051875392,0.2629526262445482,1.9052813257354784,-0.1322820204792457,0.1493067473517792,-0.370871435199091,-1.0,1.0,3.0,-1.5,0.0940633549073385,0.3546717990976473,0.6568312045587129,-0.6774771388805453,4
980,1777301156134847668,0.1080348491668701,False,-1.5979392995027135,0.3215062650737887,1.9726049313496148,-0.1039699012931882,0.1329238931731735,-0.410846110372196,-1.0,1.0,3.0,-1.5,0.0705177803713499,0.2974132359068294,0.6164370411902311,-0.6534923337766824,4
981,1777301156230899686,0.0959312915802002,False,-1.5240132486693634,0.3948256034876419,2.044222542301595,-0.0570154566243666,0.1178984831178174,-0.4590475289332555,-1.0,1.0,3.0,-1.5,0.0153140171514554,0.1568400314634274,0.5734664746190429,-0.6245714826400467,4
982,1777301156340561364,0.109809398651123,False,-1.4628713768092607,0.452369513344437,2.104583439864908,-0.0334448737607824,0.0932024593685751,-0.5013055968919228,-1.0,1.0,3.0,-1.5,0.0147095075815656,0.2034730791824245,0.5372499360810552,-0.5992166418648462,4
983,1777301156418569205,0.0780344009399414,False,-1.3955328587363738,0.518909446529986,2.1663908397129386,0.0052694001295955,0.0791354936796457,-0.5191283272803734,-1.0,1.0,3.0,-1.5,-0.0350147134109565,0.0178205320473448,0.5001654961722368,-0.588523003631776,4
984,1777301156518928285,0.1004319190979003,False,-1.3317895373738715,0.5794211952350181,2.2247473369014537,0.0327047419484756,0.0463544220715224,-0.5575730746393358,-1.0,1.0,3.0,-1.5,-0.0305281551874546,0.0653349525236618,0.4651515978591278,-0.5654561552163986,4
985,1777301156619126516,0.0998075008392334,False,-1.273480119828066,0.6351648771067824,2.2780189009773806,0.0522042000146608,0.051594668270342,-0.5839997874777144,-1.0,1.0,3.0,-1.5,-0.0376362597895783,0.0366744398205225,0.4331886594135716,-0.5496001275133713,4
986,1777301156723587345,0.1045303344726562,False,-1.220403187388054,0.6847629291366845,2.3273097003362,0.0512101278159607,0.0365562580177029,-0.6169362036584232,-1.0,1.0,3.0,-1.5,-0.0434585157659163,0.0265484484191997,0.4036141797982801,-0.529838277804946,4
987,1777301156819064593,0.0953302383422851,False,-1.1735624829387707,0.7282644532681061,2.3711860731185217,0.0684674901097169,0.0334420145136599,-0.647823882077354,-1.0,1.0,3.0,-1.5,-0.0502785952330673,-0.0052630793789718,0.3772883561288869,-0.5113056707535876,4
988,1777301156918593817,0.0996787548065185,False,-1.1332782121149223,0.7648493118347379,2.410478096442887,0.0720121811136777,0.0401215238388453,-0.6748542583845438,-1.0,1.0,3.0,-1.5,-0.0515848452281424,-0.0015973939460644,0.3537131421342678,-0.4950874449692737,4
989,1777301157018020589,0.0996272563934326,False,-1.1040052707363803,0.7860450070300701,2.455583641133805,0.0677751011613198,0.04674395927643,-0.6923842380727315,-1.0,1.0,3.0,-1.5,-0.0610217864448151,0.0332498403419686,0.3266498153197167,-0.4845694571563611,4
990,1777301157120679839,0.1024200916290283,False,-1.0683379265549604,0.8194757526362967,2.4779956422949683,0.0737849036699432,0.0340303065572151,-0.7304530505760504,-1.0,1.0,3.0,-1.5,-0.0542114219442461,-0.0346074471820248,0.313202614623019,-0.4617281696543698,4
991,1777301157218453996,0.0979735851287841,False,-1.0435691965273532,0.8391020726384048,2.5054669167100627,0.0631519931138183,0.0526067229865745,-0.7602568867725934,-1.0,1.0,3.0,-1.5,-0.0611291396889955,-0.0078417152539238,0.2967198499739623,-0.4438458679364441,4
992,1777301157320499368,0.1020324230194091,False,-1.0287588892558068,0.845014874846206,2.541617565860916,0.0675325043564448,0.0429397690964948,-0.7758376941768352,-1.0,1.0,3.0,-1.5,-0.0717150736580613,0.0355585369713155,0.2750294604834504,-0.4344973834938988,4
993,1777301157421127897,0.1007230281829834,False,-1.0064276077394516,0.8663217698588278,2.553307556058546,0.078513072130143,0.0511857744345077,-0.808076008536499,-3.0,-1.0,3.0,-1.5,-0.100433207636058,-0.75,0.2680154663648723,-0.4151543948781007,4
994,1777301157530029142,0.1088616847991943,False,-0.9926671767625886,0.875733920038961,2.575029729530585,0.0678189716891219,0.0500635561883369,-0.8385635498025963,-3.0,-1.0,3.0,-1.5,0.0257303308736802,-0.75,0.2549821622816486,-0.3968618701184424,4
995,1777301157628925436,0.0990598201751709,False,-0.98728991948259,0.8794046924296327,2.5908739533410285,0.0528733425747812,-0.038218523965863,-0.8799873809805822,-3.0,-1.0,3.0,-1.5,0.0978490293165791,-0.75,0.2454756279953828,-0.3720075714116507,4
996,1777301157729014242,0.0998892784118652,False,-0.9884755208899216,0.876713005267257,2.6043329979683687,0.1502543020243978,-0.0737188011445279,-0.8527734453956572,-3.0,-1.0,3.0,-1.5,0.050249428519482,-0.75,0.2374002012189787,-0.3883359327626056,4
997,1777301157829993021,0.1009652614593505,False,-1.0012644323783717,0.8658038424746878,2.6173376157788875,0.1846351814865794,-0.0523018978655741,-0.8669020909915518,-3.0,-1.0,3.0,-1.5,0.0771564761653038,-0.75,0.2295974305326675,-0.379858745405069,4
998,1777301157928860582,0.0989518165588378,False,-1.024386618185411,0.843575590927974,2.628061140072564,0.1649152106794723,-0.0597139066550371,-0.8964544881421336,-3.0,-1.0,3.0,-1.5,0.1150357377061482,-0.75,0.2231633159564616,-0.3621273071147198,4
999,1777301158028732972,0.0997171401977539,False,-1.0620431030920097,0.8186115083045289,2.6400637116627483,0.0770023859682529,-0.1037715181763231,-1.0199236834468624,-3.0,-1.0,3.0,-1.5,0.3164216200008052,-0.75,0.215961773002351,-0.2880457899318827,4
1000,1777301158121343305,0.0926132202148437,False,-1.1005012758604835,0.7784860711726204,2.649055003304683,0.1618120504309125,-0.0622192688775583,-0.9307494236844314,-3.0,-1.0,3.0,-1.5,0.1453643377161195,-0.75,0.2105669980171902,-0.3415503457893413,4
1001,1777301158234133259,0.11273193359375,False,-1.1712885961624422,0.7281532433999994,2.666174280802292,0.1608032987930404,-0.0466507619746689,-0.9503001980401992,-3.0,-1.0,3.0,-1.5,0.206188751387647,-0.75,0.2002954315186248,-0.3298198811758804,4
1002,1777301158328680759,0.0943624973297119,False,-1.236668262795387,0.6737251463247977,2.677761396367972,0.1741924616097199,-0.0607060129723177,-0.9585464242577154,-3.0,-1.0,3.0,-1.5,0.1916295730309185,-0.75,0.193343162179217,-0.3248721454453708,4
1003,1777301158428227540,0.0999979972839355,False,-1.3105951393038693,0.6108180818256682,2.687365501056033,0.1605796860553016,-0.0584534924079284,-0.9793161320732569,-3.0,-1.0,3.0,-1.5,0.2041037831058459,-0.75,0.1875806993663802,-0.3124103207560457,4
1004,1777301158528724377,0.1003823280334472,False,-1.392020852741237,0.5403424898949661,2.6972080270954164,0.1551215758963869,-0.057094785565866,-0.9960663956710952,-3.0,-1.0,3.0,-1.5,0.2067579226718626,-0.75,0.1816751837427501,-0.302360162597343,4
1005,1777301158628635771,0.0998451709747314,False,-1.4803978712030392,0.4627931300668338,2.706856749755348,0.1649363185137934,-0.0667774450246483,-1.0050187406711486,-3.0,-1.0,3.0,-1.5,0.1977896547917493,-0.75,0.1758859501467911,-0.2969887555973108,4
1006,1777301158728734149,0.1001985073089599,False,-1.5754319884766237,0.3787839396906106,2.715800848295673,0.1621308563211634,-0.06288833893047,-1.0143858083513349,-3.0,-1.0,3.0,-1.5,0.1877469848116678,-0.75,0.1705194910225959,-0.2913685149891989,4
1007,1777301158821840718,0.0933029651641845,False,-1.6671024948887008,0.2974107378194278,2.7238245568021218,0.1455476758385899,-0.0805713267688931,-1.0418465089818596,-3.0,-1.0,3.0,-1.5,0.1913465266509215,-0.6967680862925767,0.1657052659187269,-0.2748920946108841,4
1008,1777301158930920000,0.1088442802429199,False,-1.7844398345053518,0.1933635899418775,2.731809877207191,0.1584946862730701,-0.0732021561319692,-1.0366839058247994,-3.0,-1.0,3.0,-1.5,0.1628075915474685,-0.5679064594760677,0.1609140736756853,-0.2779896565051205,4
1009,1777301159024589830,0.093531847000122,False,-1.8859683350341887,0.103005317236844,2.738014959469152,0.1657539228780744,-0.0622741392178262,-1.0363677989891504,-3.0,-1.0,3.0,-1.5,0.1455233603250901,-0.4844430646533503,0.1571910243185088,-0.2781793206065096,4
1010,1777301159130468484,0.1056241989135742,False,-2.016781076624866,-0.013699595594638,2.7450899343335715,0.1577205303451925,-0.0719619206744323,-1.0611801189030825,-3.0,-1.0,3.0,-1.5,0.1206916932424261,-0.3176283600163243,0.1529460393998571,-0.2632919286581506,4
1011,1777301159229738983,0.0997099876403808,False,-2.1392039446870204,-0.12314521062529,2.7492820355748973,0.1571438271939164,-0.0543366173879709,-1.068386785316091,-3.0,-1.0,3.0,-1.5,0.1011633119362339,-0.2246112314799874,0.1504307786550616,-0.2589679288103451,4
1012,1777301159323216026,0.093358039855957,False,-2.252329614396208,-0.2232663033808168,2.756844128630514,0.1073831362558242,-0.011805449521963,-1.0918091565832315,-3.0,-1.0,3.0,-1.5,0.0888556968795818,-0.1420140530430245,0.1458935228216916,-0.2449145060500612,4
1013,1777301159432583760,0.1096298694610595,False,-2.3848544521788595,-0.3412693392181462,2.7615506957878155,0.052856982258027,0.0649280535361686,-1.1112894982915975,-3.0,-1.0,3.0,-1.5,0.0619689035427056,-0.0378448832431242,0.1430695825273106,-0.2332263010250415,4
1014,1777301159528450287,0.0955314636230468,False,-2.497969967192306,-0.4422915350283147,2.764533458116067,0.0290106382404744,0.1015759828388679,-1.1235480778301372,-3.0,-1.0,3.0,-1.5,0.0390276255981822,0.0411724360923983,0.1412799251303598,-0.2258711533019175,4
1015,1777301159628513616,0.1000645160675048,False,-2.600102662073544,-0.534302853339824,2.7661464744682007,0.0175815777010787,0.1168790505811409,-1.1333984826159056,-3.0,-1.0,3.0,-1.5,0.0312944993117362,0.0585150804608337,0.1403121153190795,-0.2199609104304566,4
1016,1777301159728459249,0.1000130176544189,False,-2.69003895512808,-0.6159072638290402,2.7667584197261204,0.0062238743691267,0.1248238803430682,-1.1433912403582729,-3.0,-1.0,3.0,-1.5,0.0216977636125715,0.0821972817125538,0.1399449481643278,-0.2139652557850364,4
1017,1777301159833107653,0.1046826839447021,False,-2.7674054165337107,-0.6871513604481413,2.766979216957904,0.0060471141453809,0.1292305937289984,-1.1547426266875949,-3.0,-1.0,3.0,-1.5,0.0181474155051178,0.0818046495696708,0.1398124698252575,-0.207154423987443,4
1018,1777301159928802094,0.0956346988677978,False,-2.8327595762545164,-0.7480358368818123,2.767078077288553,0.0055843499756905,0.1313900240856043,-1.1631438767271167,-2.0,0.0,1.0,-3.1,-0.75,0.75,-0.75,-1.16211367396373,4
1019,1777301160024746874,0.0962166786193847,False,-2.881485576630186,-0.7946264698165934,2.7669727590902284,0.0056060212645795,0.1305203556025139,-1.175164721411109,-2.0,0.0,1.0,-3.1,-0.3116120523356994,0.75,-0.75,-1.154901167153335,4
1020,1777301160145207905,0.1201751232147216,False,-2.92084095174856,-0.8289502503345653,2.760013007777907,-0.0320773765176092,0.1579284061120079,-1.2256524073702115,-2.0,0.0,1.0,-3.1,-0.3285004479325398,0.75,-0.75,-1.124608555577873,4
1021,1777301160228523246,0.0833323001861572,False,-2.9614573257361854,-0.8676069395012257,2.7398936051790708,-0.0302402308816658,0.1295346860491372,-1.341396494820434,-2.0,0.0,1.0,-3.1,-0.4780201907583735,0.75,-0.75,-1.0551621031077396,4
1022,1777301160336703261,0.1082804203033447,False,-2.9843102533842947,-0.8874105334023916,2.704926366768281,0.0241999425207285,0.0992178667059826,-1.434001673889433,-2.0,0.0,1.0,-3.1,-0.4926556722508701,0.7278845391023351,-0.75,-0.9995989956663404,4
1023,1777301160433151270,0.0963380336761474,False,-2.995905849147829,-0.8992750469222185,2.662268200336933,0.0036337373886961,0.1398694148423274,-1.4966267211724404,-2.0,0.0,1.0,-3.1,-0.5279718465597922,0.6746309353191242,-0.75,-0.9620239672965356,4
1024,1777301160544280784,0.1111030578613281,False,-2.997406136771795,-0.9025105869717066,2.6146230880822627,0.010247939529338,0.1376857809390491,-1.5577726865494914,-2.0,0.0,1.0,-3.1,-0.5423498263269845,0.6096096204171376,-0.75,-0.9253363880703052,4
1025,1777301160633995939,0.0898244380950927,False,-2.987626937982648,-0.8981268378838365,2.5490500710231943,0.0117792482056996,0.129928198786476,-1.6280309502213044,-2.0,0.0,1.0,-3.1,-0.5554056725472443,0.5290102700513724,-0.75,-0.8831814298672174,4
1026,1777301160738650323,0.1045563220977783,False,-2.9676730300207885,-0.8868036043591876,2.484862517096501,0.0146702238848089,0.1263388911345686,-1.6887460670789742,-2.0,0.0,1.0,-3.1,-0.5577076587508095,0.4609241823195454,-0.75,-0.8467523597526155,4
1027,1777301160841526373,0.1029841899871826,False,-2.934669216698592,-0.8659083077895212,2.4111819609517755,0.015180453816838,0.1209793076635005,-1.7467623510846793,-2.0,0.0,1.0,-3.1,-0.5329355540863445,0.3771884082330828,-0.75,-0.8119425893491925,4
1028,1777301160943535274,0.1019175052642822,False,-2.8947040947158653,-0.8397825491646853,2.342079016680068,0.0281951630424381,0.1109436696234722,-1.799997284207424,-2.0,0.0,1.0,-3.1,-0.5110390445393499,0.3112138340140607,-0.75,-0.7800016294755457,4
1029,1777301161047864437,0.1043882369995117,False,-2.845875351506446,-0.8069406665195816,2.273332965374056,0.0184346914516319,0.1021797116219069,-1.846036020725519,-2.0,0.0,1.0,-3.1,-0.4749051354111693,0.2474420312698303,-0.75,-0.7523783875646886,4
1030,1777301161128768738,0.0807046890258789,False,-2.795826141906645,-0.771304910530826,2.211426020109256,0.0189414809425383,0.0959861104955968,-1.8830132522626637,-2.0,0.0,1.0,-3.1,-0.4038710112473191,0.1758969948593,-0.7268556120655535,-0.7301920486424021,4
1031,1777301161228727881,0.1000490188598632,False,-2.733198006770051,-0.7250968813470168,2.143482441651441,0.0020614538253498,0.101449925356815,-1.937213142127831,-2.0,0.0,1.0,-3.1,-0.3671492511152929,0.1291610916531721,-0.6860894649908645,-0.6976721147233015,4
1032,1777301161328490827,0.0999419689178466,False,-2.662379960972729,-0.672488032182942,2.0766404716555287,-0.0080204055414865,0.0914348022817024,-1.9900490890419784,-2.0,0.0,1.0,-3.1,-0.2995548125761055,0.0688731626362878,-0.6459842829933172,-0.6659705465748131,4
1033,1777301161431339337,0.1025972366333007,False,-2.5855716498786108,-0.6123857004904124,2.011981914738449,-0.0086064564575782,0.0668941965529675,-2.0415286539543684,-2.0,0.0,1.0,-3.1,-0.2283267399966274,0.0260269170477608,-0.6071891488430696,-0.635082807627379,4
1034,1777301161538880190,0.1078987121582031,False,-2.497693233493576,-0.5404963448736486,1.9462369961181645,0.0183698393184887,0.0156811965237756,-2.0829298549934907,-2.0,0.0,1.0,-3.1,-0.1350543359879789,-0.0136534213442728,-0.5677421976708986,-0.6102420870039056,4
1035,1777301161638914640,0.0998077392578125,False,-2.418952321543993,-0.4725976780004988,1.8906807959013776,0.069039730980197,-0.049434804092156,-2.116457494787855,-2.0,0.0,1.0,-3.1,-0.0755556470261014,-0.0286838489039759,-0.5344084775408265,-0.590125503127287,4
1036,1777301161739102792,0.1002640724182128,False,-2.34472218538967,-0.4053922564299805,1.839019012279496,0.0952776284776558,-0.0736097863753336,-2.1487234575994134,-2.0,0.0,1.0,-3.1,-0.0269626409356933,-0.0358167221857673,-0.5034114073676973,-0.570765925440352,4
1037,1777301161840704161,0.1015965938568115,False,-2.2781439552289027,-0.3422970157096784,1.791556010175375,0.115926951415422,-0.105047046828108,-2.1875475892735974,-2.0,0.0,1.0,-3.1,0.0016293805155603,-0.0352640516406509,-0.4749336061052249,-0.5474714464358416,4
1038,1777301161939727078,0.0987207889556884,False,-2.2209096418596057,-0.285499792167392,1.7488132051863092,0.1199037783913798,-0.0968046171836252,-2.2185689406862847,-2.0,0.0,1.0,-3.1,0.026006845616629,-0.0322150282488781,-0.4492879231117855,-0.5288586355882292,4
1039,1777301162038910282,0.0993034839630127,False,-2.1724863305523376,-0.2345865722625273,1.709501283907569,0.1169668861387701,-0.0881065042196706,-2.2406693084485183,-2.0,0.0,1.0,-3.1,0.0368090981957169,-0.0254404618300313,-0.4257007703445413,-0.5155984149308891,4
1040,1777301162138554652,0.0996854305267334,False,-2.132050604800665,-0.1892308849912855,1.674063008556218,0.1124993141704012,-0.0786637794561113,-2.26403316042257,-2.0,0.0,1.0,-3.1,0.0447917770925116,-0.0179883575729598,-0.4044378051337308,-0.5015801037464581,4
1041,1777301162233663270,0.0949516296386718,False,-2.101742956487366,-0.1521725292196129,1.6449340473873406,0.119482717514964,-0.0710057360347575,-2.284011280342144,-2.0,0.0,1.0,-3.1,0.0422088619748933,-0.0093822156388668,-0.3869604284324043,-0.4895932317947138,4
1042,1777301162339493439,0.1060488224029541,False,-2.0714540051047936,-0.1110823189484535,1.612416342814583,0.1170568439083766,-0.067746938437002,-2.297584376321572,-2.0,0.0,1.0,-3.1,0.0655064425218389,0.0009576527955516,-0.3674498056887498,-0.4814493742070569,4
1043,1777301162439139745,0.0996537208557128,False,-2.0494972444645487,-0.0778734342425512,1.5856133769603982,0.1311417116756158,-0.0688123497806927,-2.3172103129978026,-2.0,0.0,1.0,-3.1,0.0638079896158227,0.009433599356695,-0.3513680261762389,-0.4696738122013185,4
1044,1777301162540652943,0.1013078689575195,False,-2.0309788533912063,-0.0480610498411089,1.5600488494087537,0.120598415723059,-0.0935422802428081,-2.34478593837802,-2.0,0.0,1.0,-3.1,0.0678503935538771,0.0156284783722845,-0.3360293096452522,-0.4531284369731883,4
1045,1777301162632281991,0.0918185710906982,False,-2.0197375671640563,-0.0253425438660581,1.540806626303158,0.111612671776819,-0.0840089389705568,-2.3746701854698773,-2.0,0.0,1.0,-3.1,0.0588766917380806,0.0252303112623568,-0.3244839757818947,-0.4351978887180737,4
1046,1777301162739757693,0.1077098846435546,False,-2.0054386855526825,0.0023436972285485,1.5149379082463494,0.1195868209800869,-0.0599851092687249,-2.3870883843491377,-2.0,0.0,1.0,-3.1,0.0804203589217955,0.0321673211977033,-0.3089627449478097,-0.4277469693905174,4
1047,1777301162838691383,0.0987026691436767,False,-1.999417239882564,0.0177804239184026,1.5001533970960703,0.1154021011478882,-0.0796152152574104,-2.410745079207381,-2.0,0.0,1.0,-3.1,0.0523274835948252,0.0304300420499937,-0.3000920382576423,-0.4135529524755711,4
1048,1777301162942051836,0.1034119129180908,False,-1.9904695335367968,0.0362822859035862,1.4812303770886703,0.1089246054335931,-0.0656722600283869,-2.434665976969673,-2.0,0.0,1.0,-3.1,0.0730856689173322,0.0367910430978316,-0.2887382262532021,-0.3992004138181965,4
1049,1777301163038271896,0.0962889194488525,False,-1.98726091109839,0.0481264793522665,1.469856935921284,0.0916727075748164,-0.0872700661085339,-2.487729519252112,-1.0,1.0,2.0,3.1,-0.75,-0.5760383581612217,0.3180858384472296,-0.4172734727564851,4
1050,1777301163138721407,0.1003394126892089,False,-1.9830324249843525,0.060784465819419,1.4577716372874092,0.072173038085944,-0.0957866886870889,-2.5283740617491026,-1.0,1.0,2.0,3.1,-0.75,-0.0977373848353379,0.3253370176275544,-0.3928867472582901,4
1051,1777301163238879608,0.1001722812652587,False,-1.975679449979216,0.0740353043117838,1.4497104851651568,0.0101382663786937,-0.0437379233123311,-2.5271413733423045,-1.0,1.0,2.0,3.1,-0.75,-0.0967341302905273,0.3301737089009059,-0.3936263603023689,4
1052,1777301163339268499,0.1002886295318603,False,-1.965381822259703,0.0930110477903693,1.4510263350578558,-0.0223193639335734,-0.004395918494077,-2.565129996140933,-1.0,1.0,2.0,3.1,-0.7254767971620185,-0.1097338181223668,0.3293841989652865,-0.3708331866231916,4
1053,1777301163438570312,0.0994935035705566,False,-1.9445646061656336,0.1234601137342001,1.4563923283736773,0.0035745425690538,0.0218873760054743,-2.5854540527662544,-1.0,1.0,2.0,3.1,-0.6571931848258432,-0.1026403299416231,0.3261646029757936,-0.3586387526479995,4
1054,1777301163542428062,0.1036968231201171,False,-1.918550971599793,0.159966488202428,1.47171203202619,0.0053678608998613,0.0268095757891797,-2.620888758597003,-1.0,1.0,2.0,3.1,-0.6110072241803539,-0.1088624906060218,0.316972780784286,-0.3373779291495502,4
1055,1777301163639158439,0.0966808795928955,False,-1.8836891790264496,0.2015650602796852,1.4920354778816745,-0.0134727975425644,0.0622439204455226,-2.6628453659003903,-1.0,1.0,2.0,3.1,-0.5358139866643942,-0.1162144213710239,0.3047787132709953,-0.312203964767518,4
1056,1777301163742457543,0.1033365726470947,False,-1.8396215290194091,0.2473791155535874,1.5163355157393184,0.0496257266081966,0.0502361898387882,-2.6508677593336256,-1.0,1.0,2.0,3.1,-0.481616566708929,-0.1038546850845451,0.2901986905564089,-0.3193905287075758,4
1057,1777301163851314590,0.1089615821838378,False,-1.7831962926266005,0.3056067690969756,1.5485281987818635,-0.0026172111988861,0.0291674232030639,-2.6811730456420086,-1.0,1.0,2.0,3.1,-0.3956964881315388,-0.0898598176763714,0.2708830807308818,-0.3012073569225467,4
1058,1777301163940675775,0.0894639492034912,False,-1.7276328448192413,0.3530123997594271,1.5721525192173584,0.0037283757634026,0.064125188954837,-2.7042931438750584,-1.0,1.0,2.0,3.1,-0.3237851877848414,-0.1016732779966654,0.2567084884695849,-0.2873352979827164,4
1059,1777301164040686019,0.0997700691223144,False,-1.6592407977715504,0.4090954682664809,1.5998514323909925,0.0061743366868384,0.0531341934186105,-2.71681735199631,-1.0,1.0,2.0,3.1,-0.249634484779179,-0.0911255918033419,0.2400891405654046,-0.2798207731099658,4
1060,1777301164139029659,0.0985879898071289,False,-1.588510483302051,0.4674175748382635,1.6287790783227114,0.0408529364071815,-0.0157956739205475,-2.712514484193418,-1.0,1.0,2.0,3.1,-0.1844865105635299,-0.0718368185975334,0.2227325530063731,-0.2824024937917009,4
1061,1777301164242136236,0.1029744148254394,False,-1.515379130616697,0.5245742215930175,1.6546913885351653,0.061511460882061,-0.0532798669414637,-2.716365044401797,-1.0,1.0,2.0,3.1,-0.1365890721599584,-0.068491082141803,0.2071851668789008,-0.2800921576666734,4
1062,1777301164338386973,0.0962395668029785,False,-1.4443983653871058,0.5793556572862182,1.6781452295650587,0.0749166858415515,-0.0771064341063609,-2.7246687874007947,-1.0,1.0,2.0,3.1,-0.0745416128485804,-0.0562539268185193,0.1931128622609647,-0.2751099118672751,4
1063,1777301164438751237,0.1004228591918945,False,-1.3793660016416691,0.6292269362771022,1.6976951868153505,0.0960235623992812,-0.1050627616431782,-2.731503962725656,-1.0,1.0,2.0,3.1,-0.0598751053149555,-0.0540934834522918,0.1813828879107897,-0.2710088066723585,4
1064,1777301164538454524,0.099597692489624,False,-1.317525833889321,0.6759524723533813,1.7163459452913594,0.1130217629325687,-0.113558099199563,-2.7364718512199646,-1.0,1.0,2.0,3.1,-0.0250610861534783,-0.0476667650500958,0.1701924328251843,-0.2680280735757726,4
1065,1777301164638125826,0.0996983051300048,False,-1.2673157610978616,0.7135179238633447,1.7311575626188196,0.1037067457843405,-0.1178648661000182,-2.7450005197369034,-1.0,1.0,2.0,3.1,-0.0313144483799207,-0.0506902429926757,0.1613054624287082,-0.2629108724656099,4
1066,1777301164738048840,0.1000928878784179,False,-1.2223698749662333,0.7470840037395902,1.7440549699618662,0.1034579455962988,-0.1206568899792772,-2.754608136108118,-3.0,-1.0,3.0,1.5,0.75,0.75,0.75,-1.217146302642881,4
1067,1777301164838593862,0.1003863811492919,False,-1.1709689317926468,0.7853524339221482,1.7586892576812685,0.0969454575472725,-0.1184301500533176,-2.7604401483695518,-3.0,-1.0,3.0,1.5,0.75,0.6351233759399935,0.7447864453912391,-1.213647095286021,4
1068,1777301164948331460,0.1099271774291992,False,-1.13306566937128,0.8133339283309972,1.771355734747467,0.1020848490966216,-0.1339942310817796,-2.79368709781029,-3.0,-1.0,3.0,1.5,0.75,0.6774436667194829,0.7371865591515198,-1.1936989256215778,4
1069,1777301165041094175,0.0927646160125732,False,-1.1083488143877622,0.8288002601520303,1.7868669272746571,0.167606126813279,-0.1703707440825218,-2.8477391595437616,-3.0,-1.0,3.0,1.5,0.75,0.7462249566400354,0.7278798436352055,-1.1612676885814943,4
1070,1777301165147453716,0.106278657913208,False,-1.0882996951808397,0.838402093787298,1.8134128863393084,0.1676217906802755,-0.1800122262346772,-2.935485522286516,-3.0,-1.0,3.0,1.5,0.75,0.75,0.7119522681964149,-1.108619870935842,4
1071,1777301165247727742,0.1001656055450439,False,-1.075093728464429,0.8360242881387309,1.842955490599369,0.1571968506829006,-0.1829641187882855,-3.0335724271753453,-3.0,-1.0,3.0,1.5,0.75,0.75,0.6942267056403786,-1.0497677280025446,4
1072,1777301165352573480,0.1048946380615234,False,-1.075121519237499,0.8234947964937348,1.8908944137759127,0.1394257961854272,-0.1891901764955139,-3.133407377512538,-3.0,-1.0,3.0,1.5,0.75,0.75,0.6654633517344524,-0.9898667578002284,4
1073,1777301165457606587,0.1053466796875,False,-1.0830857459443637,0.8035994589212692,1.936481847965225,0.1326230208204336,-0.2126735933996469,3.091897261767856,-3.0,-1.0,3.0,1.5,0.75,0.75,0.638110891220865,-0.9551383570607134,4
1074,1777301165553413288,0.095369815826416,False,-1.1040058424552557,0.7686581024650756,1.9976941752420967,0.1241560235301625,-0.2125899629251389,2.9949752817659303,-3.0,-1.0,3.0,1.5,0.75,0.75,0.601383494854742,-0.8969851690595582,4
1075,1777301165671100521,0.1178607940673828,False,-1.1324143491737602,0.7276111084091558,2.056106927613245,0.1015602247958856,-0.2201647311052577,2.938285179495,-3.0,-1.0,3.0,1.5,0.75,0.75,0.5663358434320527,-0.8629711076970001,4
1076,1777301165758892441,0.0878360271453857,False,-1.1736310423793048,0.677024668751381,2.121057814013129,0.0988861397026745,-0.2258787346338873,2.8668649660234564,-3.0,-1.0,3.0,1.5,0.6931330788274757,0.75,0.5273653115921226,-0.8201189796140739,4
1077,1777301165858478735,0.0995213985443115,False,-1.2199967280866124,0.6247316523409147,2.17728521037903,0.0857664967464503,-0.244034854660798,2.8108332615110734,-3.0,-1.0,3.0,1.5,0.612525111196963,0.75,0.4936288737725819,-0.786499956906644,4
1078,1777301165964265178,0.1058971881866455,False,-1.2749957308227289,0.5682982182752458,2.230564750538114,0.0781276458115038,-0.243099646812521,2.762174681049424,-3.0,-1.0,3.0,1.5,0.5273597519255221,0.75,0.4616611496771315,-0.7573048086296543,4
1079,1777301166064741315,0.1001334190368652,False,-1.3378902202462222,0.5097851296834155,2.278186427233501,0.0656800670527896,-0.2445924714433423,2.7005117766633187,-3.0,-1.0,3.0,1.5,0.419529903054295,0.75,0.4330881436598995,-0.7203070659979912,4
1080,1777301166149374357,0.0847339630126953,False,-1.409173754558224,0.447314015644671,2.3221392595458394,0.0653954649723638,-0.2405494862381798,2.659229867069412,-3.0,-1.0,3.0,1.5,0.3217827004166008,0.75,0.4067164442724963,-0.695537920241647,4
1081,1777301166250180422,0.100888967514038,False,-1.4927831700893022,0.3782044426365238,2.364719948369243,0.0707884483310072,-0.238227673823315,2.615798308382391,-3.0,-1.0,3.0,1.5,0.2552508111035659,0.75,0.3811680309784541,-0.6694789850294346,4
1082,1777301166349833057,0.0997283458709716,False,-1.5774357987150724,0.3101074418920689,2.3980242600184267,0.0582997321803724,-0.248969248920023,2.5614904704588954,-3.0,-1.0,3.0,1.5,0.1823441330825216,0.75,0.361185443988944,-0.6368942822753373,4
1083,1777301166452025019,0.1023166179656982,False,-1.6687505959311069,0.2397645004612414,2.4271025103100228,0.036559924421882,-0.2406514045222211,2.517473250946046,-3.0,-1.0,3.0,1.5,0.116732291727834,0.7465689094652749,0.3437384938139863,-0.6104839505676276,4
1084,1777301166552651600,0.100135326385498,False,-1.7662665150750068,0.1648495105427029,2.453563988831485,0.0508635658542811,-0.2317644875948766,2.4916410451484494,-3.0,-1.0,3.0,1.5,0.069604888602892,0.6488898704747994,0.3278616067011087,-0.5949846270890696,4
1085,1777301166649098387,0.0967974662780761,False,-1.8677828420097016,0.0863892031157249,2.475309624458991,0.0687097525452356,-0.2214161923120935,2.45816392072008,-3.0,-1.0,3.0,1.5,0.0247432133417603,0.5471790219013174,0.3148142253246054,-0.5748983524320478,4
1086,1777301166751391250,0.1021435260772705,False,-1.9723612324114737,0.0044971283653325,2.493057026426265,0.0625125697158158,-0.2195762876151079,2.4333081064614213,-3.0,-1.0,3.0,1.5,-0.0006010648274679,0.4763616725760866,0.3041657841442407,-0.5599848638768528,4
1087,1777301166849078695,0.0974256992340087,False,-2.0804156960470053,-0.0833575433528955,2.509082339357682,0.0687767040620084,-0.214225770511389,2.4026365322427874,-3.0,-1.0,3.0,1.5,-0.0263243640850884,0.35408178281048,0.2945505963853906,-0.5415819193456725,4
1088,1777301166945010996,0.0962119102478027,False,-2.179770272408184,-0.1663659955313007,2.521253059003828,0.0615126356599891,-0.2142007445617811,2.3743437740733637,-3.0,-1.0,3.0,1.5,-0.036283591356934,0.3003012840462854,0.287248164597703,-0.5246062644440179,4
1089,1777301167050521077,0.1055965423583984,False,-2.3038065249197035,-0.2728556108946565,2.534225463427964,0.0603271182278946,-0.2126351458672636,2.3441911057365257,-3.0,-1.0,3.0,1.5,-0.0500668426565685,0.1401787152983141,0.2794647219432215,-0.5065146634419154,4
1090,1777301167149420550,0.0988721847534179,False,-2.415515935960304,-0.3714562291235126,2.5434093374518145,0.006232835950962,-0.1568639655031703,2.309378268460406,-3.0,-1.0,3.0,1.5,-0.049734811555924,0.0611596749110936,0.2739543975289112,-0.4856269610762436,4
1091,1777301167251549410,0.1020221710205078,False,-2.5236971614884487,-0.4678732729394014,2.5505493944978874,-0.0763765020687406,-0.0829118705741039,2.280281865494008,-3.0,-1.0,3.0,1.5,-0.0481902496776639,-0.0012336935618138,0.2696703633012675,-0.4681691192964048,4
1092,1777301167354856925,0.1036305427551269,False,-2.6233195484734293,-0.5586092528957289,2.556196787079457,-0.0890757301926179,-0.0468398700184491,2.2606688662398584,-3.0,-1.0,3.0,1.5,-0.0413747920122073,-0.046745399201346,0.2662819277523254,-0.456401319743915,4
1093,1777301167456655516,0.1017904281616211,False,-2.711902081918548,-0.6397233859804693,2.561880383441657,-0.111416915032561,-0.0354831407198935,2.2315060091980485,-3.0,-1.0,3.0,1.5,-0.0360574034335238,-0.0837012601024949,0.2628717699350055,-0.4389036055188291,4
1094,1777301167558575294,0.1017274856567382,False,-2.7876833312426257,-0.710981582351571,2.5676392266767465,-0.11646193252227,-0.0291274424067821,2.2064841197021305,-3.0,-1.0,3.0,1.5,-0.0274955000604288,-0.0991323359350739,0.2594164639939521,-0.4238904718212783,4
1095,1777301167650359502,0.0917463302612304,False,-2.8504176017964804,-0.7718165642923819,2.5730861508970166,-0.1309416244948348,-0.0279753236803678,2.1808092922764235,-3.0,-1.0,3.0,1.5,-0.0152725478690514,-0.1300998747377959,0.25614830946179,-0.4084855753658541,4
1096,1777301167749487436,0.0991089344024658,False,-2.901276092647845,-0.8222216770162465,2.5787141412477705,-0.1383565588505265,-0.0295889259011224,2.159685613654432,-3.0,-1.0,3.0,1.5,-0.0144320428120008,-0.1042582536152421,0.2527715152513377,-0.3958113681926588,4
