recording_time_ns,dt,wind_enabled,pos_x,pos_y,pos_z,pos_roll,pos_pitch,pos_yaw,targetpos_x,targetpos_y,targetpos_z,targetpos_yaw,control_vel_x,control_vel_y,control_vel_z,control_vel_yaw
1777300584157548034,1777300584.1569598,False,-0.5472934516694488,0.705846250534333,0.820254872479776,-0.026670518857937486,0.07413104197738744,-0.015342285512995197,-1.0,1.0,2.0,0.0,-0.3,0.3,0.3,0.009205371307796995
1777300584280438076,0.09723591804504395,False,-0.5484046747233255,0.7057541687015584,0.8212258425500809,-0.023656322066324315,0.07501484869718933,-0.012858246145721265,-1.0,1.0,2.0,0.0,-0.26978032726673995,0.173377123130738,0.3,0.007714947687432704
1777300584355848560,0.1008453369140625,False,-0.5496405408968471,0.7056751351350302,0.8221590056019294,-0.028271333000757147,0.07257986373099963,-0.015047265352788157,-1.0,1.0,2.0,0.0,-0.26916968957041426,0.1727994794947751,0.3,0.00902835921167293
1777300584455640323,0.09984207153320312,False,-0.5509378148518709,0.705696228217159,0.8233568226711034,-0.029472325231191504,0.07256124828715946,-0.017854943427603968,-1.0,1.0,2.0,0.0,-0.26864857471790066,0.1717498095927614,0.3,0.010712966056562311
1777300584555530288,0.09987640380859375,False,-0.5519524892118255,0.7058248349767944,0.8248019533375296,-0.020339539591622057,0.05856322716270635,-0.01861178675768882,-1.0,1.0,2.0,0.0,-0.2690123810688869,0.17114193007463854,0.3,0.011167072054613226
1777300584657310579,0.10156846046447754,False,-0.5533520959426279,0.7052298219936323,0.8261893862307442,-0.02252419698041771,0.04645642409619081,-0.02644765267682156,-1.0,1.0,2.0,0.0,-0.26848600503806735,0.17157958825132116,0.3,0.01586859160609295
1777300584755216272,0.09805727005004883,False,-0.5545660121525374,0.7047021958044268,0.8274009203583179,-0.024169927523287955,0.04501824287444433,-0.029223529532581574,-1.0,1.0,2.0,0.0,-0.2686581813108697,0.17101591839707417,0.3,0.017534117719549068
1777300584854650463,0.09948492050170898,False,-0.5552593390710835,0.7043404841137255,0.8283959385098716,-0.02411298698857621,0.05240237131275892,-0.026952652302514004,-1.0,1.0,2.0,0.0,-0.2694675892016441,0.17128668737863373,0.3,0.01617159138150832
1777300584955739001,0.10115170478820801,False,-0.5558508313458055,0.703691875684667,0.8297322861931596,-0.032858477022891394,0.060932233701594486,-0.02624904778601394,-1.0,1.0,2.0,0.0,-0.269360667207917,0.17269838801861104,0.3,0.01574942867160827
1777300585055370638,0.0996236801147461,False,-0.5562758147786049,0.7030048219717949,0.8312429658901963,-0.04471379245360434,0.06574852799057614,-0.0274591386118872,-1.0,1.0,2.0,0.0,-0.26980419112279186,0.17292358258114932,0.3,0.01647548316713232
1777300585155372128,0.10004305839538574,False,-0.5549689065387264,0.7015299040316432,0.8339956463177148,0.03708947399177369,0.21166607840024296,0.019580620983170444,-1.0,1.0,2.0,0.0,-0.26729284569347256,0.18877451945200452,0.3,-0.011748372589902356
1777300585256075745,0.10051226615905762,False,-0.5542161509665989,0.7026183901768992,0.8321866341035081,-0.03485733683335747,0.06594374044283455,-0.028552721336894186,-1.0,1.0,2.0,0.0,-0.274608320143923,0.16740863650836513,0.3,0.017131632802136476
1777300585353388420,0.09747314453125,False,-0.5580384304576615,0.7029870836328135,0.8385860022510344,0.04344187256227988,0.054698713256362545,0.07113356762770946,-1.0,1.0,2.0,0.0,-0.24018676506163283,0.19463615275482693,0.3,-0.042680140576625634
1777300585456359223,0.10301446914672852,False,-0.5520109538125082,0.7032186031604384,0.8410208223129505,-0.04420586809073197,0.053881614670696736,-0.01969254697902276,-1.0,1.0,2.0,0.0,-0.28978432456942027,0.17172167694567358,0.3,0.011815528187413537
1777300585552062475,0.09577345848083496,False,-0.5446470887079871,0.7168865276342814,0.835451415853522,-0.04509140956899083,0.04525986255273948,-0.026355939764190185,-1.0,1.0,2.0,0.0,-0.2995236216809421,0.11920287455779398,0.3,0.01581356385851409
1777300585653239096,0.10114598274230957,False,-0.5475220124943516,0.7192328021520695,0.8491994363265273,-0.046600766927533045,0.041819856796077436,-0.027714868884422168,-1.0,1.0,2.0,0.0,-0.2673341674779792,0.1541522614752642,0.3,0.016628921330653322
1777300585755188456,0.10186100006103516,False,-0.5600145311080922,0.7115904593078711,0.8788231905639367,-0.03197375582826342,0.03140731883674058,-0.024093272835400796,-1.0,1.0,2.0,0.0,-0.23184357782195958,0.1900236964177715,0.3,0.01445596370124038
1777300585867772435,0.11280322074890137,False,-0.5671888170738675,0.7157637495583565,0.8939570320214701,-0.04929030281051541,0.04265945349778824,-0.019483697475427667,-1.0,1.0,2.0,0.0,-0.24366737982024197,0.1547250168219298,0.3,0.011690218485256665
1777300585963925655,0.09598565101623535,False,-0.5779066953809304,0.7232008236343334,0.9133831702267666,-0.05598247465779874,0.036865655163795516,-0.02379012480272011,-1.0,1.0,2.0,0.0,-0.22309316704507298,0.13756718899116926,0.3,0.014274074881632081
1777300586063429970,0.09919953346252441,False,-0.5888970858034316,0.7295668736689924,0.9304706106155571,-0.031587742774378376,0.0385939612135244,-0.02156612393391315,-1.0,1.0,2.0,0.0,-0.21645877563432087,0.13837197987887095,0.3,0.012939674360347996
1777300586168473042,0.10513520240783691,False,-0.6063558826564039,0.7379967066283389,0.9593994481096979,0.2073966473013472,-0.18301450662959512,-0.022992312213689702,-1.0,1.0,2.0,0.0,-0.18938018633671402,0.1288278582340707,0.3,0.013795387328213948
1777300586267923895,0.09921455383300781,False,-0.6184965284970602,0.7475515104570085,0.9699573797433233,-0.04229695191252694,0.04684430203295073,-0.021869861257852913,-1.0,1.0,2.0,0.0,-0.19482639079137035,0.1183455705185634,0.3,0.013121916754711638
1777300586385926511,0.11792588233947754,False,-0.6338584527483734,0.7568783786030528,0.9889037985220922,-0.033654008113128575,0.04073777885748698,-0.028973039484256384,-1.0,1.0,2.0,0.0,-0.18406728085673846,0.11686249612911112,0.3,0.017383823690553867
1777300586482229501,0.09672427177429199,False,-0.6456790422042545,0.777771004600343,0.9994537407962875,-0.037762200069625884,0.06566208861234683,-0.025196956893058294,-1.0,1.0,2.0,0.0,-0.17760072658045745,0.06408264591904722,0.3,0.015118174135835005
1777300586555350179,0.07314324378967285,False,-0.6593893114863444,0.7864998159109794,1.0166161154937754,-0.030321879821572154,0.07031319099495864,-0.025934343446338753,-1.0,1.0,2.0,0.0,-0.1504768039196228,0.08842619053000389,0.3,0.015560606067803295
1777300586655847651,0.10071921348571777,False,-0.6798095313656893,0.7860055318057766,1.0436087757579284,-0.03128289513810968,0.05275133880587365,-0.02305992061962627,-1.0,1.0,2.0,0.0,-0.13425066630116306,0.12680712314975348,0.3,0.01383595237177575
1777300586755494176,0.09932541847229004,False,-0.6894767357480678,0.8050439348618419,1.0523675575509368,-0.03341820361415683,0.06605957382927594,-0.02602306323614235,-1.0,1.0,2.0,0.0,-0.15860961147056227,0.05536222700628056,0.3,0.015613837941685471
1777300586856741079,0.10146331787109375,False,-0.7072184700415348,0.8047509853585847,1.0788606517148613,-0.03590510376484494,0.07232290860739926,-0.008791177984403832,-1.0,1.0,2.0,0.0,-0.1242440577371733,0.11692786320972492,0.3,0.005274706790642192
1777300586959454700,0.10272336006164551,False,-0.7207531056987712,0.8132581748929427,1.0966650471550832,-0.0259603793636561,0.06561878049071562,-0.023088722790520298,-1.0,1.0,2.0,0.0,-0.12999974329090372,0.08422133031520276,0.3,0.013853233674312192
1777300587065497238,0.10596275329589844,False,-0.7332458918901453,0.8228623814883287,1.1154537065286907,-0.042706292997181206,0.07232421980783182,-0.01915550232951781,-1.0,1.0,2.0,0.0,-0.1261751610213027,0.07668856832945078,0.3,0.011493301397710808
1777300587167087242,0.1012885570526123,False,-0.7439707398108267,0.8306979804111588,1.133114360189498,-0.029280863874891993,0.06013624324017632,-0.026667351947262854,-1.0,1.0,2.0,0.0,-0.1238987654755824,0.07509650048609301,0.3,0.016000411168357598
1777300587257520572,0.0906529426574707,False,-0.7525153754318795,0.8376726554412526,1.1493797748233714,-0.033211265215542116,0.060525846972401695,-0.02624729389530835,-1.0,1.0,2.0,0.0,-0.12212273885258669,0.07113442228122804,0.3,0.01574837633718493
1777300587368072724,0.1107931137084961,False,-0.761974221308504,0.8453126346340017,1.1692882617192812,-0.030357658966561053,0.06193895650795731,-0.027407738168154793,-1.0,1.0,2.0,0.0,-0.11913580702180253,0.06888630656861397,0.3,0.01644464290089287
1777300587466560245,0.09838104248046875,False,-0.7691174882248326,0.8521251631266625,1.187587661009629,-0.018285582695379436,0.07653122115677323,-0.02236008825520831,-1.0,1.0,2.0,0.0,-0.1182371373701421,0.06532375279566588,0.3,0.013416052953125045
1777300587558618054,0.09177279472351074,False,-0.7750190551086642,0.8577942044703808,1.2041329672518128,-0.027457675560746436,0.07999393625065745,-0.016914606613602997,-1.0,1.0,2.0,0.0,-0.11680983475201427,0.06482528142774135,0.3,0.010148763968161667
1777300587662915370,0.10459589958190918,False,-0.7775495835521783,0.8669998464022534,1.2178546687903256,-0.030819488809507627,0.07542102747817943,-0.02216614384869602,-1.0,1.0,2.0,0.0,-0.12736473116071706,0.05058611556179938,0.3,0.013299686309217584
1777300587766876352,0.10361456871032715,False,-0.8068129188590035,0.8821513119492729,1.2701144425295934,3.138549496239686,-0.0629431725759826,-1.561128688095399,-1.0,1.0,2.0,0.0,-0.027140705778094888,-0.030923838158427648,0.3,0.9366772128572396
1777300587873674922,0.10688543319702148,False,-0.7883492824578806,0.8781822182538694,1.2588547932521268,-0.028812642659726773,0.07419919725384724,-0.014153769989414635,-1.0,1.0,2.0,0.0,-0.17998735736023913,0.08169166504367648,0.3,0.008492261993648853
1777300587966430607,0.0925300121307373,False,-0.7916378137337324,0.8821113084319369,1.2776281858397802,-0.02808716774779514,0.07673550103846524,0.01497796728378713,-1.0,1.0,2.0,0.0,-0.1134738322735394,0.05970059323758341,0.3,-0.008986780370272384
1777300588068860471,0.10293769836425781,False,-0.7949292109548363,0.8854655150138145,1.296531892815852,-0.0315591712665288,0.07043226116337654,0.0238138274965183,-1.0,1.0,2.0,0.0,-0.11201433105549122,0.0616299565221812,0.3,-0.0142882964979111
1777300588165862556,0.09677410125732422,False,-0.7974642038627985,0.8886326251108327,1.310807151593224,-0.017937115608746085,0.07018083224934236,0.023533385418404114,-1.0,1.0,2.0,0.0,-0.11229018416787874,0.05966121857347432,0.3,-0.014120031251042596
1777300588268279577,0.10256242752075195,False,-0.8012258098397056,0.8912239104083574,1.3331490117713152,-0.029634615356354276,0.06086645949838303,0.02026692374010058,-1.0,1.0,2.0,0.0,-0.10707036539936333,0.05986815379931332,0.3,-0.01216015424406045
1777300588360660828,0.09244966506958008,False,-0.8036402847856524,0.8928438805533265,1.347618223314075,-0.03462925373403397,0.07015218613020176,0.029338061073079173,-1.0,1.0,2.0,0.0,-0.10820172964510048,0.06223761018612506,0.3,-0.017602836643847476
1777300588467203538,0.10660648345947266,False,-0.8074870788982018,0.8955698946251267,1.368856926972253,-0.030081403230122455,0.06306229075413264,0.026883572286926883,-1.0,1.0,2.0,0.0,-0.10316664619453497,0.05778085293991531,0.3,-0.01613014337215617
1777300588565345107,0.09806394577026367,False,-0.8105952857191294,0.8970559136275333,1.3864717574750849,-0.0314359324487893,0.06938636508212238,0.030242631091059274,-1.0,1.0,2.0,0.0,-0.10235626538976782,0.060343024601349646,0.3,-0.018145578654635574
1777300588665684023,0.10025477409362793,False,-0.8137023244979498,0.8989337413728916,1.4042899122289114,-0.03189292767766249,0.06918017495196316,0.025189882777162272,-1.0,1.0,2.0,0.0,-0.10106284882648477,0.05758434875663605,0.3,-0.015113929666297298
1777300588767266211,0.10087180137634277,False,-0.8170225725175856,0.900380322107102,1.4220857681785133,-0.03150720481378486,0.06807736697539521,0.0244153674586074,-1.0,1.0,2.0,0.0,-0.09852784666119088,0.05789218026926425,0.3,-0.014649220475164437
1777300588866553520,0.0999600887298584,False,-0.8204465126334773,0.9016481728289177,1.4399987020412315,-0.029167753805987493,0.06466519165798099,0.02112858323136061,-1.0,1.0,2.0,0.0,-0.09626808026257264,0.057252661104905345,0.3,-0.012677149938816345
1777300588966439194,0.0998525619506836,False,-0.8241879105769305,0.9031123158501533,1.457891849875625,-0.03144258596169827,0.06401619847010565,0.025022481032084962,-1.0,1.0,2.0,0.0,-0.09287257309769335,0.05607490947272551,0.3,-0.015013488619251092
1777300589065528781,0.0991208553314209,False,-0.8270045878210153,0.9042623133533473,1.4762528403843582,-0.03162022144809484,0.070075570238006,0.02331054315121907,-1.0,1.0,2.0,0.0,-0.09398861518040406,0.05616800693182517,0.3,-0.013986325890731432
1777300589166321406,0.10011148452758789,False,-0.8307438932123755,0.9057315979845859,1.4946790639371867,-0.030828743862955296,0.07295973375042357,0.02283653971028506,-1.0,1.0,2.0,0.0,-0.08913367568914432,0.05420755793643784,0.3,-0.013701923826171124
1777300589266510385,0.10088515281677246,False,-0.8334139897066475,0.9068407812198037,1.513365282375802,-0.03395329091319233,0.05795601457532104,0.01500503499391484,-1.0,1.0,2.0,0.0,-0.09121204697269815,0.053971841431715926,0.29198083057451885,-0.009003020996348888
1777300589367735927,0.10122346878051758,False,-0.8355262798833967,0.9080285173598321,1.5322936726879752,-0.03180503066613718,0.06695516381760994,0.02060106891400935,-1.0,1.0,2.0,0.0,-0.09134010965930055,0.0535556840037571,0.28062379638721485,-0.012360641348405555
1777300589465242414,0.09753084182739258,False,-0.8432008577617244,0.910633122077016,1.553561641678009,-0.020224848421228393,0.06173017170365171,0.040157518872407115,-1.0,1.0,2.0,0.0,-0.06858501971179283,0.048400977818747526,0.26786301499319465,-0.024094511323444222
1777300665009819964,1777300665.009414,False,-0.7923574119373015,0.7582348335357408,0.8160747401108736,-0.012975025847398403,0.06191987857226893,-0.08909668463509128,-2.0,0.0,2.0,0.0,-0.3,-0.3,0.3,0.05345801078105481
1777300665095617289,0.08533334732055664,False,-0.7918475323361951,0.7574287448175369,0.8166365577750624,-0.005513897787471679,0.05571622293121909,-0.09206279391731341,-2.0,0.0,2.0,0.0,-0.3,-0.3,0.3,0.05523767635038812
1777300665196102940,0.1005868911743164,False,-0.7915687784223604,0.7561744539803413,0.8178368313935829,-0.013915049379527266,0.05951874509176675,-0.09482144238222573,-2.0,0.0,2.0,0.0,-0.3,-0.3,0.3,0.05689286542933533
1777300665295249134,0.09935355186462402,False,-0.7909501117695261,0.7557621020422917,0.818242984639149,-0.013739694267452791,0.06026275782132169,-0.09597700649004097,-2.0,0.0,2.0,0.0,-0.3,-0.3,0.3,0.05758620389402455
1777300665389635143,0.09437775611877441,False,-0.7904695011709881,0.7551524899463652,0.8195682402996345,-0.022763645134182452,0.0612435291202602,-0.0897240169640675,-2.0,0.0,2.0,0.0,-0.3,-0.3,0.3,0.053834410178440435
1777300665499543329,0.10979914665222168,False,-0.7900653326393451,0.7544220667530341,0.8203070444918017,-0.007083033604295992,0.05570903517312803,-0.09080602851801507,-2.0,0.0,2.0,0.0,-0.3,-0.3,0.3,0.05448361711080913
1777300665595649541,0.09591150283813477,False,-0.7900536258681448,0.7533632563085021,0.8212664456712727,-0.009323372359310765,0.06178855651182975,-0.09149251556716766,-2.0,0.0,2.0,0.0,-0.3,-0.3,0.3,0.05489550934030065
1777300665695293390,0.09970831871032715,False,-0.7899084843148012,0.7522748664703945,0.8223878712728465,-0.0202980395989206,0.06132193050638779,-0.09259487971588519,-2.0,0.0,2.0,0.0,-0.3,-0.3,0.3,0.055556927829531054
1777300665797594630,0.10252118110656738,False,-0.7890400657992321,0.7513322381180452,0.8234195694338948,-0.012096061066254268,0.06848886465624256,-0.09164735893441343,-2.0,0.0,2.0,0.0,-0.3,-0.3,0.3,0.054988415360648
1777300665897723501,0.1001272201538086,False,-0.7876914408923733,0.7505294027649594,0.8239596161740875,-0.021459870388388994,0.06805064586079881,-0.09074593330774534,-2.0,0.0,2.0,0.0,-0.3,-0.3,0.3,0.05444755998464723
1777300665997802907,0.10005664825439453,False,-0.786197235431651,0.7502553207739,0.823842499603218,-0.038612187276550955,0.03868359544255222,-0.10799554541601367,-2.0,0.0,2.0,0.0,-0.3,-0.3,0.3,0.06479732724960811
1777300666098584402,0.10073065757751465,False,-0.7764799369376022,0.7637177140333338,0.80877421115048,-0.007170157220588284,0.07143007102374774,-0.09348753744416115,-2.0,0.0,2.0,0.0,-0.3,-0.3,0.3,0.056092522466496764
1777300666195357096,0.0968027114868164,False,-0.7820706065091588,0.7495399643490319,0.824471460810776,-0.016460269248512786,0.06157805592926919,-0.09167869589946882,-2.0,0.0,2.0,0.0,-0.3,-0.3,0.3,0.055007217539681186
1777300666295730292,0.10015296936035156,False,-0.7804797741742631,0.7489283112892033,0.8250069822084644,-0.015536448396287915,0.05789401425241802,-0.09402182381190644,-2.0,0.0,2.0,0.0,-0.3,-0.3,0.3,0.056413094287143827
1777300666395459120,0.0998532772064209,False,-0.778956633022334,0.7486367783231299,0.8251908328162708,-0.015364636521996,0.05847386803241784,-0.09562676394980932,-2.0,0.0,2.0,0.0,-0.3,-0.3,0.3,0.05737605836988564
1777300666495636948,0.10020017623901367,False,-0.7789350966421599,0.746862128184682,0.8288152982467306,-0.004786512395142445,0.03373338182756034,-0.08980267186564078,-2.0,0.0,2.0,0.0,-0.3,-0.3,0.3,0.05388160311938437
1777300666595480571,0.10007047653198242,False,-0.7812757050975817,0.743533544840297,0.8358784800662877,0.01210516749633591,0.023373824262413377,-0.09064467857408118,-2.0,0.0,2.0,0.0,-0.3,-0.3,0.3,0.05438680714444866
1777300666697673757,0.1016683578491211,False,-0.787599176412663,0.7367700140253163,0.8473116717014886,0.025324613436820707,0.021252970540412773,-0.09042320895587005,-2.0,0.0,2.0,0.0,-0.3,-0.3,0.3,0.054253925373521916
1777300666802334574,0.10483217239379883,False,-0.7975141392940838,0.7275306890796935,0.8603220928040595,0.016865630806171525,0.01942127780477224,-0.09325623803646088,-2.0,0.0,2.0,0.0,-0.3,-0.3,0.3,0.055953742821876595
1777300666895589220,0.09323477745056152,False,-0.8054010723932787,0.7270726827032234,0.8622458647613769,0.026994822234399463,0.024053870533049027,-0.09944534184143503,-2.0,0.0,2.0,0.0,-0.3,-0.3,0.3,0.05966720510486096
1777300666996482812,0.10110092163085938,False,-0.8293507399668175,0.6996845252751661,0.8923498007847528,0.01294121728122417,0.012957590289785288,-0.1046447407554466,-2.0,0.0,2.0,0.0,-0.3,-0.3,0.3,0.06278684445326803
1777300667095431025,0.09899377822875977,False,-0.8505976409342241,0.6814053272460648,0.9103811783017833,0.021426979239229035,0.01847931057759705,-0.10449110784923876,-2.0,0.0,2.0,0.0,-0.3,-0.3,0.3,0.06269466470954325
1777300667195688531,0.10024905204772949,False,-0.8695468172684122,0.6717153920520732,0.9167830772941695,0.019653703207684396,0.024666687315576315,-0.11475069460534199,-2.0,0.0,2.0,0.0,-0.3,-0.3,0.3,0.06885041676320522
1777300667295298150,0.0995798110961914,False,-0.8967678564510596,0.6487347623343482,0.9353850441930016,0.015701663609042425,0.029263491446313728,-0.11614649759468393,-2.0,0.0,2.0,0.0,-0.3,-0.3,0.3,0.06968789855681025
1777300667395408765,0.10005784034729004,False,-0.9260027360131577,0.6237605751046,0.954124358483537,0.013814359379570026,0.03619001678693359,-0.12034300422983926,-2.0,0.0,2.0,0.0,-0.3,-0.3,0.3,0.07220580253790354
1777300667499107465,0.10353517532348633,False,-0.9575719241689796,0.5975316656444806,0.9723027870241764,0.014731032792729378,0.03593529707547245,-0.1230588685718361,-2.0,0.0,2.0,0.0,-0.3,-0.3,0.3,0.07383532114310166
1777300667596368935,0.09743595123291016,False,-0.991041756433395,0.5696161860147635,0.9907664051969745,0.01116442617256308,0.03599505527135095,-0.12907636145770648,-2.0,0.0,2.0,0.0,-0.3,-0.3,0.3,0.07744581687462383
1777300667706675329,0.11012673377990723,False,-1.029710138325996,0.5378072495670363,1.0107232340120844,0.010889817759099784,0.036369074602412566,-0.1309642541346247,-2.0,0.0,2.0,0.0,-0.3,-0.29628137391251863,0.3,0.07857855248077472
1777300667815282909,0.10898900032043457,False,-1.065831597900069,0.505232741113711,1.031442209872734,-0.013937118350232864,0.005448047180303599,-0.14626776813709472,-2.0,0.0,2.0,0.0,-0.3,-0.2783965448482356,0.3,0.08776066088225684
1777300667907299026,0.09161591529846191,False,-1.1037215055016012,0.4735854048877564,1.0500153596311415,0.002732573172378464,0.03416518929646277,-0.13162359834038062,-2.0,0.0,2.0,0.0,-0.3,-0.23325422489910408,0.3,0.07897415900422837
1777300668007279136,0.10005521774291992,False,-1.1425425692375695,0.44239864752107566,1.0682528124665467,0.002688776359614122,0.03730522120565629,-0.13060394944327475,-2.0,0.0,2.0,0.0,-0.3,-0.22230885030759515,0.3,0.07836236966596495
1777300668106430954,0.09917950630187988,False,-1.1826369065699955,0.4106279791721797,1.0864269799872546,-0.010127923578917708,0.04000140608930313,-0.13726873408590776,-2.0,0.0,2.0,0.0,-0.3,-0.19937506696180532,0.3,0.08236124045154466
1777300668199157767,0.09249329566955566,False,-1.2187607112597505,0.3836890450045636,1.1035189944215336,-0.02727214375750466,0.025885701256862587,-0.1378303496691876,-2.0,0.0,2.0,0.0,-0.3,-0.18978763770649465,0.3,0.0826982098015125
1777300668305673244,0.10689806938171387,False,-1.2631935903410743,0.3511960582323709,1.122967360118098,-0.024503714946734513,0.03585784843369909,-0.1412208520076928,-2.0,0.0,2.0,0.0,-0.2974033450346219,-0.16301182508573903,0.3,0.08473251120461578
1777300668405921400,0.10009360313415527,False,-1.3035342855723113,0.32291514636550944,1.1401194020639591,-0.012720491406759628,0.03139107934608173,-0.13613774119643293,-2.0,0.0,2.0,0.0,-0.27943153773037793,-0.14828143966941246,0.3,0.0816826447178597
1777300668509468745,0.10317611694335938,False,-1.3450836461722255,0.29539747719076964,1.1574909978245804,-0.02332976550064311,0.046289850025156905,-0.14428286909977167,-2.0,0.0,2.0,0.0,-0.2553315754736615,-0.13534536785962592,0.3,0.08656972145986304
1777300668605743825,0.09673380851745605,False,-1.3854570348690285,0.27150873529551733,1.1738773920564027,-0.03291478863390827,0.037713157640502266,-0.14638433019230013,-2.0,0.0,2.0,0.0,-0.22795624428326333,-0.12338905363599073,0.3,0.08783059811538001
1777300668706845218,0.10126209259033203,False,-1.4278126248557732,0.24660089510268016,1.191008248293304,-0.02971349847945478,0.05343899215123013,-0.14226018952037306,-2.0,0.0,2.0,0.0,-0.2051132219176883,-0.10430312813888101,0.3,0.0853561137122238
1777300668806170183,0.09916377067565918,False,-1.4676702799094166,0.22582424400898612,1.207493990923007,-0.027553573191414927,0.055714680732910915,-0.14708483714086992,-2.0,0.0,2.0,0.0,-0.1860242011940602,-0.10099222911290004,0.3,0.08825090228452197
1777300668905113095,0.09898805618286133,False,-1.5065326712231715,0.20690251554271083,1.2235745237132902,-0.028381093119875803,0.06369196445554982,-0.1403883947664673,-2.0,0.0,2.0,0.0,-0.1672005742588989,-0.09108816189181604,0.3,0.08423303685988034
1777300669000262059,0.09498310089111328,False,-1.540453062149649,0.19155179093871647,1.238054566976533,-0.030562231984293777,0.06380116036189486,-0.14218086695839194,-2.0,0.0,2.0,0.0,-0.15747525211943386,-0.0896658744362466,0.3,0.08530852017503517
1777300669101265052,0.10111570358276367,False,-1.580253385907765,0.17693557817991867,1.2562054017857893,-0.01823837008493262,0.07069154299884917,-0.12646748574250144,-2.0,0.0,2.0,0.0,-0.12477560171552568,-0.07916681186850273,0.3,0.07588049144550073
1777300669208587869,0.10741448402404785,False,-1.618700251774538,0.1624250462865875,1.274294400163639,-0.03196705590253851,0.059204108712911145,-0.1292173669913076,-2.0,0.0,2.0,0.0,-0.11305306807614258,-0.07209715248770178,0.3,0.07753042019478462
1777300669308758393,0.09992718696594238,False,-1.6486652885430684,0.14881501931263433,1.2887538700471193,-0.005436461576316235,0.04738364936077286,-0.10982970740228296,-2.0,0.0,2.0,0.0,-0.11480384874016371,-0.06138256212310209,0.3,0.06589782444136975
1777300669413574144,0.10488152503967285,False,-1.679234236786309,0.13747066170091646,1.305427509047475,0.006389306862803365,0.049572649232550677,-0.09995979187130068,-2.0,0.0,2.0,0.0,-0.09950370332848382,-0.06026397414409543,0.3,0.059975875122780395
1777300669533891614,0.12043428421020508,False,-1.7073861915390816,0.12796506241526726,1.3216831368178426,-0.001140260506058567,0.0654307112693323,-0.10247878131578761,-2.0,0.0,2.0,0.0,-0.09945682110851513,-0.06360883003610197,0.3,0.06148726878947261
1777300669617843464,0.08395099639892578,False,-1.7340180604259563,0.1192582778842526,1.3389837511342104,-0.014236200324715126,0.06704424401584427,-0.11695538481639134,-2.0,0.0,2.0,0.0,-0.0592607078786052,-0.047681964432040126,0.3,0.07017323088983467
1777300669725407647,0.1075737476348877,False,-1.7604155275918925,0.11079258681186537,1.3575726204307559,-0.010625952998747733,0.07082496453166344,-0.1138401586544766,-2.0,0.0,2.0,0.0,-0.06481047120928926,-0.050555910745280735,0.3,0.06830409519268583
1777300669820837356,0.09549188613891602,False,-1.7802189817677274,0.10463555066967091,1.3733482541168398,-0.025333663330583088,0.07731956073884703,-0.11974357124868751,-2.0,0.0,2.0,0.0,-0.06396572803682286,-0.051447808004116156,0.3,0.07184614274921257
1777300669905486419,0.0841531753540039,False,-1.7972814488139952,0.09759552953588932,1.3890829976439414,-0.024632287087362387,0.05278791438469989,-0.12039343926291224,-2.0,0.0,2.0,0.0,-0.056345871411872646,-0.04052075871294333,0.3,0.07223606355774734
1777300670006381958,0.10117554664611816,False,-1.813386778070484,0.09125015841874931,1.406222918042135,-0.00936776453409895,0.0728461389282552,-0.1088382509011942,-2.0,0.0,2.0,0.0,-0.05992996759807377,-0.042697606195218986,0.3,0.06530295054071641
1777300670105983019,0.09917998313903809,False,-1.8263387057248162,0.08406523734279676,1.422615040543567,-0.0366473768043791,0.08070592150873886,-0.13519604283243317,-2.0,0.0,2.0,0.0,-0.060557277359229174,-0.03720787613595437,0.3,0.08111762569945995
1777300670206251723,0.1007230281829834,False,-1.8369339490638492,0.07891750636231297,1.4390246377856049,-0.013893679321175198,0.08057478855773607,-0.1244928810486421,-2.0,0.0,2.0,0.0,-0.06179335233625233,-0.040000719628478384,0.3,0.07469572862918525
1777300670305819130,0.09973430633544922,False,-1.8462025303370393,0.07380988964020312,1.4558034905174733,-0.026416169415747908,0.08316105232334219,-0.12595216066142048,-2.0,0.0,2.0,0.0,-0.06025533190886893,-0.03678287776584186,0.3,0.07557129639685227
1777300670405539243,0.09955501556396484,False,-1.8531387338832792,0.06868970327437582,1.4720297717651476,-0.02146493711637713,0.07325556449526129,-0.12146316732776011,-2.0,0.0,2.0,0.0,-0.0635957421917573,-0.03373873884420053,0.3,0.07287790039665598
1777300670505525886,0.10011982917785645,False,-1.8593773201278099,0.06453234813376783,1.4883947940008586,-0.03250071176854309,0.07730540463236889,-0.12784677627773836,-2.0,0.0,2.0,0.0,-0.06179580706849457,-0.03442208941815713,0.3,0.07670806576664306
1777300670606480878,0.10032987594604492,False,-1.8637103939005497,0.0610846084301856,1.5044723166543323,-0.022826648492597704,0.05539745742240559,-0.12615939685663877,-2.0,0.0,2.0,0.0,-0.0649559280800739,-0.034791137422296406,0.29731661000740056,0.07569563811398314
1777300670705984243,0.10026693344116211,False,-1.868663107787622,0.0576876051844908,1.5216713786133287,-0.030402483343617063,0.07146140866409986,-0.11605838973642439,-2.0,0.0,2.0,0.0,-0.06072200880672856,-0.03169338103194566,0.28699717283200277,0.06963503384185454
1777300670805273279,0.09921121597290039,False,-1.8724912580248323,0.05604095845463923,1.5381956468817177,-0.027288825023913606,0.07205466263245483,-0.11811472120021628,-1.0,1.0,3.0,-1.5,0.3,0.3,0.3,-0.8291311672798702
1777300670905466843,0.10001683235168457,False,-1.8761968008540393,0.05430026435638836,1.5543993986199987,-0.03478083544250929,0.06645645194682355,-0.11468615230797263,-1.0,1.0,3.0,-1.5,0.3,0.3,0.3,-0.8311883086152163
1777300671005683203,0.1001584529876709,False,-1.8784164074608813,0.05488939195534777,1.5711577660161926,-0.04160131603653943,0.09035729904935244,-0.14628013223172637,-1.0,1.0,3.0,-1.5,0.3,0.3,0.3,-0.8122319206609642
1777300671105529583,0.09996628761291504,False,-1.878330017608631,0.05765664099065781,1.588379427897748,-0.05344832723903732,0.12368327639650976,-0.17289745353317731,-1.0,1.0,3.0,-1.5,0.3,0.3,0.3,-0.7962615278800936
1777300671208355599,0.10288739204406738,False,-1.8734396529820296,0.06336347413876986,1.6055129538394346,-0.06061880087681901,0.1425066723540855,-0.1973458962407693,-1.0,1.0,3.0,-1.5,0.3,0.3,0.3,-0.7815924622555385
1777300671306708345,0.09818840026855469,False,-1.8620404340094987,0.07302309617153308,1.6225473338565557,-0.06881140605121938,0.15177814495631503,-0.21797367027981404,-1.0,1.0,3.0,-1.5,0.3,0.3,0.3,-0.7692157978321116
1777300671408591379,0.10176444053649902,False,-1.8437203088239977,0.08719966735104659,1.6397682354487213,-0.055911222453175216,0.16055168218019117,-0.2529145394948829,-1.0,1.0,3.0,-1.5,0.3,0.3,0.3,-0.7482512763030703
1777300671505574339,0.09743523597717285,False,-1.817144808219296,0.10517179260920176,1.6569428896497276,-0.04936914172890965,0.15441458043809164,-0.2733128478076959,-1.0,1.0,3.0,-1.5,0.2633160883278563,0.3,0.3,-0.7360122913153825
1777300671605613079,0.09981751441955566,False,-1.7850327228847023,0.12610519152811223,1.6743860389802145,-0.036891197664866766,0.15796188197040906,-0.30423516648099586,-1.0,1.0,3.0,-1.5,0.21908333836589425,0.3,0.3,-0.7174589001114025
1777300671705612587,0.10013484954833984,False,-1.7454529189078345,0.15013349592538627,1.691276457431207,-0.03280844810415846,0.13981049996282754,-0.34236389012104507,-1.0,1.0,3.0,-1.5,0.16259592009300167,0.3,0.3,-0.6945816659273729
1777300671804913880,0.09929656982421875,False,-1.7016677695415177,0.17708649710450347,1.7083803744332344,-0.02637607146751076,0.14796380243145527,-0.39128227621303696,-1.0,1.0,3.0,-1.5,0.10964710058484775,0.3,0.3,-0.6652306342721779
1777300671904880952,0.1001129150390625,False,-1.6543884183276876,0.20445103691892916,1.724463464470277,-0.03842570517010629,0.11712875126881607,-0.412078085746139,-1.0,1.0,3.0,-1.5,0.07161299169363505,0.3,0.3,-0.6527531485523165
1777300672005057028,0.10021829605102539,False,-1.6060919197933734,0.23537737234554915,1.741044373469081,-0.008323299737967915,0.09382747614846852,-0.41855405852321564,-1.0,1.0,3.0,-1.5,0.05133275069489457,0.3,0.3,-0.6488675648860704
1777300672106205023,0.10110950469970703,False,-1.5561130855256902,0.2643685742724152,1.7558254024043545,-0.020843002754055963,0.07800880201508759,-0.464628810979681,-1.0,1.0,3.0,-1.5,0.00649103589832072,0.3,0.3,-0.6212227134121914
1777300672216375529,0.10972404479980469,False,-1.50284677353228,0.299481285784854,1.7733863038567939,-0.013864201963136686,0.08443698434957203,-0.49977712054040263,-1.0,1.0,3.0,-1.5,-0.018436500425231653,0.3,0.3,-0.6001337276757585
1777300672305823585,0.08967423439025879,False,-1.4622708519707148,0.33028914387661173,1.7877129039717834,-0.00914611577147776,0.08092830957207171,-0.5060149649877204,-1.0,1.0,3.0,-1.5,-0.0209369662919295,0.3,0.3,-0.5963910210073677
1777300672415396047,0.10929298400878906,False,-1.4126130359082303,0.36844877389532643,1.8050668989138507,-0.011663395117358996,0.07078944952359907,-0.5438821795006749,-1.0,1.0,3.0,-1.5,-0.046673686911427,0.29219597525005137,0.3,-0.5736706922995951
1777300672515174355,0.10010576248168945,False,-1.3700911549356183,0.4042183345289146,1.8210618184315663,-0.016693788974861533,0.08058637388518622,-0.553066910408751,-1.0,1.0,3.0,-1.5,-0.05095154885814997,0.26266809391654194,0.3,-0.5681598537547494
1777300672616213189,0.10106039047241211,False,-1.328570632537674,0.4419827845703192,1.8367207622818875,0.0011678477584518491,0.07576277860994712,-0.6142005589024194,-1.0,1.0,3.0,-1.5,-0.06796285912647745,0.22458471868251348,0.3,-0.5314796646585483
1777300672715728087,0.0989830493927002,False,-1.2896464600251751,0.4798601685380573,1.8525138850640495,0.008035266729498369,0.07284445121392535,-0.6306317704676366,-1.0,1.0,3.0,-1.5,-0.07124990634013202,0.19224965059699345,0.3,-0.5216209377194181
1777300672808064766,0.09275269508361816,False,-1.2569372630232918,0.5149370399845541,1.8666047383040711,0.018753009181533397,0.07410639408529421,-0.6729217731341632,-1.0,1.0,3.0,-1.5,-0.0728603814802484,0.16901825401201087,0.3,-0.4962469361195019
1777300672916098789,0.10808706283569336,False,-1.215983731608637,0.5545343002977767,1.8842588300324263,0.0016119161422894776,0.06985993145327997,-0.6840623182082423,-1.0,1.0,3.0,-1.5,-0.08711320075235039,0.13202988475826824,0.3,-0.48956260907505456
1777300673016726894,0.1004476547241211,False,-1.1827873428543603,0.5916961215014777,1.9003229248798876,0.044330343216473,0.056863657045912876,-0.7139865169829225,-1.0,1.0,3.0,-1.5,-0.07979011372922243,0.10816039498384958,0.3,-0.4716080898102465
1777300673115928636,0.0994417667388916,False,-1.1514680894533202,0.6255045192497575,1.9172040574992877,0.04369225778745445,0.06858478469502291,-0.7239778673458269,-1.0,1.0,3.0,-1.5,-0.08397490831738325,0.08953862582441845,0.3,-0.46561327959250387
1777300673207435448,0.09135937690734863,False,-1.1268760928004815,0.6559158122741903,1.9315326576047303,0.08440032738165752,0.057780790580885734,-0.7789047088108307,-1.0,1.0,3.0,-1.5,-0.07817165628379973,0.07260568983402058,0.3,-0.43265717471350157
1777300673412249839,0.20495867729187012,False,-1.1036726045920426,0.6828552601898842,1.946783458024886,0.034838039438630654,0.04039875964228122,-0.8264778795839004,-1.0,1.0,3.0,-1.5,-0.09182955915038775,0.12297226252334162,0.3,-0.4041132722496597
1777300673418541470,0.0063703060150146484,False,-1.0784218792337263,0.7144052289587494,1.968093460166813,0.07097482789834023,0.03496808453763563,-0.838863478655858,-1.0,1.0,3.0,-1.5,0.2145221779152916,-0.3,0.3,-0.3966819128064852
1777300673622577361,0.2038745880126953,False,-1.056352187918121,0.7294105366052459,1.9828265279340926,0.0008044963494092842,0.04125944893132669,-0.8459939321050162,-1.0,1.0,3.0,-1.5,-0.10412729618484264,0.09399967374284224,0.3,-0.39240364073699024
1777300673625988182,0.0035429000854492188,False,-1.0404714237042325,0.756574523416565,2.004789731083102,0.06563361627792273,0.03175111573933962,-0.9148156845404479,-1.0,1.0,3.0,-1.5,0.3,-0.3,0.3,-0.3511105892757313
1777300673832901754,0.206634521484375,False,-1.0222157567553787,0.7639123650759339,2.021167125140082,-0.0022387808983375035,-0.011935202615008099,-0.9359831652611136,-1.0,1.0,3.0,-1.5,-0.11329131062032564,0.06707794181623145,0.3,-0.3384101008433319
1777300673835697386,0.0030739307403564453,False,-1.0122856024114786,0.771278040562978,2.035192052476632,0.13389806993909423,0.026498679508338098,-0.9313643864917839,-1.0,1.0,3.0,-1.5,-0.10720949504189091,-0.3,0.3,-0.3411813681049297
1777300674072106399,0.23622751235961914,False,-1.0091294917967784,0.7642131681815918,2.0514087196595043,0.15677571594545284,0.041316699174109586,-0.9335789036943534,-1.0,1.0,3.0,-1.5,-0.12004587469322615,0.09068963985445455,0.3,-0.33985265778338797
1777300674081740677,0.009789228439331055,False,-1.0137362195637922,0.7412556557359491,2.074808865190106,0.10052890130724687,-0.0014105090744974107,-0.9562869501839054,-1.0,1.0,3.0,-1.5,-0.3,0.3,0.3,-0.3262278298896568
1777300674245234365,0.16336274147033691,False,-1.0170196782241285,0.7292360705726125,2.0827071538245656,0.11519691324439148,0.0048402657060893275,-0.9684049271445332,-1.0,1.0,3.0,-1.5,-0.14284783712558513,0.11794082183088803,0.3,-0.3189570437132801
1777300674275212838,0.029987573623657227,False,-1.036072899865483,0.6914817817968231,2.1095402757612156,0.030651245339337753,0.030519998250844022,-0.9900853386753168,-1.0,1.0,3.0,-1.5,-0.3,0.3,0.3,-0.3059487967948099
1777300674444239800,0.16878700256347656,False,-1.0452708393596977,0.6775986688829077,2.1205099034497574,0.0007996682716124837,0.06339518124032971,-0.9948738509090853,-1.0,1.0,3.0,-1.5,-0.15923580155315925,0.1552802240490175,0.3,-0.30307568945454866
1777300674475393043,0.031394243240356445,False,-1.0678244718428436,0.6543944265232103,2.146236743647223,-0.050799741899991056,0.08659518677257882,-1.0160728304865123,-1.0,1.0,3.0,-1.5,-0.22980484243751714,0.3,0.3,-0.2903563017080926
1777300674654712496,0.17933082580566406,False,-1.076524968677389,0.6496226523463455,2.1569211354682225,-0.04543447172546922,0.09365593509745125,-1.0188028558983397,-1.0,1.0,3.0,-1.5,-0.15409126511316418,0.16591467440755833,0.3,-0.2887182864609961
1777300674685426939,0.03066706657409668,False,-1.0932890165100562,0.6533118655702033,2.1845238842318784,-0.034898280108933276,0.12546387423466018,-1.0333913824297096,-1.0,1.0,3.0,-1.5,-0.03508575625213162,0.27696974066744456,0.3,-0.27996517054217424
1777300675065586131,0.3800928592681885,False,-1.0974618117944006,0.661533981525502,2.197428570488365,-0.039496987756842156,0.1385940318536818,-1.0388721722690077,-1.0,1.0,3.0,-1.5,-0.1380981586962661,0.15294493690132047,0.3,-0.27667669663859545
1777300675069142143,0.0036890506744384766,False,-1.0987343836418972,0.6871632538917759,2.219809439470449,-0.017170184587528697,0.13397310560239653,-1.0603865266581618,-1.0,1.0,3.0,-1.5,0.3,-0.3,0.3,-0.26376808400510293
1777300675260632368,0.19129109382629395,False,-1.0743138231651383,0.7539644913457927,2.263511461772109,0.04928149140863078,0.1252738471439832,-1.0935859459255328,-1.0,1.0,3.0,-1.5,-0.035180593166740035,0.025271673717742797,0.3,-0.24384843244468044
1777300675275652837,0.015410423278808594,False,-1.0484117559583437,0.7902618264503756,2.286183957484355,0.11192117512865801,0.08808058153612779,-1.1138445114399456,-1.0,1.0,3.0,-1.5,0.3,-0.3,0.3,-0.2316932931360325
1777300675471928268,0.19604277610778809,False,-1.0342053268261757,0.8042380824991365,2.2972049320804886,0.1505154030310621,0.052976903962313256,-1.1218837771147527,-1.0,1.0,3.0,-1.5,-0.08707895838753515,0.04059681207620476,0.3,-0.2268697337311485
1777300675474681213,0.0028603076934814453,False,-1.0154305789774085,0.8176612851601693,2.313161816578975,0.1675019377409748,0.02021657452409255,-1.1342385367342982,-1.0,1.0,3.0,-1.5,0.3,-0.3,0.3,-0.21945687795942107
1777300675677637002,0.20281600952148438,False,-0.9999962837932611,0.8179757768201079,2.3336269810421024,0.16678361392010216,0.1126825448130693,-1.1135316318612603,-1.0,1.0,3.0,-1.5,-0.1076571406085242,0.027525822327335626,0.3,-0.23188102088324383
1777300675686393708,0.008885383605957031,False,-0.9877266479146877,0.8057994922398499,2.352552939946675,0.17353491934556506,0.012934491180440839,-1.1561029650094872,-1.0,1.0,3.0,-1.5,-0.3,-0.17330254066909692,0.3,-0.20633822099430768
1777300675874304157,0.18773365020751953,False,-0.9859875156245571,0.7912929558097568,2.364013122239109,0.16887622034413938,0.017494496257827924,-1.1681751990484772,-1.0,1.0,3.0,-1.5,-0.14092211632577367,0.04785790155070848,0.3,-0.1990948805709138
1777300675888788140,0.014727592468261719,False,-0.9889805674212012,0.7552832968515373,2.3866449382090895,0.11764947106408868,0.009179851055439479,-1.17569533677728,-1.0,1.0,3.0,-1.5,-0.3,0.3,0.3,-0.194582797933632
1777300675986737614,0.09781265258789062,False,-0.9976982588796013,0.7248940420019522,2.404321195941972,0.04830126936693555,0.0049068818580774,-1.1927739514324749,-1.0,1.0,3.0,-1.5,-0.23067648267875468,0.11888974285447253,0.3,-0.18433562914051507
1777300676086213770,0.09932994842529297,False,-1.009432403425435,0.6971840705678123,2.42341960180336,0.02038209151216761,0.03487452152082149,-1.1940008762408822,-1.0,1.0,3.0,-1.5,-0.2316412209060067,0.1358608621181863,0.3,-0.18359947425547052
1777300676185852849,0.09980535507202148,False,-1.0228694590186795,0.6759666601064348,2.4432948085708546,-0.0081283755392375,0.05984180565472356,-1.2089293956042846,-1.0,1.0,3.0,-1.5,-0.22231834977489767,0.1420139720361683,0.3,-0.1746423626374291
1777300676290404080,0.10433268547058105,False,-1.0364398347714352,0.663043598604878,2.4628445832871355,-0.00018591000369606826,0.0656340243549481,-1.2104288785972432,-1.0,1.0,3.0,-1.5,-0.2024910925238666,0.14136678566188804,0.3,-0.17374267284165404
1777300676385784099,0.0956110954284668,False,-1.0481613757966337,0.6578221462768046,2.482980585311933,0.007996234993379226,0.07362626842201511,-1.2152313872368072,-1.0,1.0,3.0,-1.5,-0.18496039429782027,0.13874239280602932,0.3,-0.17086116765791565
1777300676494702745,0.10885334014892578,False,-1.0582103010471715,0.660666218069193,2.5029318796264586,0.008139570043334234,0.07866257518057336,-1.2213197810346101,-1.0,1.0,3.0,-1.5,-0.16248677420387034,0.12586581721212065,0.2982408722241248,-0.1672081313792339
1777300676585544520,0.09085249900817871,False,-1.0653999722956056,0.6692045800184623,2.5228635937253387,0.02828637572519339,0.08458205985506853,-1.2173544263101588,-1.0,1.0,3.0,-1.5,-0.1379579462584358,0.11802756925827589,0.28628184376479676,-0.1695873442139046
1777300676682473198,0.09690141677856445,False,-1.0696896595184247,0.6813161389241438,2.5404424714791687,0.010540980251342159,0.08495958924877824,-1.2350646926980586,-1.0,1.0,3.0,-1.5,-0.12698047158257633,0.10266097019518268,0.2757345171124988,-0.15896118438116494
1777300676789960346,0.10753655433654785,False,-1.0724230691756411,0.7005095575675975,2.561210831929585,0.04681282679561765,0.07722399360577215,-1.230648316693468,-1.0,1.0,3.0,-1.5,-0.10188031164225647,0.0902396045454411,0.2632735008422489,-0.161611009983919
1777300676884119503,0.09412765502929688,False,-1.0724213133748528,0.7178021538552462,2.577575760551174,0.04845316904302445,0.0694948738676683,-1.2254335187791248,-1.0,1.0,3.0,-1.5,-0.09275242478917918,0.07954429699101084,0.2534545436692956,-0.16473988873252512
1777300676986349587,0.102203369140625,False,-1.0697837379399513,0.7388470460257535,2.596168644440427,0.08358483228022241,0.06476186418372208,-1.22828919868414,-1.0,1.0,3.0,-1.5,-0.07794301831987832,0.06402403685224795,0.24229881333574388,-0.163026480789516
1777300677091729257,0.10555386543273926,False,-1.0659980921550145,0.7580426065352955,2.6121978223815003,0.06557382437447372,0.0527444952961978,-1.2367521943666127,-3.0,-1.0,3.0,-1.5,0.3,-0.3,0.23268130657109978,-0.1579486833800324
1777300677187165149,0.09534287452697754,False,-1.0610874047527887,0.7760379116237991,2.6271774009041113,0.08518716688166404,0.055985338548483685,-1.246677593097186,-3.0,-1.0,3.0,-1.5,0.3,-0.3,0.2236935594575332,-0.15199344414168836
1777300677285170821,0.09818887710571289,False,-1.0605912170982643,0.7850437236114092,2.6455453504905755,0.10295078490226901,0.04813971784485398,-1.2225863328416287,-3.0,-1.0,3.0,-1.5,0.3,-0.3,0.2126727897056547,-0.1664482002950228
1777300677385896112,0.10037636756896973,False,-1.0530527223411856,0.7984734525271624,2.6519019353676234,0.137162651739803,0.006267857714712645,-1.2543220216376143,-3.0,-1.0,3.0,-1.5,0.3,-0.3,0.20885883877942593,-0.1474067870174313
1777300677485424968,0.09967470169067383,False,-1.0522739012146922,0.7993677529525753,2.6626052354685723,0.1980210488728433,-0.0030911475462006856,-1.255945139665747,-3.0,-1.0,3.0,-1.5,0.3,-0.3,0.2024368587188566,-0.14643291620055177
1777300677585848986,0.10053753852844238,False,-1.060183249932938,0.7904383008718061,2.6771175369743228,0.17446927217580557,-0.032783448387243785,-1.278562898643061,-3.0,-1.0,3.0,-1.5,0.3,-0.3,0.19372947781540634,-0.13286226081416322
1777300677685716564,0.09967279434204102,False,-1.0644375164148037,0.769394626101919,2.6831738950414294,0.1818714745925884,0.0026717497856424246,-1.2709744545469093,-3.0,-1.0,3.0,-1.5,0.3,-0.3,0.19009566297514233,-0.13741532727185443
1777300677788494430,0.1027686595916748,False,-1.0785156656904789,0.7415963460722839,2.694030533898562,0.159023984217669,0.0012804874061097932,-1.2842223266995834,-3.0,-1.0,3.0,-1.5,0.3,-0.3,0.18358167966086283,-0.12946660398024984
1777300677885670562,0.09721732139587402,False,-1.1012624602855305,0.7036474529586948,2.709597523597101,0.17702418802321482,0.012091440687827233,-1.2853101341487376,-3.0,-1.0,3.0,-1.5,0.3,-0.3,0.1742414858417395,-0.12881391951075755
1777300677985916578,0.10038423538208008,False,-1.1237004496665821,0.6576655115434067,2.719751790553872,0.1839800418865318,0.002180819236855722,-1.2833211547004078,-3.0,-1.0,3.0,-1.5,0.3,-0.3,0.1681489256676767,-0.1300073071797552
1777300678095673984,0.10961794853210449,False,-1.1496155872642766,0.6003056794925314,2.730222603419906,0.15362824270346584,-0.004576670456610778,-1.2957418222406016,-3.0,-1.0,3.0,-1.5,0.3,-0.3,0.1618664379480564,-0.12255490665563915
1777300678187061890,0.0912625789642334,False,-1.1733008149870678,0.5485068484097819,2.73782549114879,0.15352159247964675,-0.006501177091459715,-1.2963408811265136,-3.0,-1.0,3.0,-1.5,0.3,-0.3,0.15730470531072596,-0.12219547132409171
1777300678289549497,0.10253787040710449,False,-1.1929204860671512,0.4837849129736028,2.7418374931002623,0.1394579231715644,0.015062251366934754,-1.288453184999167,-3.0,-1.0,3.0,-1.5,0.3,-0.3,0.15489750413984263,-0.12692808900049996
1777300678396143520,0.10669517517089844,False,-1.2253698968081255,0.4147299335407833,2.748856055886839,0.13647229759782611,0.0037508883943226214,-1.305306645944421,-3.0,-1.0,3.0,-1.5,0.3,-0.3,0.15068636646789652,-0.11681601243334744
1777300678496499369,0.10034799575805664,False,-1.2628133074659453,0.3540839673330002,2.754601801106022,0.026405416208561714,0.016874388837086238,-1.3928832946136736,-3.0,-1.0,3.0,-1.5,0.3,-0.3,0.14723891933638678,-0.064270023231796
1777300678596607587,0.10017633438110352,False,-1.2883447800825,0.2856899449947215,2.7574504167645264,0.12102014441423467,0.010892240551910837,-1.3033504227991346,-3.0,-1.0,3.0,-1.5,0.2952535715692498,-0.3,0.14552974994128415,-0.11798974632051937
1777300678697009232,0.10037851333618164,False,-1.3207818481072533,0.21992619921670872,2.7613089283250725,0.12371613078832998,0.021074219075413108,-1.2982162704628502,-3.0,-1.0,3.0,-1.5,0.2704953767920646,-0.3,0.1432146430049565,-0.12107023772228977
1777300678795360378,0.09827828407287598,False,-1.3668565352728774,0.15611637590909344,2.7708650180938306,0.1199760332023052,0.012816525248431375,-1.3010693013978856,-3.0,-1.0,3.0,-1.5,0.2572178068224299,-0.3,0.13748098914370166,-0.11935841916126878
1777300678888332566,0.0929098129272461,False,-1.3980256186274873,0.09599924383971838,2.7740862312086096,0.11919758549938428,0.003083613778316185,-1.308706004803173,-3.0,-1.0,3.0,-1.5,0.22469090496046354,-0.3,0.13554826127483421,-0.11477639711809626
1777300678995154391,0.10694122314453125,False,-1.43780359819198,0.022508913301249094,2.778225979462984,0.1020276376751,0.00663922965779208,-1.3164992906305506,-3.0,-1.0,3.0,-1.5,0.18651966509457588,-0.3,0.13306441232220959,-0.11010042562166963
1777300679096290679,0.10099101066589355,False,-1.474682094023165,-0.04315449675845254,2.780726116602369,0.1023465968169747,0.016141627911125816,-1.3077150045151238,-3.0,-1.0,3.0,-1.5,0.1564955982661463,-0.3,0.1315643300385785,-0.11537099729092572
1777300679199451665,0.10313796997070312,False,-1.5130144563915608,-0.10827076057082421,2.7838527047360313,0.09863890502912176,0.005255237383925196,-1.3164183211601632,-3.0,-1.0,3.0,-1.5,0.13805348196814687,-0.3,0.12968837715838122,-0.1101490073039022
1777300679300270980,0.10071563720703125,False,-1.5523626901723369,-0.17094458399708878,2.7864821382015936,0.08545635452478428,0.004435881665363181,-1.3220818145837099,-3.0,-1.0,3.0,-1.5,0.11622845623527028,-0.3,0.1281107170790438,-0.1067509112497742
1777300679396474534,0.0964517593383789,False,-1.5928588111227087,-0.23070116237488042,2.7892374433528855,0.08666522478031567,0.003244290160517112,-1.3256345151781537,-3.0,-1.0,3.0,-1.5,0.09312270588624096,-0.3,0.1264575339882687,-0.10461929089310792
1777300679496397484,0.09989571571350098,False,-1.630429065248832,-0.2820946397056654,2.7855047180979176,0.07055576813487945,0.019018391687334792,-1.3339460859388483,-3.0,-1.0,3.0,-1.5,0.10234419506992234,-0.3,0.12869716914124946,-0.09963234843669112
1777300679595842627,0.09945297241210938,False,-1.6746778279451249,-0.3363355367718366,2.7886011639582384,0.06302600141936861,0.02156335019361719,-1.335768339266242,-3.0,-1.0,3.0,-1.5,0.074037671379512,-0.3,0.12683930162505694,-0.09853899644025477
1777300679695349655,0.09946632385253906,False,-1.7200733914910145,-0.3871996146651645,2.7920497341845096,0.05480166571545631,0.034631148387504,-1.3275894195382736,-3.0,-1.0,3.0,-1.5,0.05599905075322282,-0.3,0.12477015948929421,-0.10344634827703585
1777300679796528330,0.10114002227783203,False,-1.7668245369545734,-0.43476553706657955,2.7963133858963976,0.05344222981134403,0.01681146565941845,-1.3394155527896878,-3.0,-1.0,3.0,-1.5,0.05489770112267943,-0.3,0.12221196846216147,-0.09635066832618744
1777300679898590658,0.10199260711669922,False,-1.814359273543347,-0.4768405398200357,2.7987419987375284,0.04585874076342192,0.0001588155399261578,-1.3427619327636464,-3.0,-1.0,3.0,-1.5,0.05600443957586623,-0.3,0.12075480075748296,-0.09434284034181228
1777300679994805458,0.09669852256774902,False,-1.8611036987626788,-0.5134024582814943,2.7989652205966262,0.03938643284386876,0.00350970078222918,-1.3481079256890962,-3.0,-1.0,3.0,-1.5,0.055230989006959885,-0.3,0.12062086764202426,-0.09113524458654228
1777300680098804894,0.1037900447845459,False,-1.9102232771810743,-0.5466162072658712,2.801156401375918,0.05410499026697367,-0.002086690936444175,-1.348144217459223,-3.0,-1.0,3.0,-1.5,0.05864871453899572,-0.3,0.11930615917444917,-0.09111346952446615
1777300680198718047,0.09979701042175293,False,-1.9554116401035972,-0.5727036292718419,2.8030663349958496,0.06216122100936595,0.003805674647116473,-1.3544959191220665,-3.0,-1.0,3.0,-1.5,0.0684512014275597,-0.3,0.11816019900249025,-0.08730244852676013
1777300680295892101,0.09704232215881348,False,-2.0120203277969053,-0.6009177937714896,2.805011566459344,0.06488852984852632,0.0032951080360633963,-1.3558460945694908,-3.0,-1.0,3.0,-1.5,0.059610676895933724,-0.3,0.11699306012439371,-0.08649234325830565
1777300680395527852,0.09961986541748047,False,-2.061544818958288,-0.6174915342464371,2.8014682522314933,0.06797279057672316,0.07173832813972242,-1.3049278219585883,-3.0,-1.0,3.0,-1.5,0.0645243067564114,-0.3,0.11911904866110401,-0.11704330682484691
1777300680493235238,0.09778237342834473,False,-2.098011333345033,-0.629615532187652,2.800615827221197,0.0757006758575619,0.014221637349427059,-1.3417123713456072,-3.0,-1.0,3.0,-1.5,0.08270909788883257,-0.3,0.11963050366728183,-0.09497257719263583
1777300680595992178,0.10290217399597168,False,-2.1684521711860607,-0.6531646576711995,2.8031393056616873,0.08357393776461941,0.019892435866529935,-1.342677060731446,-3.0,-1.0,3.0,-1.5,0.06944495079011437,-0.3,0.11811641660298759,-0.09439376356113253
1777300680696569329,0.10013532638549805,False,-2.2234119465222526,-0.6692282227042405,2.8047776427975917,0.09221088303757927,0.025763348933382123,-1.3407441108473501,-3.0,-1.0,3.0,-1.5,0.07767267056094632,-0.3,0.11713341432144499,-0.09555353349159006
1777300680795560752,0.0993046760559082,False,-2.278816010497848,-0.6845946246707663,2.806929413241067,0.09179711086798847,0.03060008390107895,-1.343012036424803,-3.0,-1.0,3.0,-1.5,0.07921433200906665,-0.2907324147565594,0.11584235205535984,-0.09419277814511817
1777300680895364119,0.09986162185668945,False,-2.3343735219666693,-0.6993444355907226,2.808981269052502,0.09534027064608608,0.03325763877947491,-1.3498576564570333,-3.0,-1.0,3.0,-1.5,0.08182942151066917,-0.2566433929100243,0.11461123856849892,-0.09008540612578005
1777300680996792311,0.10157203674316406,False,-2.3876167461509685,-0.7131963699165206,2.809800050736433,0.10495419719035887,0.14366364056735864,-1.2576110102042655,-3.0,-1.0,3.0,-1.5,0.06003691924640142,-0.24036111230322896,0.11411996955814024,-0.1454333938774406
1777300681101343775,0.10460662841796875,False,-2.444129238584373,-0.7269108530461801,2.812070520358164,0.07704430808790576,0.03578025325686819,-1.375795890155355,-3.0,-1.0,3.0,-1.5,0.08894036687815664,-0.1923298284706725,0.11275768778510162,-0.07452246590678709
1777300681200323920,0.09856033325195312,False,-2.492084973537597,-0.7464263810066203,2.8224731568073635,0.11814809195431068,0.02860509620066995,-1.36343423243914,-3.0,-1.0,3.0,-1.5,0.058066042430594905,-0.17447259551542377,0.10651610591558187,-0.08193946053651614
1777300681295693959,0.09541487693786621,False,-2.5547253727897017,-0.761379070792144,2.823956539332726,0.08317604177530548,0.040100645685442374,-1.3738701264426547,-3.0,-1.0,3.0,-1.5,0.08056274746471356,-0.0876701100919667,0.10562607640036444,-0.07567792413440717
1777300681416880989,0.12137198448181152,False,-2.61440098729319,-0.7774089533878986,2.827283058846173,0.08141416446639622,0.053546524900608815,-1.3770832745381267,-3.0,-1.0,3.0,-1.5,0.07603327025009111,-0.100370806622815,0.10363016469229631,-0.07375003527712395
1777300681501635916,0.08459997177124023,False,-2.6510375953019656,-0.7869806083430693,2.8292389751326352,0.0893248503166711,0.06246060762100279,-1.3892291459689001,-2.0,0.0,1.0,-3.1,-0.3,0.3,-0.3,-1.02646251241866
1777300681618652815,0.11707353591918945,False,-2.6890777898551117,-0.7977487057548962,2.830908994786227,0.08717101107480334,0.06985407609892871,-1.3947634265598694,-2.0,0.0,1.0,-3.1,-0.3,0.3,-0.3,-1.0231419440640783
1777300681708404409,0.0899207592010498,False,-2.7291339959051086,-0.807954442789128,2.830434208055326,0.055598701963475994,0.09486543913666849,-1.4256286753368992,-2.0,0.0,1.0,-3.1,-0.3,0.3,-0.3,-1.0046227947978605
1777300681805785480,0.09708499908447266,False,-2.7576132823875064,-0.8131179469799762,2.8253579336570174,0.023547656348929975,0.1262774709974701,-1.450289866133018,-2.0,0.0,1.0,-3.1,-0.3,0.3,-0.3,-0.9898260803201893
1777300681924203136,0.11876320838928223,False,-2.7770562899885465,-0.8121616025555752,2.8154145341802543,0.009540706076616124,0.1389638323074687,-1.4830616112036887,-2.0,0.0,1.0,-3.1,-0.3,0.3,-0.3,-0.9701630332777867
1777300682028981837,0.10484957695007324,False,-2.785506981673981,-0.8025589435909982,2.8007921874873887,-0.007475034342989323,0.14327173319589095,-1.5199487269354182,-2.0,0.0,1.0,-3.1,-0.3,0.3,-0.3,-0.9480307638387491
1777300682118771914,0.08980488777160645,False,-2.784800582727637,-0.7890380255011329,2.7889391075712457,0.014811101477992345,0.11792926050655378,-1.5562434353723682,-2.0,0.0,1.0,-3.1,-0.3,0.3,-0.3,-0.9262539387765791
1777300682216420544,0.09752964973449707,False,-2.771362970359973,-0.7593201033154522,2.7624652753693084,0.01435501504630998,0.1131444623384209,-1.5879468318839074,-2.0,0.0,1.0,-3.1,-0.3,0.3,-0.3,-0.9072319008696555
1777300682299597814,0.08308100700378418,False,-2.7562375587779746,-0.7360645059932217,2.747702612539461,0.02137041061420271,0.1129928179065548,-1.6090878516149438,-2.0,0.0,1.0,-3.1,-0.3,0.3,-0.3,-0.8945472890310338
1777300682422583015,0.12291502952575684,False,-2.727213466331877,-0.6994296479310217,2.7252181077533377,0.05270801264401279,0.1079816889422182,-1.6430229073371003,-2.0,0.0,1.0,-3.1,-0.3,0.3,-0.3,-0.8741862555977399
1777300682500684019,0.0779106616973877,False,-2.698191458674793,-0.6664637235249876,2.708714587247872,0.04457246706967013,0.1170673894449872,-1.6693142937162062,-2.0,0.0,1.0,-3.1,-0.3,0.2788282458999831,-0.3,-0.8584114237702763
1777300682632861401,0.13263535499572754,False,-2.656546610831745,-0.6210551358802205,2.6855622089136686,0.059528185996295564,0.06264983306343552,-1.700318892820738,-2.0,0.0,1.0,-3.1,-0.3,0.262359447927059,-0.3,-0.8398086643075572
1777300682705991738,0.0728142261505127,False,-2.6144169991867137,-0.5788773084116873,2.66727425271513,0.10349247653682826,0.04209062747884275,-1.7417153771288063,-2.0,0.0,1.0,-3.1,-0.20420139090253722,0.16271175470151225,-0.3,-0.8149707737227162
1777300682806080001,0.10024738311767578,False,-2.5685162337211724,-0.53528551848657,2.646914736045232,0.05274869459342246,0.04507351978951975,-1.7895290847880634,-2.0,0.0,1.0,-3.1,-0.23038612399363628,0.1575080471512065,-0.3,-0.786282549127162
1777300682899700740,0.09324359893798828,False,-2.5263888969271857,-0.4981476573899696,2.633443219567049,0.08799611700882977,0.02559028937617964,-1.8044820196940383,-2.0,0.0,1.0,-3.1,-0.21627543286271902,0.13385010242929238,-0.3,-0.777310788183577
1777300683006721115,0.10739302635192871,False,-2.4747498310141407,-0.4509681643580285,2.611341062856677,0.12064531066653582,0.0035001699470578766,-1.8353937359938959,-2.0,0.0,1.0,-3.1,-0.17072511062929163,0.09940881823775055,-0.3,-0.7587637584036625
1777300683105143878,0.0986933708190918,False,-2.428097647793139,-0.4110188652026685,2.5948941357721536,0.09261080569579268,-0.011600439836512764,-1.8635461525933017,-2.0,0.0,1.0,-3.1,-0.15305252533287608,0.07402996039521534,-0.3,-0.741872308444019
1777300683202108798,0.09644198417663574,False,-2.3880624007454894,-0.3763912053491413,2.578173980682429,0.10675627162820943,-0.017089665709786546,-1.8868562900217147,-2.0,0.0,1.0,-3.1,-0.1459309192331011,0.06622195572953024,-0.3,-0.7278862259869712
1777300683304895139,0.10328388214111328,False,-2.3430818441557455,-0.33627227702702966,2.559030062108975,0.10571800623653832,-0.049990617418954976,-1.9171944472825602,-2.0,0.0,1.0,-3.1,-0.1057011636425773,0.04179351088667912,-0.3,-0.7096833316304639
1777300683406200664,0.10113167762756348,False,-2.3057146088985023,-0.30175797486178907,2.540773509850417,0.10919216492167964,-0.038502089571376845,-1.9433900586125024,-2.0,0.0,1.0,-3.1,-0.0996946762098423,0.038962780531515875,-0.3,-0.6939659648324986
1777300683509358472,0.10324692726135254,False,-2.272384316088238,-0.26962247533752604,2.522979673452285,0.10775288943194085,-0.035331421994082825,-1.9701103695448956,-2.0,0.0,1.0,-3.1,-0.08890476862279678,0.03475339555576475,-0.3,-0.6779337782730627
1777300683605499362,0.09614062309265137,False,-2.2432434599819975,-0.24035500338753463,2.5047135016010116,0.12563233639418656,-0.028434837711628053,-1.991095511733558,-2.0,0.0,1.0,-3.1,-0.07073070621928312,0.028646815094869677,-0.3,-0.6653426929598654
1777300683702784465,0.0971832275390625,False,-2.2210667324208777,-0.21769281059599146,2.4890736316270043,0.13356465376653173,-0.04476150912441702,-2.015176633972997,-2.0,0.0,1.0,-3.1,-0.08235879078771084,0.03187102087891579,-0.3,-0.6508940196162017
1777300683805787390,0.10271883010864258,False,-2.1981594207404416,-0.19224076335623305,2.4692564162114103,0.13307862395961667,-0.05065585997293998,-2.042700726710458,-2.0,0.0,1.0,-3.1,-0.0601622244981429,0.027667938220843777,-0.3,-0.6343795639737252
1777300683906841533,0.10126209259033203,False,-2.1810086464428564,-0.17229535488017306,2.45137822636716,0.12712631185980455,-0.0454415432041226,-2.068658116941597,-2.0,0.0,1.0,-3.1,-0.06651008036951662,0.02962921049529551,-0.3,-0.6188051298350419
1777300684005535384,0.0986793041229248,False,-2.1683474683443835,-0.15478465590046445,2.43461976763586,0.11831795999945666,-0.04232047213247508,-2.0955282263841863,-2.0,0.0,1.0,-3.1,-0.0656225986275469,0.03424880401450791,-0.3,-0.6026830641694882
1777300684104860081,0.09956145286560059,False,-2.1586199367595356,-0.13954329453640804,2.418652004509944,0.13222514044576708,-0.05174615068911583,-2.1195891279259387,-2.0,0.0,1.0,-3.1,-0.06660647570407208,0.036470569269481806,-0.3,-0.5882465232444368
1777300684206433121,0.10124039649963379,False,-2.152110983541609,-0.12605408479368405,2.4028410058874825,0.1324183377257537,-0.06193474146633393,-2.152938278817613,-2.0,0.0,1.0,-3.1,-0.06936192918588673,0.04051636672792831,-0.3,-0.5682370327094324
1777300684305594027,0.09913849830627441,False,-2.1472158712860936,-0.11483213526388893,2.38668562837593,0.10309804821324915,-0.08327035395522192,-2.200942114496788,-2.0,0.0,1.0,-3.1,-0.07155075408139976,0.038807745326204214,-0.3,-0.5394347313019272
1777300684404689723,0.09925532341003418,False,-2.145006576839917,-0.10569784606159202,2.3727915928451426,0.11533712118945674,-0.05543509335723263,-2.20733745844464,-2.0,0.0,1.0,-3.1,-0.07654442745225083,0.04330871329000395,-0.3,-0.5355975249332161
1777300684505829515,0.1010899543762207,False,-2.1434237459118077,-0.09658778406271347,2.3559714936752636,0.11254818201467943,-0.043208688891067576,-2.233997966315701,-2.0,0.0,1.0,-3.1,-0.07445033746822667,0.04507739793931379,-0.3,-0.5196012202105795
