recording_time_ns,dt,wind_enabled,pos_x,pos_y,pos_z,pos_roll,pos_pitch,pos_yaw,targetpos_x,targetpos_y,targetpos_z,targetpos_yaw,control_vel_x,control_vel_y,control_vel_z,control_vel_yaw
1776696008082781705,1776696008056,False,-0.2018318821679027,-0.21198175878062891,0.8462221546634231,0.017322132415666377,0.03066844694429888,-0.018798152777918794,0.0,0.0,2.0,0.0,1.0,1.0,1.0,0.09399076388959315
1776696008159511686,1776696008158,False,-0.20301604689530803,-0.2115858733220818,0.8484607423542548,0.01267963895556736,0.026425163267175724,-0.017878676581706405,0.0,0.0,2.0,0.0,1.0,1.0,1.0,0.08939338290853138
1776696008231713645,1776696008231,False,-0.20422324569155226,-0.21135315652903972,0.8513139054049188,0.010502582443135485,0.02727943313371903,-0.02038373974099384,0.0,0.0,2.0,0.0,1.0,1.0,1.0,0.10191869870497028
1776696008332554807,1776696008332,False,-0.20506511222716137,-0.2112084240631182,0.8540574658585712,0.011455200730215106,0.026924375621080153,-0.01948668418859654,0.0,0.0,2.0,0.0,1.0,1.0,1.0,0.0974334209429828
1776696008431333805,1776696008431,False,-0.2057620216735093,-0.2107692381979429,0.856756524032484,0.016222353824925533,0.019792081884646977,-0.019766773642492855,0.0,0.0,2.0,0.0,1.0,1.0,1.0,0.09883386821246454
1776696008532572765,1776696008532,False,-0.2068242472950689,-0.2103921546384494,0.8595950195064035,0.016384739952813816,0.019090710709323982,-0.01732893029455374,0.0,0.0,2.0,0.0,1.0,1.0,1.0,0.08664465147276923
1776696008631686005,1776696008631,False,-0.20802128629637257,-0.20991946300729855,0.8618743100104896,0.01638644750320976,0.017094400708253635,-0.01967890502538046,0.0,0.0,2.0,0.0,1.0,1.0,1.0,0.09839452512690139
1776696008734358646,1776696008734,False,-0.20944099467140087,-0.20933090431492055,0.8638938116381101,0.01784065996931767,0.022324921586984316,-0.019690654132181275,0.0,0.0,2.0,0.0,1.0,1.0,1.0,0.09845327066090537
1776696008836625489,1776696008836,False,-0.21134501951566542,-0.20860556463682514,0.8657627433141578,0.01415210186200829,0.01816944498421388,-0.020114485203202914,0.0,0.0,2.0,0.0,1.0,1.0,1.0,0.10057242601601457
1776696008936046825,1776696008936,False,-0.21313577544541287,-0.2078418918167839,0.8671897408192912,0.017333326234809543,0.021716641636777206,-0.017558890775652973,0.0,0.0,2.0,0.0,1.0,1.0,1.0,0.0877944538782649
1776696009036450133,1776696009036,False,-0.21526048097626177,-0.20698713371424649,0.8676145735010329,0.014447780481629738,0.013744229968849272,-0.020245514195109202,0.0,0.0,2.0,0.0,1.0,1.0,1.0,0.10122757097554613
1776696009136168060,1776696009135,False,-0.2173741238563349,-0.20614188812725523,0.8676074644377377,0.015058424971078085,0.023954505064542685,-0.019357445463146286,0.0,0.0,2.0,0.0,1.0,1.0,1.0,0.09678722731573108
1776696009236552630,1776696009236,False,-0.21929938164718893,-0.20495215056661786,0.8676349636559787,0.01752462169212374,0.02982147501787811,-0.019037535928027458,0.0,0.0,2.0,0.0,1.0,1.0,1.0,0.0951876796401363
1776696009336587342,1776696009336,False,-0.22076114783700063,-0.2037884104345845,0.8673955332480245,0.02262723657076846,0.028060496558200653,-0.021444939037379377,0.0,0.0,2.0,0.0,1.0,1.0,1.0,0.10722469518689604
1776696009434911595,1776696009434,False,-0.22177280349669914,-0.20270758975596725,0.8671105453313306,0.022057362502845002,0.022383139812970566,-0.020560066205837068,0.0,0.0,2.0,0.0,1.0,1.0,1.0,0.10280033102918473
1776696009538165714,1776696009537,False,-0.2216875715524426,-0.20072507903466477,0.8704113643288547,0.0059173317963517255,0.035403506637966986,-0.017718840771526332,0.0,0.0,2.0,0.0,1.0,1.0,1.0,0.08859420385763261
1776696009638627859,1776696009638,False,-0.2199719147224357,-0.19745997550985317,0.877565899176989,-0.010305441627946584,0.04496593018479264,-0.015546670456695671,0.0,0.0,2.0,0.0,1.0,1.0,1.0,0.07773335228347777
1776696009736169931,1776696009736,False,-0.2159314871583512,-0.19191707684620837,0.8880485045483623,-0.018055908598751013,0.052739427091112616,-0.013488432606693685,0.0,0.0,2.0,0.0,1.0,1.0,1.0,0.06744216303346873
1776696009836336347,1776696009836,False,-0.20899619336538852,-0.183211092113858,0.9005430578677264,-0.01917958948065649,0.06072592959744165,-0.014160941892966258,0.0,0.0,2.0,0.0,1.0,1.0,1.0,0.0708047094648312
1776696009936263912,1776696009936,False,-0.19878036013969014,-0.1714963897118167,0.9145248035228687,-0.019114144222603015,0.06136224556102734,-0.015051114186598968,0.0,0.0,2.0,0.0,1.0,1.0,1.0,0.07525557093299495
1776696010036062294,1776696010035,False,-0.18579033504745135,-0.15682033715686178,0.9296967181115141,-0.021004981595111903,0.05770960887176414,-0.015481233546075269,0.0,0.0,2.0,0.0,1.0,1.0,1.0,0.07740616773037612
1776696010136571105,1776696010136,False,-0.16974930531399807,-0.13952159549011736,0.9456829149214792,-0.020760368985421305,0.05864304462450625,-0.015977170431433516,0.0,0.0,2.0,0.0,1.0,1.0,1.0,0.07988585215716659
1776696010236050414,1776696010235,False,-0.1513449656843371,-0.11972886460397933,0.9620957884467524,-0.012224910528730884,0.0513088922350325,-0.016770156924849386,0.0,0.0,2.0,0.0,1.0,1.0,1.0,0.08385078462424644
1776696010335769576,1776696010335,False,-0.13044922360534744,-0.09750071255892687,0.9787694970986577,-0.0208833402531885,0.055884508921966086,-0.015451559797479393,0.0,0.0,2.0,0.0,1.0,1.0,1.0,0.07725779898739793
1776696010436334927,1776696010436,False,-0.10743259355701455,-0.07328365959539258,0.9954663627658381,-0.016032904891024696,0.05102025677683318,-0.016100966712911616,0.0,0.0,2.0,0.0,1.0,1.0,1.0,0.08050483356455862
1776696010536333137,1776696010536,False,-0.08276875454297412,-0.04712550355065238,1.0118792378334729,-0.011118758157169596,0.04913460688523425,-0.019557719332858593,0.0,0.0,2.0,0.0,1.0,1.0,1.0,0.09778859666429218
1776696010636701247,1776696010636,False,-0.05625434226507875,-0.01937946991146513,1.0285948886404,-0.012186693067935062,0.0486746116361407,-0.021172537998239913,0.0,0.0,2.0,0.0,1.0,1.0,1.0,0.10586268999119852
1776696010740362327,1776696010740,False,-0.027362705776211266,0.01065888797877064,1.045519348665099,-0.012413133710214942,0.045495641697879105,-0.018056578667755004,0.0,0.0,2.0,0.0,1.0,1.0,1.0,0.0902828933387756
1776696010840978750,1776696010840,False,0.0018686622144435479,0.0405248571325186,1.0612046373278836,-0.0129306152576541,0.04916432000774834,-0.016007872149468787,0.0,0.0,2.0,0.0,1.0,1.0,1.0,0.08003936074734375
1776696010940231176,1776696010940,False,0.032269504546213065,0.07133208964375395,1.076561928284243,-0.010395660175269156,0.044544251292681636,-0.018468067927294538,0.0,0.0,2.0,0.0,1.0,1.0,1.0,0.09234033963647192
1776696011039881054,1776696011039,False,0.06350368264362427,0.10314337869620291,1.0917701838544784,-0.006580662554170812,0.04109836778998876,-0.018612645795931873,0.0,0.0,2.0,0.0,1.0,1.0,1.0,0.09306322897965957
1776696011140281867,1776696011140,False,0.0960051676527758,0.13550654260604034,1.1067468991477538,-0.008613305036884775,0.04956650931768846,-0.015398437132996217,0.0,0.0,2.0,0.0,1.0,1.0,1.0,0.07699218566498134
1776696011240261553,1776696011239,False,0.1292301189043128,0.16859851700625478,1.1215065246321865,-0.009864015898581126,0.053474698606312945,-0.015826203921265325,0.0,0.0,2.0,0.0,1.0,1.0,1.0,0.07913101960632662
1776696011340230302,1776696011340,False,0.16381610157904147,0.2024861355297788,1.136449431834319,-0.014048276936369014,0.050909507801639914,-0.013747767765452104,0.0,0.0,2.0,0.0,1.0,1.0,1.0,0.06873883882726028
1776696011438821387,1776696011438,False,0.193583066121738,0.23155749783334711,1.1488777698648442,-0.012669242408499313,0.044522097089805,-0.016194977734198118,0.0,0.0,2.0,0.0,1.0,1.0,1.0,0.08097488867099045
1776696011538424221,1776696011538,False,0.22544048635740943,0.2625144269082174,1.161785190760103,-0.007868242436809053,0.047013246969121285,-0.015200605881906708,0.0,0.0,2.0,0.0,1.0,1.0,1.0,0.07600302940953263
1776696011642609928,1776696011642,False,0.26207772097560117,0.29829362627374834,1.1768289187705325,-0.006763280802999512,0.04090721025592184,-0.014347974653884297,0.0,0.0,2.0,0.0,1.0,1.0,1.0,0.07173987326942077
1776696011742893330,1776696011742,False,0.30045720784565155,0.33606101958881074,1.1925876993704296,-0.008013260576464336,0.04374739072622624,-0.013359362935794025,0.0,0.0,2.0,0.0,1.0,1.0,1.0,0.06679681467897103
1776696011848991739,1776696011848,False,0.3378021210396876,0.3728394087352894,1.207597972615616,-0.008254017174715602,0.04207844759527342,-0.013522176021091384,0.0,0.0,2.0,0.0,1.0,1.0,1.0,0.06761088010545757
1776696011948918833,1776696011948,False,0.37695636203928956,0.41169683911590454,1.223416183309971,-0.00585756188182813,0.048357414504745774,-0.011853288210898798,0.0,0.0,2.0,0.0,1.0,1.0,1.0,0.05926644105449297
1776696012050026577,1776696012049,False,0.4162755417718088,0.45070758438082215,1.2389175833728912,-0.007421122679378632,0.03859360446331927,-0.013512359460244287,0.0,0.0,2.0,0.0,1.0,1.0,1.0,0.06756179730122103
1776696012153014535,1776696012153,False,0.45497695254631265,0.48877319940867314,1.2536242856915019,-0.011119247411131955,0.04928050745605515,-0.012113161373247302,0.0,0.0,2.0,0.0,1.0,1.0,1.0,0.06056580686623736
1776696012255395832,1776696012254,False,0.4957947160556667,0.5285678679012183,1.2692004991751866,-0.004288456918361066,0.04823011071900776,-0.014654808095767776,0.0,0.0,2.0,0.0,1.0,1.0,1.0,0.07327404047883901
1776696012354128172,1776696012353,False,0.5373148659814111,0.5687313681509519,1.2847127936713896,-0.0064678766166579825,0.04760252719334347,-0.011022839159715338,0.0,0.0,2.0,0.0,1.0,1.0,1.0,0.05511419579857568
1776696012458924785,1776696012458,False,0.577918061423277,0.6074775333705751,1.3000962431765903,-0.004663661979675795,0.048483896811231594,-0.009997973429544874,0.0,0.0,2.0,0.0,1.0,-1.0,1.0,0.04998986714772391
1776696012562066613,1776696012561,False,0.6206621943787016,0.6480853274152257,1.3163875278896442,-0.005317783306989678,0.04450568327115253,-0.009896583208472342,0.0,0.0,2.0,0.0,-1.0,-1.0,1.0,0.04948291604236266
1776696012666385182,1776696012666,False,0.6618605811030651,0.6850494041759227,1.3314582993283333,0.030467768389766434,0.03449641049292877,-0.0109212159174712,0.0,0.0,2.0,0.0,-1.0,-1.0,1.0,0.05460607958735597
1776696012766937572,1776696012766,False,0.7025530670346536,0.7194635060563677,1.3469970362183423,0.07736033027903551,-0.001629807074919174,-0.009515226356141644,0.0,0.0,2.0,0.0,-1.0,-1.0,1.0,0.04757613178070885
1776696012867309942,1776696012867,False,0.7382451159687531,0.7469542790634134,1.3629708125926834,0.09317631968846528,-0.04795821644732794,-0.010763639296711397,0.0,0.0,2.0,0.0,-1.0,-1.0,1.0,0.053818196483557124
1776696012976797544,1776696012976,False,0.7653415632810017,0.7651055558636405,1.3776954354367354,0.0920810211414209,-0.07101947960174136,-0.006038476654731545,0.0,0.0,2.0,0.0,-1.0,-1.0,1.0,0.030192383273657253
1776696013044029796,1776696013043,False,0.783192985211915,0.7747363027897353,1.3925027435026485,0.09240278206472294,-0.07547742216390803,-0.006676294703824325,0.0,0.0,2.0,0.0,-1.0,-1.0,1.0,0.033381473519120686
1776696013143912892,1776696013143,False,0.7917260672385507,0.7765704521676675,1.407567803931357,0.08825590399394896,-0.0660224070375517,-0.0029962223969244215,0.0,0.0,2.0,0.0,-1.0,-1.0,1.0,0.014981111984622153
1776696013244013964,1776696013243,False,0.7913740627561872,0.7711773199650763,1.4231009886252646,0.08308960743813246,-0.06442185031015905,-0.005042862317577009,0.0,0.0,2.0,0.0,-1.0,-1.0,1.0,0.025214311587884453
1776696013344222822,1776696013343,False,0.7830893472893232,0.7597944140239556,1.438707074090074,0.07628973961439971,-0.05948874707057134,-0.004586192722456761,0.0,0.0,2.0,0.0,-1.0,-1.0,1.0,0.022930963612284305
1776696013444046484,1776696013444,False,0.7677204644739364,0.7432591558471934,1.4547749884532442,0.06938788527764227,-0.054425652910435635,-0.0069522415504021055,0.0,0.0,2.0,0.0,-1.0,-1.0,1.0,0.03476120775200986
1776696013544254096,1776696013544,False,0.7462861115649445,0.7222971805966847,1.4713415012146667,0.061010596667487,-0.05147272131353781,-0.00842607212007911,0.0,0.0,2.0,0.0,-1.0,-1.0,1.0,0.04213036060039643
1776696013644148614,1776696013643,False,0.7196843313944551,0.6974786424954833,1.4882767260783547,0.06708070846173651,-0.050289867639428526,-0.007144374945795263,0.0,0.0,2.0,0.0,-1.0,-1.0,1.0,0.03572187472897559
1776696013747244191,1776696013746,False,0.6885094240289915,0.6692852953602704,1.5057500363445016,0.05973090365219971,-0.048877395525492515,-0.00989020617873759,0.0,0.0,2.0,0.0,-1.0,-1.0,1.0,0.049451030893687964
1776696013844209262,1776696013843,False,0.6532830838400956,0.6382264513384303,1.5236051178206693,0.05448889877923399,-0.04144569653857088,-0.007564890750114697,0.0,0.0,2.0,0.0,-1.0,-1.0,1.0,0.03782445375057453
1776696013944309927,1776696013943,False,0.614381267599885,0.6049246707176358,1.5418695536585156,0.05235291225302803,-0.03843039976946108,-0.007245397232247854,0.0,0.0,2.0,0.0,-1.0,-1.0,1.0,0.03622698616123854
1776696014045163686,1776696014044,False,0.5723904483413491,0.5698136794466279,1.560063594142959,0.049649037547629234,-0.03570321360582988,-0.00818028715603517,0.0,0.0,2.0,0.0,-1.0,-1.0,1.0,0.04090143578017624
1776696014144134199,1776696014143,False,0.5279632224290103,0.5330896988503413,1.5786527599722486,0.0553222919472776,-0.028429362188217063,-0.007250769350153264,0.0,0.0,2.0,0.0,-1.0,-1.0,1.0,0.036253846750766705
1776696014248562783,1776696014248,False,0.47945187018859453,0.4932905551211877,1.5983252442454947,0.049544156000893146,-0.025879752163637627,-0.005947703710049065,0.0,0.0,2.0,0.0,-1.0,-1.0,1.0,0.02973851855024634
1776696014348098512,1776696014347,False,0.43116589279332496,0.453654477758059,1.6174718358737423,0.04465216569408298,-0.027630315623966725,-0.007530717529676426,0.0,0.0,2.0,0.0,-1.0,-1.0,0.9563204103156442,0.037653587648383
1776696014448117957,1776696014447,False,0.38141491513960324,0.4127749394680862,1.6364314738357866,0.0464889823122683,-0.025062157947230844,-0.007841436015813504,0.0,0.0,2.0,0.0,-1.0,-1.0,0.9089213154105336,0.039207180079068316
1776696014547784646,1776696014547,False,0.3305321841541886,0.37121789405042105,1.6553990571713664,0.047224824325352494,-0.028777547921210712,-0.007192970819528628,0.0,0.0,2.0,0.0,-1.0,-1.0,0.8615023570715841,0.03596485409764316
1776696014648167582,1776696014648,False,0.27836352358864025,0.329050739908803,1.6748400273269877,0.04173068608932232,-0.026516914692794023,-0.0077874686999210895,0.0,0.0,2.0,0.0,-1.0,-1.0,0.8128999316825308,0.038937343499605426
1776696014747824713,1776696014747,False,0.2250473541290543,0.2863386971444979,1.694011133852453,0.04359924425957289,-0.026663584603079493,-0.0076135788215960665,0.0,0.0,2.0,0.0,-1.0,-1.0,0.7649721653688674,0.03806789410798039
1776696014848212789,1776696014847,False,0.17051583282687996,0.24336889376633458,1.7131388407214148,0.0410930285383492,-0.027468005934549233,-0.007544201218825134,1.0,1.0,3.0,-1.5,1.0,1.0,1.0,-1.74533
1776696014947926361,1776696014947,False,0.11584977502016836,0.20087354428600845,1.7335001689013374,0.028381952561385527,-0.008354997246143478,-0.02039948274553984,1.0,1.0,3.0,-1.5,1.0,1.0,1.0,-1.74533
1776696015048022911,1776696015047,False,0.06405613843391444,0.16185014359854943,1.7550470563392493,-0.03077718535137724,0.057760389739646124,-0.04503479638991651,1.0,1.0,3.0,-1.5,1.0,1.0,1.0,-1.74533
1776696015147772316,1776696015147,False,0.01827263279557242,0.12801628646479063,1.7756624164408954,-0.06268616032053015,0.10041487864355852,-0.07209682262145972,1.0,1.0,3.0,-1.5,1.0,1.0,1.0,-1.74533
1776696015248201114,1776696015248,False,-0.018536116998792363,0.10234731271385611,1.7956766962758728,-0.06991794187432639,0.11313366759409896,-0.10132501567379883,1.0,1.0,3.0,-1.5,1.0,1.0,1.0,-1.74533
1776696015347787987,1776696015347,False,-0.0446777380511076,0.08567664910448451,1.8151528601846583,-0.06789516100892828,0.11519477164568612,-0.13046625152877378,1.0,1.0,3.0,-1.5,1.0,1.0,1.0,-1.74533
1776696015447977929,1776696015447,False,-0.060410026356474196,0.07788734910112902,1.8339707788410122,-0.06738007460737047,0.11323607223298705,-0.15936533749774975,1.0,1.0,3.0,-1.5,1.0,1.0,1.0,-1.74533
1776696015547910842,1776696015547,False,-0.06620910028024449,0.07829581362014142,1.8526969878785906,-0.057324055858535575,0.11434104587718584,-0.1906794710217252,1.0,1.0,3.0,-1.5,1.0,1.0,1.0,-1.74533
1776696015647898712,1776696015647,False,-0.0627845804485717,0.08587670265764485,1.870828854382837,-0.04827640299312047,0.11634608511359384,-0.22222508910212413,1.0,1.0,3.0,-1.5,1.0,1.0,1.0,-1.74533
1776696015748341523,1776696015748,False,-0.05025668168787532,0.09920041598380461,1.8884569950577474,-0.040419868103519774,0.12068695219353029,-0.25132962311924645,1.0,1.0,3.0,-1.5,1.0,1.0,1.0,-1.74533
1776696015848816968,1776696015848,False,-0.02994754011445934,0.11694571958715039,1.9057343093172041,-0.03128391168487421,0.10111263975822314,-0.2814074383441115,1.0,1.0,3.0,-1.5,1.0,1.0,1.0,-1.74533
1776696015948088105,1776696015947,False,-0.0019230365446246545,0.1385348518205543,1.9222205431727404,-0.029555260243749316,0.1023984325851718,-0.3108053685434552,1.0,1.0,3.0,-1.5,1.0,1.0,1.0,-1.74533
1776696016047877268,1776696016047,False,0.032536110602427434,0.16304273282268775,1.9379612727429487,-0.02182445038242811,0.100181280431714,-0.3414980663496289,1.0,1.0,3.0,-1.5,1.0,1.0,1.0,-1.74533
1776696016147377942,1776696016147,False,0.07222318344097044,0.18954523649667693,1.9521694513269565,-0.01294832278867801,0.08426270396742815,-0.37224763684492385,1.0,1.0,3.0,-1.5,1.0,1.0,1.0,-1.74533
1776696016247818571,1776696016247,False,0.11539642496399817,0.2163670436763813,1.9654886375626757,-0.004160822309928252,0.0863709194866284,-0.40163013943098735,1.0,1.0,3.0,-1.5,1.0,1.0,1.0,-1.74533
1776696016349834826,1776696016349,False,0.1542798485374104,0.23916542931398077,1.976440125501463,-0.004265503425043089,0.08703105074998993,-0.4258190999627242,1.0,1.0,3.0,-1.5,1.0,1.0,1.0,-1.74533
1776696016495860219,1776696016495,False,0.20842977385617145,0.2690304161555334,1.9893810673603112,0.0007640159731303008,0.07924477964061097,-0.4576808495667874,1.0,1.0,3.0,-1.5,1.0,1.0,1.0,-1.74533
1776696016548920439,1776696016548,False,0.26413843087136757,0.29733423530623915,2.001520510460752,0.008538383283383253,0.07824428662557305,-0.4887487102403392,1.0,1.0,3.0,-1.5,1.0,1.0,1.0,-1.74533
1776696016663021772,1776696016662,False,0.3254762835271675,0.3258249674281617,2.0141174184768302,0.011885822207078166,0.08080172381085081,-0.5197228054134256,1.0,1.0,3.0,-1.5,1.0,1.0,1.0,-1.74533
1776696016759496688,1776696016759,False,0.38696881781020837,0.35182824744715396,2.025241199983106,0.012752573355307112,0.07280792253073565,-0.5483237690520276,1.0,1.0,3.0,-1.5,1.0,1.0,1.0,-1.74533
1776696016865353798,1776696016865,False,0.45413157826441014,0.37749564204059627,2.0367959608195307,0.015463598207212617,0.07818180437358596,-0.5811201122728391,1.0,1.0,3.0,-1.5,1.0,1.0,1.0,-1.74533
1776696016966656226,1776696016966,False,0.5236492439144997,0.40142102426760967,2.048594631526207,0.01790044654338412,0.07442566430554963,-0.6111039130333212,1.0,1.0,3.0,-1.5,1.0,1.0,1.0,-1.74533
1776696017066777384,1776696017066,False,0.5926874194646703,0.4227311592938553,2.060186001502866,0.018028691857342512,0.07486742615179602,-0.6382721396134613,1.0,1.0,3.0,-1.5,1.0,1.0,1.0,-1.74533
1776696017168318678,1776696017168,False,0.6662615682712627,0.4427576730965907,2.072329424506731,0.023424827135121853,0.07359801156787968,-0.6727567041542601,1.0,1.0,3.0,-1.5,1.0,1.0,1.0,-1.74533
1776696017271799597,1776696017271,False,0.7416978176207004,0.46063729165044925,2.08428150977231,0.023205276367748266,0.07161450816156806,-0.7018928250364898,1.0,1.0,3.0,-1.5,1.0,1.0,1.0,-1.74533
1776696017374303370,1776696017374,False,0.8157324865105386,0.47568230598232836,2.095764114518577,0.023946786331305942,0.06683663330442703,-0.7336521670341092,1.0,1.0,3.0,-1.5,1.0,1.0,1.0,-1.74533
1776696017476615929,1776696017476,False,0.8910956695487825,0.48855006918479593,2.1075880025622866,0.023760882418363362,0.0708354833999191,-0.7648075333748728,1.0,1.0,3.0,-1.5,1.0,1.0,1.0,-1.74533
1776696017578702923,1776696017578,False,0.9708663592267297,0.49961764094189737,2.1202617661940066,0.027436473357004772,0.07311535467901539,-0.7941917915125974,1.0,1.0,3.0,-1.5,-1.0,1.0,1.0,-1.74533
1776696017651072680,1776696017651,False,1.0484466526054994,0.507923041991842,2.1327023205255635,0.028614087868253864,0.07127528825126207,-0.8232265327163719,1.0,1.0,3.0,-1.5,-1.0,1.0,1.0,-1.74533
1776696017752095015,1776696017751,False,1.1255435235838847,0.5159637973808641,2.145317810300178,-0.003540484109162672,0.04167119021848113,-0.8488555148930148,1.0,1.0,3.0,-1.5,-1.0,1.0,1.0,-1.74533
1776696017852555554,1776696017852,False,1.1999735498533373,0.5257430837658916,2.1576314562238883,-0.05150344198849994,0.0059553761528305296,-0.8760839218855013,1.0,1.0,3.0,-1.5,-1.0,1.0,1.0,-1.74533
1776696017950970779,1776696017950,False,1.2698587798898868,0.5395443176526913,2.1702018787617567,-0.06933877706393307,-0.01519692563861898,-0.9044782471028333,1.0,1.0,3.0,-1.5,-1.0,1.0,1.0,-1.74533
1776696018052384378,1776696018052,False,1.333445564075461,0.5593954788509589,2.1830221250025397,-0.07759213404341912,-0.02317655925671474,-0.933700078965403,1.0,1.0,3.0,-1.5,-1.0,1.0,1.0,-1.74533
1776696018151088246,1776696018151,False,1.3902301786833042,0.5859675951257223,2.19643769186954,-0.0726798955552125,-0.01879940800478179,-0.9621945399078331,1.0,1.0,3.0,-1.5,-1.0,1.0,1.0,-1.74533
1776696018252963896,1776696018252,False,1.4407407266588712,0.6189608561494455,2.2104405407428978,-0.07412027326750527,-0.013109078681155985,-0.9916999586279611,1.0,1.0,3.0,-1.5,-1.0,1.0,1.0,-1.74533
1776696018352419762,1776696018352,False,1.485952597054727,0.6576820854176301,2.225411424810925,-0.06672137669908619,-0.005634350455321949,-1.018950705525756,1.0,1.0,3.0,-1.5,-1.0,1.0,1.0,-1.74533
1776696018452145451,1776696018451,False,1.526443738056542,0.701146722689994,2.2409067115016286,-0.06170216189184005,0.0008369318410831561,-1.0491905516669,1.0,1.0,3.0,-1.5,-1.0,1.0,1.0,-1.74533
1776696018556076706,1776696018555,False,1.5647448691464787,0.7507716419579604,2.2574009375034225,-0.058876808244962914,0.002386610851325537,-1.0840259174971973,1.0,1.0,3.0,-1.5,-1.0,1.0,1.0,-1.74533
1776696018653683695,1776696018653,False,1.5970216918325404,0.7994748861351447,2.27367190082653,-0.05605347543331445,0.013940963745890314,-1.103097822307533,1.0,1.0,3.0,-1.5,-1.0,1.0,1.0,-1.74533
1776696018756244664,1776696018755,False,1.630355009799263,0.854985116901865,2.292091184228519,-0.051731972519873104,0.01784418781501104,-1.1360746414911733,1.0,1.0,3.0,-1.5,-1.0,1.0,1.0,-1.74533
1776696018859876984,1776696018858,False,1.6608395681934167,0.9101173909098443,2.3109231796171366,-0.05127794740392056,0.02470885809112975,-1.1645660386726824,1.0,1.0,3.0,-1.5,-1.0,1.0,1.0,-1.677169806636587
1776696018955817416,1776696018955,False,1.6905582276414273,0.9668932992619068,2.330813693687745,-0.044224829813340506,0.025202739390659777,-1.1940359639350826,1.0,1.0,3.0,-1.5,-1.0,1.0,1.0,-1.529820180324588
1776696019056318473,1776696019055,False,1.7197693551484137,1.0250469876167159,2.351907740849246,-0.04884148958683729,0.030015599840381033,-1.224312455161082,1.0,1.0,3.0,-1.5,-1.0,1.0,1.0,-1.37843772419459
1776696019156075157,1776696019156,False,1.7489240726544861,1.0837974079539883,2.373376315301344,-0.05073355842800245,0.03424146387131194,-1.253888083725719,1.0,1.0,3.0,-1.5,-1.0,1.0,1.0,-1.2305595813714065
1776696019257108130,1776696019256,False,1.7783536814418015,1.1434075975679985,2.394949157547024,-0.05052764217449895,0.033178886254535245,-1.2800613638647211,1.0,1.0,3.0,-1.5,-1.0,1.0,1.0,-1.0996931806763932
1776696019356732384,1776696019356,False,1.8078066603259735,1.203412358613894,2.4159020527231365,-0.051969948748263176,0.04827232357530502,-1.313047708384313,1.0,1.0,3.0,-1.5,-1.0,1.0,1.0,-0.9347614580784347
1776696019456538687,1776696019456,False,1.836009169612132,1.2596568552920369,2.4340305086808183,-0.047658631265071826,0.08093443947143539,-1.4882477726280148,1.0,1.0,3.0,-1.5,-1.0,1.0,1.0,-0.05876113685992612
1776696019556146802,1776696019555,False,1.8703497492555945,1.3084910439156334,2.4427389963269937,0.07115540184410622,0.23511475007451502,-1.9042845835797626,1.0,1.0,3.0,-1.5,-1.0,1.0,1.0,1.74533
1776696019663978056,1776696019663,False,1.9043394515911576,1.3317911730791319,2.4524901632688545,0.3028685043281378,0.29133173342714863,-2.392636351448133,1.0,1.0,3.0,-1.5,-1.0,-1.0,1.0,1.74533
1776696019756192170,1776696019755,False,1.9327013807623827,1.3282860189796857,2.4530033350474834,0.5410337091029541,0.1486672479534001,-2.7937625441818583,1.0,1.0,3.0,-1.5,-1.0,-1.0,1.0,1.74533
1776696019856370835,1776696019855,False,1.9476408046707665,1.3002164819475748,2.454850256642912,0.5856507963037847,0.1416074561076789,-2.751398808621853,1.0,1.0,3.0,-1.5,-1.0,-1.0,1.0,1.74533
1776696019955407564,1776696019955,False,1.9554451529888435,1.2455895625092182,2.4598718893544684,0.6351854595110372,0.31003318694016585,-2.466623222977451,1.0,1.0,3.0,-1.5,-1.0,-1.0,1.0,1.74533
1776696020055624982,1776696020055,False,1.975824718473269,1.1687343492411146,2.4639162665058665,0.5633894180805537,0.6443981974862021,-1.9201445664651198,1.0,1.0,3.0,-1.5,-1.0,-1.0,1.0,1.74533
1776696020159696850,1776696020159,False,2.016754769809859,1.1012979811325407,2.437520735664143,-0.25424044437520016,1.1082721353269676,-0.7332280581293664,1.0,1.0,3.0,-1.5,-1.0,1.0,1.0,-1.74533
1776696020269635681,1776696020269,False,2.013268946432615,1.0815814382933326,2.433394677561929,-0.43836899030924553,0.7584503422913635,-0.36090034421181816,1.0,1.0,3.0,-1.5,-1.0,1.0,1.0,-1.74533
1776696020360741328,1776696020360,False,1.9918855946599887,1.0801202284077207,2.4160058339039,-0.49271309134932895,0.29992342006997563,-0.022636281758248354,1.0,1.0,3.0,-1.5,1.0,1.0,1.0,-1.74533
1776696020459937684,1776696020459,False,1.963699982609718,1.0904294209203862,2.40373426850211,-0.3060264503128066,0.16357214761575847,-0.07550175110960686,1.0,1.0,3.0,-1.5,-1.0,1.0,1.0,-1.74533
1776696020559756125,1776696020559,False,1.929621122520843,1.1108053450149458,2.398515915561185,-0.2350811515805378,0.15020015630233416,-0.21567202015067746,1.0,1.0,3.0,-1.5,-1.0,1.0,1.0,-1.74533
1776696020659500812,1776696020659,False,1.8916768791348026,1.1354554932790355,2.397509187410421,-0.18750549584180173,0.19085334934176995,-0.4462738585475847,1.0,1.0,3.0,-1.5,-1.0,1.0,1.0,-1.74533
1776696020759139293,1776696020759,False,1.8494135194039678,1.1591053919688654,2.394172625961357,-0.13062432403228635,0.15702455874289598,-0.7213350565831792,1.0,1.0,3.0,-1.5,-1.0,1.0,1.0,-1.74533
1776696020858303607,1776696020858,False,1.8218667472547896,1.1659298200714212,2.3854849883844094,0.09440037107720202,0.14198528136619024,-0.9232991735043246,1.0,1.0,3.0,-1.5,-1.0,1.0,1.0,-1.74533
1776696020962908775,1776696020962,False,1.763074463540264,1.1784894287817387,2.3121655050916416,0.5212295547933848,-0.43681655472734066,-1.1345182299733405,1.0,1.0,3.0,-1.5,-1.0,1.0,1.0,-1.74533
1776696021060884964,1776696021060,False,1.7351418923967021,1.2359999253006575,2.1680627716332532,2.7048624206283107,-1.1521592162590302,0.31055339926810627,1.0,1.0,3.0,-1.5,1.0,1.0,1.0,-1.74533
1776696021164019271,1776696021163,False,1.7624744073659926,1.3134187597932148,2.018489097047166,-1.9870283546049912,0.08386199230513211,0.8260326054346553,1.0,1.0,3.0,-1.5,1.0,1.0,1.0,-1.74533
1776696021265659383,1776696021265,False,1.7211014774541855,1.3077245473478378,1.812002449891592,-0.21153847131356573,0.01907807016016729,-0.32544150546063305,1.0,1.0,3.0,-1.5,-1.0,1.0,1.0,-1.74533
1776696021365882024,1776696021365,False,1.663109156516721,1.3366159787959622,1.4185426942322572,1.4888215381620924,-1.3939606169178727,0.46288129984652643,1.0,1.0,3.0,-1.5,1.0,1.0,1.0,-1.74533
1776696021471870308,1776696021471,False,1.6844463160794374,1.4136337438159168,0.9521459710009534,-2.3215411523588063,-0.1353982026032923,2.1044041536605125,1.0,1.0,3.0,-1.5,1.0,-1.0,1.0,1.74533
1776696021577256878,1776696021576,False,1.6710690230132874,1.4383882035773576,0.4693226350940546,-0.9096146203643707,0.4934433832350438,1.0946666236941862,1.0,1.0,3.0,-1.5,1.0,1.0,1.0,-1.74533
1776696021674715078,1776696021674,False,1.621282831509225,1.446614142671795,0.12386376660688674,-1.0274228776402552,-0.595811037247491,0.4330789807920242,1.0,1.0,3.0,-1.5,1.0,1.0,1.0,-1.74533
1776696021776815752,1776696021776,False,1.6622988840754391,1.4305360401181646,0.31387984125388046,1.2847254053057329,0.9099705507769178,-0.45881280197419777,1.0,1.0,3.0,-1.5,-1.0,1.0,1.0,-1.74533
1776696021886347338,1776696021886,False,1.6938275501907103,1.4651064486909995,0.41361559330413444,-2.969587578015048,-0.8214590887065455,0.44777396095267746,1.0,1.0,3.0,-1.5,-1.0,1.0,1.0,-1.74533
1776696021982471760,1776696021982,False,1.7231338810858157,1.439817529001211,0.4201364403841502,-0.5400991970603471,0.315833629944577,-0.14608067399256014,1.0,1.0,3.0,-1.5,-1.0,1.0,1.0,-1.74533
1776696022083006317,1776696022082,False,1.7372054800392274,1.4027319439421295,0.3106976385162939,-1.1828460891133776,-0.380487217408163,-0.8382038736572232,1.0,1.0,3.0,-1.5,-1.0,1.0,1.0,-1.74533
1776696022187015915,1776696022186,False,1.7822602955872808,1.4418112599970432,0.10464821964448925,-1.5518619104856077,-0.7958912819513883,0.38788614315109143,1.0,1.0,3.0,-1.5,-1.0,1.0,1.0,-1.74533
1776696022272695662,1776696022272,False,1.7831402200542843,1.4573170536529079,0.0404465264392647,1.2604667686933808,-0.6222317321039866,2.532503276970266,1.0,1.0,3.0,-1.5,1.0,-1.0,1.0,1.74533
1776696022374815182,1776696022374,False,1.736683670662692,1.5086832058954305,0.025639569031839563,-1.7148064152873645,-0.4643706857415979,3.1274974439973464,1.0,1.0,3.0,-1.5,1.0,-1.0,1.0,1.74533
1776696022464253287,1776696022463,False,1.677426442563794,1.5184114002673288,0.01742851510724611,0.10471705206147024,-0.4123305964210669,-1.154503433832761,1.0,1.0,3.0,-1.5,-1.0,-1.0,1.0,-1.7274828308361956
1776696022564330829,1776696022563,False,1.6702397676228333,1.499801565786706,0.012108744457737994,0.4774869386529554,0.22615394949124307,0.11752866523246565,1.0,1.0,3.0,-1.5,-1.0,1.0,1.0,-1.74533
1776696022663789326,1776696022663,False,1.6805258418268259,1.5055917786288684,0.014212373205836194,0.000779161940349636,0.05631633139695068,1.5698291169456544,1.0,1.0,3.0,-1.5,1.0,1.0,1.0,-1.74533
1776696022763713781,1776696022763,False,1.6653243614559834,1.5266187334644774,0.016098304704497128,-0.006875844665460673,0.04181746091458142,2.776191503501471,1.0,1.0,3.0,-1.5,1.0,-1.0,1.0,1.74533
1776696022863926555,1776696022863,False,1.6431765218325418,1.5416727127070422,0.01604874855459346,-0.026838184725720676,-0.011882537763322489,-2.4227485767485533,1.0,1.0,3.0,-1.5,1.0,-1.0,1.0,1.74533
1776696022963165397,1776696022963,False,1.632056688216974,1.5372244651148355,0.013998668196683163,-0.01605295086541123,-0.04450134316225578,-1.5870430691140591,1.0,1.0,3.0,-1.5,-1.0,-1.0,1.0,0.4352153455702945
1776696023063556809,1776696023063,False,1.627398212567326,1.5266454809499286,0.015717428162429787,0.006465331699252357,-0.028433997615739084,-1.0480294102705034,1.0,1.0,3.0,-1.5,-1.0,-1.0,1.0,-1.74533
1776696023163350779,1776696023163,False,1.6280826643091557,1.5205062860240803,0.015804578553376105,0.029433631106205622,-0.009582082813712894,-0.745608923296648,1.0,1.0,3.0,-1.5,-1.0,-1.0,1.0,-1.74533
1776696023264684678,1776696023264,False,1.6290389749061192,1.519721559296525,0.015423099954345397,0.03594595881387194,0.010712094565372216,-0.6964510076475534,1.0,1.0,3.0,-1.5,-1.0,-1.0,1.0,-1.74533
1776696023367762823,1776696023367,False,1.6284889456125722,1.5193325276869933,0.015692986119452898,0.04720688558567427,-0.011606301279986683,-0.7030432703044447,1.0,1.0,3.0,-1.5,-1.0,-1.0,1.0,-1.74533
1776696023465870942,1776696023465,False,1.6284762652805571,1.5193140125024434,0.015718904286302272,0.04509520805133553,-0.011637978646815357,-0.7030230726597296,1.0,1.0,3.0,-1.5,-1.0,-1.0,1.0,-1.74533
1776696023564810910,1776696023564,False,1.62847691017449,1.5193483517943858,0.015771499754286083,0.04557755932017516,-0.011062738048514733,-0.7030405854819236,1.0,1.0,3.0,-1.5,-1.0,-1.0,1.0,-1.74533
1776696023667420154,1776696023666,False,1.6289779423760464,1.5197438221105717,0.015500888207390602,0.03481241592899826,0.013040522369255429,-0.6971264911767652,1.0,1.0,3.0,-1.5,-1.0,-1.0,1.0,-1.74533
1776696023764628561,1776696023764,False,1.6289813866261167,1.5195154871753915,0.01551770652318179,0.03435966669049969,0.011276761139601167,-0.6938218695060556,1.0,1.0,3.0,-1.5,-1.0,-1.0,1.0,-1.74533
1776696023864649266,1776696023864,False,1.628306396993808,1.5194748853036457,0.01608585242257721,0.031060093702222152,-0.008467792721822753,-0.7133523745920205,1.0,1.0,3.0,-1.5,-1.0,-1.0,1.0,-1.74533
1776696023964073051,1776696023964,False,1.6290336128293441,1.51975484959417,0.015502252582243775,0.035101712850296805,0.012760823392941338,-0.6974532286383742,1.0,1.0,3.0,-1.5,-1.0,-1.0,1.0,-1.74533
1776696024064605100,1776696024064,False,1.6285572643230484,1.5193608186258156,0.01569329291207291,0.04685738193475009,-0.012514828769233615,-0.7031495206837345,1.0,1.0,3.0,-1.5,-1.0,-1.0,1.0,-1.74533
1776696024168996948,1776696024168,False,1.6289690156824275,1.5195737500189976,0.015394301428705973,0.034798257600036055,0.008589112164717643,-0.6961343287413156,1.0,1.0,3.0,-1.5,-1.0,-1.0,1.0,-1.74533
1776696024269357351,1776696024269,False,1.6285219459336473,1.5195549694965582,0.015719108446793334,0.0449755435319673,-0.011419005019247377,-0.7052834042446142,1.0,1.0,3.0,-1.5,-1.0,-1.0,1.0,-1.74533
1776696024369569852,1776696024369,False,1.6289879945932721,1.5195598307373208,0.015479244989420255,0.03483613036930666,0.01152298088757211,-0.6939814525796454,1.0,1.0,3.0,-1.5,-1.0,-1.0,1.0,-1.74533
1776696024468350948,1776696024468,False,1.6286380023004579,1.5195746023097214,0.015622765843120992,0.046892501631575545,-0.012789615733276588,-0.7051921359301025,1.0,1.0,3.0,-1.5,-1.0,-1.0,1.0,-1.74533
1776696024568573719,1776696024568,False,1.6289816620100037,1.5196043983851355,0.01544663998131223,0.03492123378923593,0.012440753764196184,-0.6937614350210057,1.0,1.0,3.0,-1.5,-1.0,-1.0,1.0,-1.74533
1776696024668122899,1776696024667,False,1.6285800063353877,1.519569745401592,0.01565261901692369,0.04629684120471162,-0.013033173839105508,-0.7051882933037364,1.0,1.0,3.0,-1.5,-1.0,-1.0,1.0,-1.74533
1776696024767381695,1776696024767,False,1.6282271820314465,1.5192727883209476,0.01617554181134365,0.03233647569507764,-0.006714404833450258,-0.7087680282078788,1.0,1.0,3.0,-1.5,-1.0,-1.0,1.0,-1.74533
1776696024868845809,1776696024868,False,1.6284820632490502,1.5193457581010732,0.015755524820098486,0.04543575493590573,-0.011430931409117641,-0.7032955496976996,1.0,1.0,3.0,-1.5,-1.0,-1.0,1.0,-1.74533
1776696024968065917,1776696024967,False,1.6286227184875888,1.519548121558622,0.015658291476430764,0.04419013803674648,-0.012372179249012932,-0.7050947729523055,1.0,1.0,3.0,-1.5,-1.0,-1.0,1.0,-1.74533
1776696025069065636,1776696025068,False,1.6281272591787266,1.5192634269451177,0.016214812214325657,0.031957584498650604,-0.00668170717126436,-0.7107445070631743,1.0,1.0,3.0,-1.5,-1.0,-1.0,1.0,-1.74533
1776696025168762413,1776696025168,False,1.6291392585513902,1.5198177419074566,0.015358493325092254,0.037276641857060346,0.012813710695192885,-0.6946977878520129,1.0,1.0,3.0,-1.5,-1.0,-1.0,1.0,-1.74533
1776696025268126844,1776696025267,False,1.6286481177266332,1.519577522488738,0.015563184975387225,0.0471165531416545,-0.015137368574340322,-0.7051283953954881,1.0,1.0,3.0,-1.5,-1.0,-1.0,1.0,-1.74533
1776696025368996094,1776696025367,False,1.628484755827165,1.5193421375382943,0.015621520003723112,0.04552009917878114,-0.014765982982176663,-0.7035521498312537,1.0,1.0,3.0,-1.5,-1.0,-1.0,1.0,-1.74533
1776696025467800662,1776696025467,False,1.6281208160651246,1.5192355319944897,0.016218919627012447,0.029753496903326366,-0.0053371130957933005,-0.711162110303485,1.0,1.0,3.0,-1.5,-1.0,-1.0,1.0,-1.74533
1776696025571143409,1776696025571,False,1.629028297673348,1.5197855809944956,0.015455401001132633,0.036575852532608526,0.01118738253680339,-0.6975701436733704,1.0,1.0,3.0,-1.5,-1.0,-1.0,1.0,-1.74533
1776696025667810853,1776696025667,False,1.6284911261879096,1.5193462382827787,0.015717194761294514,0.04472819327790705,-0.012588502376194436,-0.7036807432464537,1.0,1.0,3.0,-1.5,-1.0,-1.0,1.0,-1.74533
1776696025776173572,1776696025775,False,1.6290276430369917,1.519717075592821,0.015462552369065009,0.03504338601137911,0.012043254335806055,-0.6968497148845239,1.0,1.0,3.0,-1.5,-1.0,-1.0,1.0,-1.74533
1776696025872957218,1776696025872,False,1.628660916781702,1.5195744753102725,0.01558862176780844,0.04683932205036428,-0.013223963227997482,-0.7049024927360268,1.0,1.0,3.0,-1.5,-1.0,-1.0,1.0,-1.74533
1776696025978017604,1776696025977,False,1.6291442445824764,1.5197330639571855,0.014972744883546597,0.05729465300429371,-0.010387604794664365,-0.6951429698113846,1.0,1.0,3.0,-1.5,-1.0,-1.0,1.0,-1.74533
1776696026087616304,1776696026087,False,1.6289280148341334,1.5195510436794504,0.015477267551032913,0.036198431697305154,0.010073463327505312,-0.6957196741747415,1.0,1.0,3.0,-1.5,-1.0,-1.0,1.0,-1.74533
1776696026172259364,1776696026172,False,1.6281221914698139,1.5192638069172688,0.016132485489069502,0.03103971785117295,-0.008610657420384747,-0.7109609604146885,1.0,1.0,3.0,-1.5,-1.0,-1.0,1.0,-1.74533
1776696026269503989,1776696026269,False,1.628275505985029,1.5194610416025751,0.016089608418606304,0.03058615424954652,-0.008382456469536545,-0.7134851307440213,1.0,1.0,3.0,-1.5,-1.0,-1.0,1.0,-1.74533
1776696026374465544,1776696026374,False,1.6282923217293872,1.5194747124457186,0.01606556005499474,0.030436723262758838,-0.008431982400559252,-0.713357127778228,1.0,1.0,3.0,-1.5,-1.0,-1.0,1.0,-1.74533
1776696026470124083,1776696026469,False,1.6285423766845346,1.5193604882479814,0.01572159847604228,0.0446394881268136,-0.011561833217770896,-0.7020144749708556,1.0,1.0,3.0,-1.5,-1.0,-1.0,1.0,-1.74533
1776696026694330335,1776696026694,False,1.6284965366182516,1.5193296568463388,0.015755527936477817,0.044899206871967925,-0.010670946521321724,-0.7030577056366915,1.0,1.0,3.0,-1.5,-1.0,-1.0,1.0,-1.74533
1776696026699638472,1776696026699,False,1.628216673337532,1.5194181443219383,0.016141908809589673,0.030346154839323843,-0.007347337243866575,-0.7125779525593695,1.0,1.0,3.0,-1.5,-1.0,-1.0,1.0,-1.74533
1776696026918246847,1776696026917,False,1.6281481513266713,1.5192570823885982,0.016156874894711338,0.03252148170057767,-0.00794029739981069,-0.7110579747880631,1.0,1.0,3.0,-1.5,-1.0,-1.0,1.0,-1.74533
1776696026923713611,1776696026923,False,1.6289249823966527,1.5195725340259503,0.015475732415094685,0.03458931571337857,0.011348097978084002,-0.6961645535405953,1.0,1.0,3.0,-1.5,-1.0,-1.0,1.0,-1.74533
1776696027021685121,1776696027021,False,1.6285961919766638,1.5193468319620418,0.015693667478246614,0.045840520965154966,-0.01289319772351111,-0.7009751002937941,1.0,1.0,3.0,-1.5,-1.0,-1.0,1.0,-1.74533
1776696027157393257,1776696027157,False,1.6285133467323187,1.5193462329264105,0.015653089533823526,0.044722345578277,-0.01308993223006625,-0.7035457972943614,1.0,1.0,3.0,-1.5,-1.0,-1.0,1.0,-1.74533
1776696027223764285,1776696027223,False,1.6289262372896933,1.5195648963069208,0.015499233626285115,0.037068320346247935,0.010105292329554443,-0.6956067605893256,1.0,1.0,3.0,-1.5,-1.0,-1.0,1.0,-1.74533
1776696027414501154,1776696027414,False,1.6285129558662965,1.5193392697807702,0.015665462197698675,0.046267018468948595,-0.012817922663402578,-0.7032590780582176,1.0,1.0,3.0,-1.5,-1.0,-1.0,1.0,-1.74533
1776696027422695871,1776696027422,False,1.6285270748612592,1.5193502840311857,0.0156843859340663,0.04602248588321223,-0.012662880278942405,-0.7033158753025498,1.0,1.0,3.0,-1.5,-1.0,-1.0,1.0,-1.74533
1776696027635451499,1776696027635,False,1.6281407412708335,1.519233544818763,0.016154914106798448,0.03312348582199525,-0.008280637642494182,-0.7105269140297339,1.0,1.0,3.0,-1.5,-1.0,-1.0,1.0,-1.74533
1776696027636931144,1776696027637,False,1.6290753180488913,1.5197334989633504,0.01544468340776249,0.0350520883716618,0.01228779899492773,-0.6950798581759415,1.0,1.0,3.0,-1.5,-1.0,-1.0,1.0,-1.74533
1776696027741193762,1776696027741,False,1.6282654798743315,1.5194478012366168,0.016135042171495882,0.030990457971963974,-0.0075417731967200394,-0.7128249955766723,1.0,1.0,3.0,-1.5,-1.0,-1.0,1.0,-1.74533
1776696027872012335,1776696027869,False,1.6289062919316186,1.5195746403044457,0.015528706757575759,0.03301953187040733,0.012649936885692442,-0.6965947540440708,1.0,1.0,3.0,-1.5,-1.0,-1.0,1.0,-1.74533
1776696027941179478,1776696027940,False,1.6281483563188053,1.5192302393005241,0.0162458670731287,0.029961453508703335,-0.006851424403346255,-0.7108156578814433,1.0,1.0,3.0,-1.5,-1.0,-1.0,1.0,-1.74533
1776696028039114994,1776696028039,False,1.6286806867205788,1.5195713339492622,0.015618249603663393,0.04441395978793835,-0.013666139166696949,-0.7040971029170968,1.0,1.0,3.0,-1.5,-1.0,-1.0,1.0,-1.74533
1776696028140103781,1776696028139,False,1.628616843961432,1.5195713992318842,0.015588794311666517,0.046157841428651765,-0.014322369576209701,-0.7052841619277715,1.0,1.0,3.0,-1.5,-1.0,-1.0,1.0,-1.74533
1776696028238084545,1776696028237,False,1.6284402907423952,1.519332761087509,0.01568881708850532,0.04529654292576529,-0.012037785519686041,-0.7036820959178679,1.0,1.0,3.0,-1.5,-1.0,-1.0,1.0,-1.74533
1776696028340041444,1776696028339,False,1.6281853153921872,1.519228505079425,0.01616048817344027,0.03152563008903339,-0.0075839236347266725,-0.7108100967155883,1.0,1.0,3.0,-1.5,-1.0,-1.0,1.0,-1.74533
1776696028439642214,1776696028439,False,1.6289045446574812,1.519568171401136,0.015567520151754576,0.034492427553492314,0.012758921576150342,-0.696152335161001,1.0,1.0,3.0,-1.5,-1.0,-1.0,1.0,-1.74533
1776696028540188828,1776696028540,False,1.62811593304462,1.5192611020559843,0.01611898103644557,0.030182465229209768,-0.00849615338304405,-0.7114484711790875,1.0,1.0,3.0,-1.5,-1.0,-1.0,1.0,-1.74533
1776696028644084009,1776696028643,False,1.6285102732742203,1.5193713733134702,0.015601498336801776,0.046765501803656545,-0.015077259127216327,-0.7034768010103689,1.0,1.0,3.0,-1.5,-1.0,-1.0,1.0,-1.74533
1776696028740976116,1776696028740,False,1.6282576561850444,1.5194335951700484,0.01614184800327439,0.02919694220920613,-0.00599355208380691,-0.7132948985003041,1.0,1.0,3.0,-1.5,-1.0,-1.0,1.0,-1.74533
1776696028844102477,1776696028842,False,1.6286658603039006,1.5195802872845148,0.01561966270041636,0.04544035135314676,-0.01297349551045196,-0.7031003647741192,1.0,1.0,3.0,-1.5,-1.0,-1.0,1.0,-1.74533
1776696028945929082,1776696028945,False,1.6290317669979633,1.5197336134579886,0.015483154946051916,0.03533404397091046,0.012312396094470832,-0.6968993899054668,1.0,1.0,3.0,-1.5,-1.0,-1.0,1.0,-1.74533
1776696029048289130,1776696029047,False,1.6285510690764027,1.5193597672533383,0.015664172621590252,0.0461368288426423,-0.013021887813926636,-0.7033154655250905,1.0,1.0,3.0,-1.5,-1.0,-1.0,1.0,-1.74533
1776696029149807289,1776696029149,False,1.628095915231772,1.5192052258148352,0.01615170305809178,0.030977381896636322,-0.007385566178643518,-0.7109238324279056,1.0,1.0,3.0,-1.5,-1.0,-1.0,1.0,-1.74533
1776696029253637903,1776696029253,False,1.6281429818422533,1.5192374703418792,0.01608152314047687,0.03135738305701801,-0.009488099489270025,-0.7108478621300035,1.0,1.0,3.0,-1.5,-1.0,-1.0,1.0,-1.74533
1776696029354863830,1776696029354,False,1.6288975464020734,1.519542587368901,0.015533285549136274,0.03558139701127298,0.01116900315933453,-0.6953054761147488,1.0,1.0,3.0,-1.5,-1.0,-1.0,1.0,-1.74533
1776696029457285347,1776696029457,False,1.6281129870062405,1.5192219735996109,0.016307296821622096,0.029719972135498793,-0.0050128652682852465,-0.7113640129299016,1.0,1.0,3.0,-1.5,-1.0,-1.0,1.0,-1.74533
1776696029559840496,1776696029559,False,1.6281954548468092,1.5192636630461056,0.016175957414916856,0.03180682308307926,-0.006475735359041105,-0.7083403698566448,1.0,1.0,3.0,-1.5,-1.0,-1.0,1.0,-1.74533
1776696029661962378,1776696029661,False,1.6286519408464568,1.5195692053114656,0.015639685099771414,0.045707146706160676,-0.012322226058996561,-0.7055575389137637,1.0,1.0,3.0,-1.5,-1.0,-1.0,1.0,-1.74533
1776696029764167555,1776696029763,False,1.629008264687186,1.519741943019085,0.015472503929675334,0.03604616234782659,0.011724660092411179,-0.696865263216617,1.0,1.0,3.0,-1.5,-1.0,-1.0,1.0,-1.74533
1776696029864745086,1776696029864,False,1.6282612803811938,1.5193208425505773,0.016102142371222188,0.033164855339652057,-0.007778095348021265,-0.7085537363798627,1.0,1.0,3.0,-1.5,-1.0,-1.0,1.0,-1.74533
1776696029971877390,1776696029971,False,1.6286038166827597,1.5195870156821147,0.015585335801725714,0.04693006715303076,-0.014521294005048882,-0.7052304234681668,1.0,1.0,3.0,-1.5,-1.0,-1.0,1.0,-1.74533
1776696030071860965,1776696030071,False,1.6285450754486086,1.5193430129442922,0.01574740685295868,0.043972593842191904,-0.011707057026695219,-0.7018768769553677,1.0,1.0,3.0,-1.5,-1.0,-1.0,1.0,-1.74533
1776696030143647262,1776696030143,False,1.6286232064115056,1.519538788966585,0.015589029803309307,0.04551088421553254,-0.013844257249510973,-0.7048263809105925,1.0,1.0,3.0,-1.5,-1.0,-1.0,1.0,-1.74533
1776696030244547233,1776696030244,False,1.6281498285695772,1.5192369253255396,0.016223164058783653,0.031070341572512,-0.005577354695240104,-0.7106803128193063,1.0,1.0,3.0,-1.5,-1.0,-1.0,1.0,-1.74533
1776696030344664438,1776696030344,False,1.6288276466213132,1.519563391934685,0.015549650660740892,0.03370633979975088,0.01346071571319407,-0.6961073957253902,1.0,1.0,3.0,-1.5,-1.0,-1.0,1.0,-1.74533
1776696030448565000,1776696030448,False,1.6282431278565832,1.51939645618231,0.016230211133511495,0.027831622016801123,-0.005201618462840192,-0.7132320663303741,1.0,1.0,3.0,-1.5,-1.0,-1.0,1.0,-1.74533
1776696030548989763,1776696030548,False,1.6290348290666457,1.5197154814567095,0.015466269093653595,0.03558366683846253,0.01176682875142686,-0.6966317155191489,1.0,1.0,3.0,-1.5,-1.0,-1.0,1.0,-1.74533
1776696030648043763,1776696030648,False,1.6281557403930065,1.51923480837439,0.01616840582511363,0.03143054085895692,-0.007821316003800488,-0.7106745370477433,1.0,1.0,3.0,-1.5,-1.0,-1.0,1.0,-1.74533
1776696030749635118,1776696030749,False,1.6284967018847283,1.5193549925039411,0.015691617397956378,0.045992846337706145,-0.012506932129279578,-0.7035008545426145,1.0,1.0,3.0,-1.5,-1.0,-1.0,1.0,-1.74533
1776696030848295137,1776696030847,False,1.6281732992165578,1.519265473396184,0.016205216672295516,0.03136936226765338,-0.006849890831812921,-0.7111113075983676,1.0,1.0,3.0,-1.5,-1.0,-1.0,1.0,-1.74533
1776696030948404566,1776696030947,False,1.629073626093846,1.5197061758617068,0.015534895009447963,0.03357940190420452,0.013994122345627585,-0.6961969539828683,1.0,1.0,3.0,-1.5,-1.0,-1.0,1.0,-1.74533
1776696031048054847,1776696031047,False,1.628888115801419,1.5195572046179637,0.015522164911707239,0.03689860114303932,0.009638018971707244,-0.6950489238304618,1.0,1.0,3.0,-1.5,-1.0,-1.0,1.0,-1.74533
1776696031147646321,1776696031147,False,1.6285108048616013,1.5193727305594646,0.015730297018853888,0.04568900775039896,-0.012285763434342357,-0.7031751680987878,1.0,1.0,3.0,-1.5,-1.0,-1.0,1.0,-1.74533
1776696031250384475,1776696031249,False,1.628640665257444,1.5195847688960613,0.015588772830391855,0.047241038279356225,-0.014231250455993332,-0.7050719660597992,1.0,1.0,3.0,-1.5,-1.0,-1.0,1.0,-1.74533
1776696031348316973,1776696031347,False,1.6285356730987806,1.5193664266405775,0.01569653708433563,0.04587651930677244,-0.012246274873547066,-0.7035929547936159,1.0,1.0,3.0,-1.5,-1.0,-1.0,1.0,-1.74533
1776696031447932279,1776696031447,False,1.6282541134071493,1.5194397649843878,0.016152855589522397,0.030294076206153302,-0.007896426250973877,-0.7129521469354563,1.0,1.0,3.0,-1.5,-1.0,-1.0,1.0,-1.74533
1776696031548543702,1776696031548,False,1.6282273028329293,1.5194567852100778,0.01616710605907231,0.029548362922157657,-0.006816375229508576,-0.713793468257651,1.0,1.0,3.0,-1.5,-1.0,-1.0,1.0,-1.74533
1776696031647947015,1776696031647,False,1.6281355016511447,1.519230895890903,0.01616126807673412,0.03152187570041072,-0.007976664358729919,-0.7107537922010695,1.0,1.0,3.0,-1.5,-1.0,-1.0,1.0,-1.74533
1776696031748503922,1776696031748,False,1.6284890606363398,1.5193531109644522,0.015663713406215245,0.04658486804279542,-0.01350873480599205,-0.7034125045771825,1.0,1.0,3.0,-1.5,-1.0,-1.0,1.0,-1.74533
1776696031851759787,1776696031851,False,1.6285952356893627,1.5195552506767187,0.015608861997237104,0.044584155649872115,-0.012968726393698388,-0.7055561481870141,1.0,1.0,3.0,-1.5,-1.0,-1.0,1.0,-1.74533
1776696031951970303,1776696031951,False,1.6288751634626242,1.5195396502607788,0.015491203170798138,0.03600090598248366,0.010563334355853717,-0.6949113286571837,1.0,1.0,3.0,-1.5,-1.0,-1.0,1.0,-1.74533
1776696032052251613,1776696032051,False,1.6291003921444807,1.519726211405822,0.015416094391392899,0.03430660230824097,0.01198559638308663,-0.6948490153545878,1.0,1.0,3.0,-1.5,-1.0,-1.0,1.0,-1.74533
1776696032151630269,1776696032151,False,1.6282061017059208,1.5194248241186077,0.016151570849380157,0.030406277922660034,-0.006723258629008331,-0.7127918351775274,1.0,1.0,3.0,-1.5,-1.0,-1.0,1.0,-1.74533
1776696032251831016,1776696032251,False,1.6282818856094436,1.5194280876371637,0.01626166663682528,0.0261582391510866,-0.004177152525265535,-0.7120873139231422,1.0,1.0,3.0,-1.5,-1.0,-1.0,1.0,-1.74533
1776696032351893028,1776696032351,False,1.6282818506751169,1.519443525972576,0.01611881630686868,0.029333515461837087,-0.007426977053829886,-0.7134970838907403,1.0,1.0,3.0,-1.5,-1.0,-1.0,1.0,-1.74533
1776696032451754387,1776696032451,False,1.6284926375136806,1.519345759666273,0.015676304151135623,0.04664984602868052,-0.013460772554845707,-0.702672313117492,1.0,1.0,3.0,-1.5,-1.0,-1.0,1.0,-1.74533
1776696032551993196,1776696032551,False,1.6281429886577719,1.5192490494174484,0.016203591311134594,0.031049854351315923,-0.007052564483168336,-0.710739313887527,1.0,1.0,3.0,-1.5,-1.0,-1.0,1.0,-1.74533
1776696032652706761,1776696032652,False,1.6288852147221768,1.5195526496615601,0.0155190406986042,0.03476136958558532,0.011616968671297787,-0.6955551756093827,1.0,1.0,3.0,-1.5,-1.0,-1.0,1.0,-1.74533
1776696032752617010,1776696032752,False,1.6290261360142224,1.5197358895475597,0.015508094553270844,0.03571362545831312,0.012565615256486863,-0.696802387141223,1.0,1.0,3.0,-1.5,-1.0,-1.0,1.0,-1.74533
1776696032852408195,1776696032852,False,1.6285576628896838,1.519332590058807,0.015611762286109205,0.046077237221344096,-0.013206350979357873,-0.7027272449311132,1.0,1.0,3.0,-1.5,-1.0,-1.0,1.0,-1.74533
1776696032951472243,1776696032951,False,1.6285751371611852,1.5193638478882903,0.015622748748073895,0.0461925249057183,-0.013720402115974533,-0.703568555478555,1.0,1.0,3.0,-1.5,-1.0,-1.0,1.0,-1.74533
1776696033051453007,1776696033051,False,1.6284669952478543,1.519355081561086,0.01578359880593085,0.04450635226217592,-0.010036863980000909,-0.703696097682912,1.0,1.0,3.0,-1.5,-1.0,-1.0,1.0,-1.74533
1776696033151022126,1776696033150,False,1.6285916152400461,1.5193529062197664,0.015680589160378414,0.04574338764431346,-0.012806516342100978,-0.7008660517144344,1.0,1.0,3.0,-1.5,-1.0,-1.0,1.0,-1.74533
1776696033252188810,1776696033251,False,1.6286521197983679,1.5195581706976613,0.015639756673197492,0.04638048197741701,-0.012870137060574388,-0.70483750150198,1.0,1.0,3.0,-1.5,-1.0,-1.0,1.0,-1.74533
1776696033351640779,1776696033351,False,1.6280894189746207,1.5192248274604456,0.016199083270261257,0.030587038130145194,-0.006622253315413541,-0.7107910041971837,1.0,1.0,3.0,-1.5,-1.0,-1.0,1.0,-1.74533
1776696033452244811,1776696033452,False,1.6281019108877262,1.519224438750143,0.01618191523584401,0.03163264550705987,-0.007218410944441272,-0.7104250642467446,1.0,1.0,3.0,-1.5,-1.0,-1.0,1.0,-1.74533
1776696033557388612,1776696033557,False,1.628461119559562,1.519340547502338,0.015773464752531666,0.045429216122729814,-0.010501711503248473,-0.7030405876925159,1.0,1.0,3.0,-1.5,-1.0,-1.0,1.0,-1.74533
1776696033655175932,1776696033655,False,1.6289716327844406,1.5195817363752735,0.015825053242166987,0.01988059752330863,0.029092656826054438,-0.6943235288552632,1.0,1.0,3.0,-1.5,-1.0,-1.0,1.0,-1.74533
1776696033758833847,1776696033758,False,1.6282622105805513,1.5194547624042143,0.016122622525138817,0.030406481002237345,-0.007868419869631098,-0.7131725560496502,1.0,1.0,3.0,-1.5,-1.0,-1.0,1.0,-1.74533
1776696033861087380,1776696033860,False,1.6285577468922072,1.519532233071267,0.015631511344661623,0.045626345604654936,-0.012612770784875554,-0.7044802414652637,1.0,1.0,3.0,-1.5,-1.0,-1.0,1.0,-1.74533
1776696033969134911,1776696033968,False,1.6281178138042596,1.5192152874231801,0.016203694355718917,0.030689187190693988,-0.006307887111444739,-0.7105251909796167,1.0,1.0,3.0,-1.5,-1.0,-1.0,1.0,-1.74533
1776696034063582036,1776696034063,False,1.6281317743589354,1.5192289807007944,0.01620985453862939,0.02982132198407392,-0.0063048257249472255,-0.7112563212495323,1.0,1.0,3.0,-1.5,-1.0,-1.0,1.0,-1.74533
1776696034167107520,1776696034167,False,1.6290974119662758,1.5197239233836923,0.015502221121915547,0.03386614125970888,0.011989753835782577,-0.6963340262842758,1.0,1.0,3.0,-1.5,-1.0,-1.0,1.0,-1.74533
1776696034270632469,1776696034270,False,1.6285095424044194,1.5193476863532451,0.015696870924553394,0.04603550457329756,-0.012886015403481657,-0.7032043311947047,1.0,1.0,3.0,-1.5,-1.0,-1.0,1.0,-1.74533
1776696034373488562,1776696034373,False,1.628187257976043,1.5192528872395972,0.016236530110208813,0.029049704894846554,-0.005580879652801433,-0.7092775545994342,1.0,1.0,3.0,-1.5,-1.0,-1.0,1.0,-1.74533
1776696034474489152,1776696034474,False,1.628286721375941,1.5194578531488858,0.01614271440555312,0.030472626053554643,-0.007093252111500165,-0.7129222625033265,1.0,1.0,3.0,-1.5,-1.0,-1.0,1.0,-1.74533
1776696034577386723,1776696034577,False,1.6281381111798918,1.51924334495612,0.016147074136324387,0.03207531824861513,-0.008681596666948342,-0.7103470697423824,1.0,1.0,3.0,-1.5,-1.0,-1.0,1.0,-1.74533
1776696034680288945,1776696034680,False,1.6281646416491597,1.5192460276802555,0.01617729556439411,0.03049173593466328,-0.005883585458016111,-0.7112295050991383,1.0,1.0,3.0,-1.5,-1.0,-1.0,1.0,-1.74533
1776696034781835997,1776696034781,False,1.6281243848857674,1.5192366943324245,0.016201028971024645,0.030634316814911595,-0.004909377364780861,-0.7107317832073571,1.0,1.0,3.0,-1.5,-1.0,-1.0,1.0,-1.74533
1776696034885162766,1776696034884,False,1.6281527235165596,1.5192495389052016,0.016154155349774362,0.031505501601960965,-0.0071824421689302125,-0.7110365724642365,1.0,1.0,3.0,-1.5,-1.0,-1.0,1.0,-1.74533
1776696034955313267,1776696034955,False,1.6284957334377999,1.5193704496872322,0.01568862826435793,0.04591614900480515,-0.012811503563158466,-0.7036170450204488,1.0,1.0,3.0,-1.5,-1.0,-1.0,1.0,-1.74533
1776696035056117336,1776696035055,False,1.628179188511257,1.5192502462883113,0.016196049979573537,0.03175258145803534,-0.0073617438917032586,-0.710774160002002,1.0,1.0,3.0,-1.5,-1.0,-1.0,1.0,-1.74533
1776696035155783402,1776696035155,False,1.6284721214742697,1.5193368489584578,0.015772284120874076,0.044999263962997416,-0.011378462998386706,-0.7030185615564045,1.0,1.0,3.0,-1.5,-1.0,-1.0,1.0,-1.74533
1776696035256822002,1776696035255,False,1.6285971445056062,1.5195853764826386,0.01558147925288265,0.04629254468182175,-0.013569439339092892,-0.7056174501772052,1.0,1.0,3.0,-1.5,-1.0,-1.0,1.0,-1.74533
1776696035356568979,1776696035355,False,1.6281948989148405,1.5192685270180586,0.016156992785426892,0.031722311825809486,-0.006123428981214653,-0.708659873479193,1.0,1.0,3.0,-1.5,-1.0,-1.0,1.0,-1.74533
1776696035460092371,1776696035459,False,1.62845723474705,1.519333257405537,0.01579638032143041,0.04639284817100731,-0.011084779923183255,-0.7026085534886867,1.0,1.0,3.0,-1.5,-1.0,-1.0,1.0,-1.74533
1776696035559653428,1776696035559,False,1.6281031143777451,1.5192549895380325,0.016223566440858702,0.031587354041290414,-0.006628263958555604,-0.7111953550537871,1.0,1.0,3.0,-1.5,-1.0,-1.0,1.0,-1.74533
1776696035659739999,1776696035659,False,1.628663356775006,1.519575039019906,0.015624285411704245,0.046157871222433935,-0.012916117816223142,-0.704977745867206,1.0,1.0,3.0,-1.5,-1.0,-1.0,1.0,-1.74533
1776696035761088221,1776696035760,False,1.6286344536376642,1.5193118936206043,0.015676065946536748,0.045631894017719436,-0.013291112762581138,-0.7007700786283759,1.0,1.0,3.0,-1.5,-1.0,-1.0,1.0,-1.74533
1776696035860004132,1776696035859,False,1.628653778988733,1.5195720104523522,0.015622186308358805,0.04664053624783447,-0.014111433256894675,-0.7047227292392199,1.0,1.0,3.0,-1.5,-1.0,-1.0,1.0,-1.74533
1776696035960629317,1776696035959,False,1.6281892589833835,1.519248833175606,0.01622447298633546,0.031189379457060858,-0.006317435275587069,-0.7084142131351864,1.0,1.0,3.0,-1.5,-1.0,-1.0,1.0,-1.74533
1776696036059944947,1776696036059,False,1.628097936889428,1.5192411572239974,0.01625684200873068,0.030652190911383347,-0.005553606081340412,-0.7108833118376227,1.0,1.0,3.0,-1.5,-1.0,-1.0,1.0,-1.74533
1776696036159707068,1776696036159,False,1.6284275977701874,1.5193256914454953,0.015792838763389046,0.04492778739839313,-0.010471614278692387,-0.7031345245303512,1.0,1.0,3.0,-1.5,-1.0,-1.0,1.0,-1.74533
1776696036260056714,1776696036259,False,1.6281911396945912,1.5192221953912282,0.016227778067606183,0.029084551956945464,-0.0059375598257790565,-0.7092242499373416,1.0,1.0,3.0,-1.5,-1.0,-1.0,1.0,-1.74533
1776696036359841109,1776696036359,False,1.6282345459234118,1.5194498056474484,0.016137526298601886,0.02935937766543617,-0.007576949924977026,-0.7137363087760841,1.0,1.0,3.0,-1.5,-1.0,-1.0,1.0,-1.74533
1776696036460072074,1776696036459,False,1.6281382524686867,1.51943813178762,0.016278355663299757,0.028670513168512563,-0.004941607383456304,-0.7135740708330206,1.0,1.0,3.0,-1.5,-1.0,-1.0,1.0,-1.74533
1776696036559781595,1776696036559,False,1.6282397916664235,1.5194842425779758,0.016135603203187025,0.030615073865188813,-0.007567865707656852,-0.7135175130951898,1.0,1.0,3.0,-1.5,-1.0,-1.0,1.0,-1.74533
1776696036659637689,1776696036659,False,1.6281759489002416,1.5192624484708,0.016179738835076406,0.031197337323510464,-0.005527327009580597,-0.7089738474439944,1.0,1.0,3.0,-1.5,-1.0,-1.0,1.0,-1.74533
1776696036759593756,1776696036759,False,1.6284864685957108,1.5193244212745385,0.015803596603314634,0.04455921063018047,-0.010171423762489796,-0.7033247049232898,1.0,1.0,3.0,-1.5,-1.0,-1.0,1.0,-1.74533
1776696036860684908,1776696036860,False,1.6281597605582598,1.5192502086922453,0.016264137950461863,0.03135448864655432,-0.005361589512298043,-0.7106951698258795,1.0,1.0,3.0,-1.5,-1.0,-1.0,1.0,-1.74533
1776696036964168436,1776696036963,False,1.6282170577696455,1.5192643163016004,0.01627495776153475,0.030665450522240473,-0.005599145751888004,-0.7093653501142698,1.0,1.0,3.0,-1.5,-1.0,-1.0,1.0,-1.74533
1776696037064573600,1776696037064,False,1.6281623418475673,1.5192432363625388,0.01609764378428754,0.031374120911128935,-0.009315605931958139,-0.7106619737404439,1.0,1.0,3.0,-1.5,-1.0,-1.0,1.0,-1.74533
1776696037163223428,1776696037163,False,1.6281672878132893,1.5192323289654606,0.01619203473016428,0.029921557998787384,-0.007244601748690061,-0.7111733582285921,1.0,1.0,3.0,-1.5,-1.0,-1.0,1.0,-1.74533
1776696037264699605,1776696037263,False,1.6281522465196432,1.519257293154353,0.01623502537821245,0.029772770896891298,-0.005338790176570832,-0.7115846866708897,1.0,1.0,3.0,-1.5,-1.0,-1.0,1.0,-1.74533
1776696037363105967,1776696037362,False,1.6281353072983964,1.5192316996426745,0.016200100437981795,0.029876084504443554,-0.007192156726465868,-0.7107579157730657,1.0,1.0,3.0,-1.5,-1.0,-1.0,1.0,-1.74533
1776696037463672983,1776696037463,False,1.6286017129954669,1.5195637357928446,0.015622761072550133,0.04577375766599517,-0.012706201137032122,-0.7051438771691899,1.0,1.0,3.0,-1.5,-1.0,-1.0,1.0,-1.74533
